     3.04           OBSERVATION DATA    M: Mixed            RINEX VERSION / TYPE
RTKCONV demo5 b34h                      20231005 151949 UTC PGM / RUN BY / DATE 
format: u-blox UBX                                          COMMENT             
log: C:\Users\guoha\Dropbox\1_IPNL_Research\2023_Uris_LouiseCOMMENT             
                                                            MARKER NAME         
                                                            MARKER NUMBER       
                                                            MARKER TYPE         
                                                            OBSERVER / AGENCY   
                                                            REC # / TYPE / VERS 
                                                            ANT # / TYPE        
 -2418132.8492  5385874.2501  2405632.9525                  APPROX POSITION XYZ 
        0.0000        0.0000        0.0000                  ANTENNA: DELTA H/E/N
G    8 C1C L1C D1C S1C C5X L5X D5X S5X                      SYS / # / OBS TYPES 
E    8 C1X L1X D1X S1X C5X L5X D5X S5X                      SYS / # / OBS TYPES 
J    8 C1C L1C D1C S1C C5X L5X D5X S5X                      SYS / # / OBS TYPES 
  2023    10    05    14    56   52.0040000     GPS         TIME OF FIRST OBS   
  2023    10    05    14    59   29.0040000     GPS         TIME OF LAST OBS    
G L1C                                                       SYS / PHASE SHIFT   
G L5X  0.00000                                              SYS / PHASE SHIFT   
E L1X  0.00000                                              SYS / PHASE SHIFT   
E L5X  0.00000                                              SYS / PHASE SHIFT   
J L1C                                                       SYS / PHASE SHIFT   
J L5X  0.00000                                              SYS / PHASE SHIFT   
  0                                                         GLONASS SLOT / FRQ #
 C1C    0.000 C1P    0.000 C2C    0.000 C2P    0.000        GLONASS COD/PHS/BIS 
                                                            END OF HEADER       
> 2023 10 05 14 56 52.0040000  0 14                     
G08  22240782.585   116876107.0311      -2669.855          45.000    22240783.712    87277623.0431      -1993.393          43.000  
G09  24170675.693   127017731.0391      -2889.844          36.000    24170689.069    94850944.3921      -2158.546          35.000  
G04                                                                  24650016.050    96731956.7061      -2747.471          27.000  
G27  24610417.445   129328520.3511      -3947.603          35.000    24610405.294    96576512.9491      -2947.447          43.000  
E07                                                                  27424874.970   107621067.0281      -2288.009          31.000  
E15  25278584.295   132839893.2571        165.091          46.000    25278592.724    99198667.8491        123.712          41.000  
E18  26658095.817   140089272.0911       2521.044          46.000    26658105.100   104612177.8641       1882.667          41.000  
E27  26111925.593   137219096.5271         16.944          44.000    26111929.233   102468828.0291         13.086          27.000  
E34  27358526.587   143770015.9981      -2366.994          40.000    27358530.295   107360762.0351      -1767.412          40.000  
E30  26594873.478   139757003.4141      -1240.612          40.000    26594880.452   104364026.5681       -926.254          41.000  
J03  39165437.705   205815778.7801      -1467.560          45.000    39165441.545   153693624.7471      -1096.078          40.000  
G02  22241996.099   116882524.8391        391.383          42.000                                                                  
G07  22912375.434   120405352.5461       1758.901          44.000                                                                  
G21  21627943.050   113655641.9791       -366.419          46.000                                                                  
> 2023 10 05 14 56 53.0040000  0 14                     
G08  22241290.374   116878777.116       -2670.307          45.000    22241291.777    87279616.989       -1994.486          43.000  
G09  24171225.481   127020620.955       -2890.280          37.000    24171239.175    94853102.436       -2158.156          35.000  
G04                                                                  24650716.463    96734704.777       -2748.918          27.000  
G27  24611168.968   129332468.008       -3947.637          35.000    24611156.555    96579460.905       -2948.294          43.000  
E07                                                                  27425458.465   107623356.283       -2289.824          31.000  
E15  25278552.838   132839728.445         164.550          46.000    25278561.283    99198544.807         123.008          41.000  
E18  26657616.113   140086751.314        2520.538          46.000    26657625.411   104610295.483        1882.321          41.000  
E27  26111922.014   137219079.811          16.408          44.000    26111926.111   102468815.602          11.897          27.000  
E34  27358977.171   143772383.375       -2367.913          40.000    27358980.972   107362529.932       -1768.084          40.000  
E30  26595109.490   139758244.251       -1241.183          40.000    26595116.683   104364953.152        -926.502          41.000  
J03  39165716.872   205817246.498       -1467.883          45.000    39165720.937   153694720.789       -1096.291          40.000  
G02  22241921.616   116882133.657         390.665          42.000                                                                  
G07  22912041.031   120403594.012        1758.226          45.000                                                                  
G21  21628012.648   113656008.959        -367.439          46.000                                                                  
> 2023 10 05 14 56 54.0040000  0 14                     
G08  22241798.746   116881447.827       -2671.128          46.000    22241799.778    87281611.302       -1994.717          43.000  
G09  24171775.698   127023511.432       -2890.846          37.000    24171789.214    94855260.899       -2158.389          35.000  
G04                                                                  24651418.189    96737452.978       -2748.004          27.000  
G27  24611919.943   129336415.972       -3947.382          35.000    24611907.791    96582409.062       -2948.373          43.000  
E07                                                                  27426042.072   107625645.704       -2289.874          32.000  
E15  25278521.916   132839564.431         163.584          45.000    25278530.168    99198422.306         122.250          41.000  
E18  26657136.456   140084230.749        2520.446          46.000    26657146.061   104608413.211        1882.149          41.000  
E27  26111918.836   137219063.327          16.498          43.000    26111922.778   102468803.328          10.726          28.000  
E34  27359427.412   143774751.520       -2368.922          40.000    27359431.452   107364298.338       -1768.698          39.000  
E30  26595345.169   139759485.371       -1240.482          40.000    26595352.802   104365880.014        -927.408          41.000  
J03  39165996.311   205818714.624       -1468.442          45.000    39166000.342   153695817.085       -1096.599          40.000  
G02  22241847.217   116881743.341         389.859          42.000                                                                  
G07  22911706.512   120401836.154        1757.616          45.000                                                                  
G21  21628082.726   113656376.981        -368.520          46.000                                                                  
> 2023 10 05 14 56 55.0040000  0 14                     
G08  22242307.203   116884118.848       -2671.375          45.000    22242307.949    87283605.923       -1994.915          43.000  
G09  24172325.595   127026402.213       -2891.191          36.000    24172339.521    94857419.599       -2158.879          35.000  
G04                                                                  24652119.334    96740201.340       -2748.617          26.000  
G27  24612671.325   129340363.993       -3947.954          35.000    24612659.072    96585357.257       -2948.078          43.000  
E07                                                                  27426625.504   107627935.158       -2289.214          32.000  
E15  25278490.515   132839400.868         163.206          45.000    25278498.938    99198300.192         122.008          42.000  
E18  26656656.412   140081710.108        2520.396          45.000    26656666.412   104606530.926        1882.282          41.000  
E27  26111915.961   137219046.840          16.524          44.000    26111919.779   102468791.008          11.818          27.000  
E34  27359877.684   143777120.076       -2369.421          40.000    27359882.296   107366067.071       -1768.613          40.000  
E30  26595581.534   139760726.626       -1241.355          41.000    26595589.102   104366806.889        -926.800          41.000  
J03  39166275.528   205820182.825       -1468.517          45.000    39166279.560   153696913.483       -1096.191          40.000  
G02  22241772.994   116881353.697         389.145          42.000                                                                  
G07  22911371.924   120400078.663        1757.111          45.000                                                                  
G21  21628153.115   113656745.734        -369.369          46.000                                                                  
> 2023 10 05 14 56 56.0040000  0 14                     
G08  22242815.456   116886790.329       -2671.617          45.000    22242816.304    87285600.871       -1994.922          43.000  
G09  24172875.663   127029293.416       -2890.975          36.000    24172889.588    94859578.619       -2159.239          35.000  
G04                                                                  24652819.890                       -2748.924          26.000  
G27  24613423.015   129344312.256       -3948.973          34.000    24613410.478    96588305.602       -2948.359          43.000  
E07                                                                  27427208.977   107630224.937       -2290.097          33.000  
E15  25278459.836   132839237.979         162.605          45.000    25278468.078    99198178.564         121.560          42.000  
E18  26656176.488   140079189.574        2520.446          46.000    26656186.738   104604648.722        1882.251          41.000  
E27  26111912.461   137219030.576          15.955          43.000    26111916.695   102468778.773          12.137          28.000  
E34  27360327.888   143779489.267       -2369.422          41.000    27360333.152   107367836.235       -1769.306          39.000  
E30  26595817.970   139761968.119       -1241.594          40.000    26595825.316   104367733.977        -927.261          42.000  
J03  39166555.131   205821651.305       -1468.625          45.000    39166558.955   153698010.072       -1096.448          40.000  
G02  22241699.201   116880964.842         388.513          42.000                                                                  
G07  22911037.638   120398321.756        1756.500          44.000                                                                  
G21  21628223.466   113657115.418        -370.149          45.000                                                                  
> 2023 10 05 14 56 57.0040000  0 14                     
G08  22243323.889   116889461.977       -2671.892          45.000    22243324.842    87287595.921       -1995.017          43.000  
G09  24173425.966   127032184.741       -2891.505          36.000    24173439.888    94861737.713       -2159.423          34.000  
G04                                                                  24653519.616                       -2745.458          26.000  
G27  24614174.685   129348260.304       -3947.885          33.000    24614161.746    96591253.865       -2948.219          43.000  
E07                                                                  27427792.367   107632514.550       -2288.769          32.000  
E15  25278428.712   132839075.423         162.356          45.000    25278436.942    99198057.165         121.228          41.000  
E18  26655697.014   140076668.816        2520.796          45.000    26655707.075   104602766.358        1882.358          41.000  
E27  26111909.719   137219014.098          16.323          43.000    26111913.398                          12.249          27.000  
E34  27360779.089   143781858.691       -2369.344          41.000    27360783.954   107369605.640       -1769.474          39.000  
E30  26596053.980   139763209.482       -1241.205          40.000    26596061.557   104368661.000        -927.214          41.000  
J03  39166834.526   205823119.703       -1468.423          45.000    39166838.528   153699106.604       -1095.990          40.000  
G02  22241625.178   116880576.454         388.086          41.000                                                                  
G07  22910703.409   120396565.033        1756.709          44.000                                                                  
G21  21628293.865   113657485.685        -370.638          46.000                                                                  
> 2023 10 05 14 56 58.0040000  0 14                     
G08  22243832.238   116892133.839       -2671.977          44.000    22243833.184    87289591.162       -1995.742          43.000  
G09  24173976.242   127035076.236       -2891.652          36.000    24173989.966    94863896.972       -2159.663          35.000  
G04                                                                  24654220.933                       -2748.909          25.000  
G27  24614925.623   129352208.405       -3948.393          36.000    24614912.994    96594202.108       -2948.476          43.000  
E07                                                                  27428375.983   107634804.236       -2289.713          32.000  
E15  25278397.948   132838913.274         161.699          45.000    25278406.226    99197936.091         120.835          41.000  
E18  26655217.451   140074147.894        2520.884          46.000    26655227.243   104600883.877        1882.118          40.000  
E27  26111906.147   137218997.542          16.523          44.000    26111910.205                          11.944          27.000  
E34  27361229.889   143784228.459       -2370.043          42.000    27361234.794   107371375.344       -1769.887          39.000  
E30  26596290.578   139764450.921       -1241.115          40.000    26596297.653   104369588.014        -927.405          41.000  
J03  39167113.795   205824588.112       -1468.483          45.000    39167118.003   153700203.170       -1096.581          40.000  
G02  22241551.633   116880188.598         387.576          41.000                                                                  
G07  22910369.219   120394808.641        1756.059          45.000                                                                  
G21  21628364.396   113657856.610        -371.400          46.000                                                                  
> 2023 10 05 14 56 59.0040000  0 14                     
G08  22244340.528   116894806.071       -2672.518          45.000    22244341.641    87291586.632       -1995.900          43.000  
G09  24174526.466   127037968.110       -2892.065          35.000    24174540.468    94866056.457       -2159.639          35.000  
G04                                                                  24654921.602                       -2749.583          26.000  
G27  24615676.972   129356156.520       -3947.700          33.000    24615664.402    96597150.379       -2948.297          43.000  
E07                                                                  27428959.532   107637094.046       -2290.607          32.000  
E15  25278367.186   132838751.684         161.156          45.000    25278375.619    99197815.416         120.248          41.000  
E18  26654737.768   140071627.005        2520.742          46.000    26654747.418   104599001.360        1882.553          41.000  
E27  26111903.041   137218981.052          16.310          43.000    26111906.882                          12.296          26.000  
E34  27361680.872   143786598.841       -2370.738          40.000    27361686.004   107373145.363       -1770.427          40.000  
E30  26596527.151   139765692.433       -1241.706          41.000    26596534.010   104370515.117        -927.187          41.000  
J03  39167393.363   205826056.702       -1468.616          45.000    39167397.325   153701299.834       -1096.815          40.000  
G02  22241477.937   116879801.478         386.736          41.000                                                                  
G07  22910034.750   120393052.686        1755.659          45.000                                                                  
G21  21628435.207   113658228.341        -372.112          46.000                                                                  
> 2023 10 05 14 57 00.0040000  0 14                     
G08  22244849.209   116897478.442       -2672.458          45.000    22244850.228    87293582.245       -1995.529          43.000  
G09  24175076.782   127040860.134       -2891.975          35.000    24175091.006    94868216.093       -2159.638          35.000  
G04                                                                  24655621.516                       -2747.453          25.000  
G27  24616428.419   129360104.605       -3948.350          34.000    24616415.677    96600098.620       -2948.040          43.000  
E07                                                                  27429542.996   107639383.764       -2289.230          32.000  
E15  25278336.206   132838590.423         161.108          45.000    25278344.908    99197695.022         120.290          41.000  
E18  26654257.791   140069105.890        2521.261          46.000    26654267.549   104597118.732        1882.813          41.000  
E27  26111899.819   137218964.402          16.652          43.000    26111903.559                          12.616          25.000  
E34  27362131.980   143788969.426       -2370.590          41.000    27362137.084   107374915.631       -1770.307          40.000  
E30  26596763.534   139766933.897       -1241.512          41.000    26596770.155   104371442.201        -926.975          41.000  
J03  39167672.870   205827525.232       -1468.565          45.000    39167676.778   153702396.474       -1096.694          40.000  
G02  22241404.444   116879414.809         386.541          41.000                                                                  
G07  22909700.792   120391296.982        1755.463          45.000                                                                  
G21  21628506.211   113658600.684        -372.793          46.000                                                                  
> 2023 10 05 14 57 01.0040000  0 14                     
G08  22245358.060   116900151.279       -2673.206          45.000    22245359.002    87295578.182       -1996.116          43.000  
G09  24175627.081   127043752.498       -2892.213          34.000    24175641.452    94870375.952       -2159.456          35.000  
G04                                                                  24656321.801                       -2748.641          25.000  
G27  24617180.213   129364052.827       -3948.623          35.000    24617167.029    96603046.959       -2948.585          43.000  
E07                                                                  27430126.573   107641673.677       -2289.825          33.000  
E15  25278305.614   132838429.788         160.375          45.000    25278314.398    99197575.052         119.658          41.000  
E18  26653777.970   140066584.852        2520.913          45.000    26653787.815   104595236.148        1882.175          40.000  
E27  26111896.445   137218947.881          16.637          43.000    26111900.141                          12.807          24.000  
E34  27362582.912   143791340.605       -2371.391          40.000    27362588.441   107376686.313       -1771.127          40.000  
E30  26596999.951   139768175.554       -1241.756          41.000    26597006.423   104372369.400        -927.369          41.000  
J03  39167952.322   205828993.985       -1468.809          45.000    39167956.217   153703493.277       -1097.142          40.000  
G02  22241330.980   116879028.918         385.647          41.000                                                                  
G07  22909366.826   120389541.785        1754.969          45.000                                                                  
G21  21628577.166   113658973.897        -373.608          46.000                                                                  
> 2023 10 05 14 57 02.0040000  0 14                     
G08  22245866.820   116902824.564       -2673.619          45.000    22245867.643    87297574.480       -1996.555          43.000  
G09  24176177.507   127046645.360       -2893.381          34.000    24176191.997    94872536.221       -2160.409          36.000  
G04                                                                  24657022.453                       -2749.813          25.000  
G27  24617931.866   129368001.231       -3948.728          35.000    24617918.416    96605995.452       -2948.579          43.000  
E07                                                                  27430710.088   107643963.808       -2290.571          33.000  
E15  25278275.245   132838269.799         159.674          45.000    25278283.826    99197455.592         119.397          41.000  
E18  26653298.361   140064063.894        2520.910          45.000    26653308.205   104593353.613        1882.820          40.000  
E27  26111893.541   137218931.520          16.414          43.000    26111896.990                          12.150          23.000  
E34  27363034.017   143793712.374       -2371.880          40.000    27363039.874   107378457.426       -1771.212          40.000  
E30  26597236.229   139769417.443       -1241.958          41.000    26597242.813   104373296.795        -927.457          41.000  
J03  39168231.904   205830462.992       -1469.078          45.000    39168235.863   153704590.269       -1097.084          40.000  
G02  22241257.372   116878643.808         384.871          41.000                                                                  
G07  22909032.576   120387787.128        1754.271          45.000                                                                  
G21  21628648.235   113659348.027        -374.587          46.000                                                                  
> 2023 10 05 14 57 03.0040000  0 14                     
G08  22246375.592   116905497.980       -2673.759          45.000    22246376.381    87299570.874       -1996.936          43.000  
G09  24176727.687   127049538.300       -2893.177          34.000    24176742.689    94874696.524       -2160.622          36.000  
G04  24657520.044                       -3802.020          24.000    24657724.296                       -2748.589          25.000  
G27  24618683.542   129371949.508       -3948.452          35.000    24618669.735    96608943.856       -2948.992          43.000  
E07                                                                  27431293.678   107646253.867       -2290.745          33.000  
E15  25278244.701   132838110.135         159.222          45.000    25278253.447    99197336.387         118.476          41.000  
E18  26652818.398   140061542.712        2521.153          45.000    26652828.514   104591470.950        1882.282          41.000  
E27  26111890.080   137218914.993          16.334          43.000    26111893.563                          11.437          23.000  
E34  27363485.529   143796084.419       -2372.491          40.000    27363491.126   107380228.779       -1771.964          40.000  
E30  26597472.652   139770659.254       -1242.033          41.000    26597479.208   104374224.132        -927.815          41.000  
J03  39168511.544   205831931.947       -1469.372          45.000    39168515.461   153705687.205       -1096.967          40.000  
G02  22241184.329   116878259.173         384.103          41.000                                                                  
G07  22908698.752   120386032.703        1753.932          45.000                                                                  
G21  21628719.761   113659722.732        -375.148          46.000                                                                  
> 2023 10 05 14 57 04.0040000  0 14                     
G08  22246884.323   116908171.751       -2674.119          45.000    22246885.187    87301567.481       -1996.592          43.000  
G09  24177278.308   127052431.575       -2893.626          34.000    24177293.285    94876857.045       -2160.366          36.000  
G04                                                                  24658424.521                       -2748.870          25.000  
G27  24619435.364   129375897.877       -3948.723          35.000    24619421.048    96611892.278       -2948.537          43.000  
E07                                                                  27431877.293   107648543.989       -2290.509          33.000  
E15  25278214.920   132837950.991         158.928          45.000    25278223.140    99197217.523         118.687          41.000  
E18  26652338.697   140059021.518        2521.198          45.000    26652348.770   104589588.216        1882.627          41.000  
E27  26111887.501   137218898.488          16.451          43.000    26111887.995                          12.632          23.000  
E34  27363936.478   143798456.930       -2372.695          40.000    27363942.674   107382000.433       -1771.766          40.000  
E30  26597709.151   139771901.182       -1242.096          41.000    26597715.499   104375151.510        -927.323          41.000  
J03  39168791.203   205833401.015       -1469.098          45.000    39168794.991   153706784.234       -1097.078          40.000  
G02  22241111.314   116877875.196         383.663          41.000                                                                  
G07  22908364.802   120384278.704        1753.621          45.000                                                                  
G21  21628791.360   113660098.207        -375.960          46.000                                                                  
> 2023 10 05 14 57 05.0040000  0 14                     
G08  22247393.376   116910845.778       -2673.933          45.000    22247393.975    87303564.345       -1996.618          43.000  
G09  24177828.924   127055325.040       -2893.088          34.000    24177844.071    94879017.797       -2160.723          36.000  
G04                                                                  24659125.375                       -2748.747          25.000  
G27  24620186.976   129379846.222       -3947.959          35.000    24620172.493    96614840.716       -2948.014          43.000  
E07                                                                  27432460.834   107650834.189       -2290.177          33.000  
E15  25278184.641   132837792.302         158.675          45.000    25278192.956    99197099.045         118.491          41.000  
E18  26651858.986   140056500.203        2521.566          46.000    26651868.887   104587705.433        1883.365          41.000  
E27  26111884.428   137218881.930          16.906          43.000    26111883.740                          12.372          22.000  
E34  27364387.936   143800829.840       -2373.015          40.000    27364394.376   107383772.434       -1772.006          40.000  
E30  26597945.196   139773143.131       -1241.911          41.000    26597951.769   104376078.957        -927.100          41.000  
J03  39169070.900   205834870.142       -1468.946          45.000    39169074.564   153707881.325       -1096.749          40.000  
G02  22241038.507   116877491.812         383.182          41.000                                                                  
G07  22908031.189   120382525.041        1753.564          45.000                                                                  
G21  21628863.055   113660474.372        -376.326          46.000                                                                  
> 2023 10 05 14 57 06.0040000  0 14                     
G08  22247902.274   116913520.050       -2674.530          45.000    22247902.872    87305561.361       -1997.306          43.000  
G09  24178379.881   127058218.726       -2893.537          35.000    24178394.711    94881178.639       -2160.638          35.000  
G04                                                                  24659824.495                       -2747.946          23.000  
G27  24620938.433   129383794.548       -3948.385          34.000    24620923.865    96617789.116       -2948.542          43.000  
E07                                                                  27433044.512   107653124.370       -2290.673          33.000  
E15  25278154.594   132837634.025         157.813          45.000    25278162.663    99196980.842         117.966          41.000  
E18  26651379.223   140053978.760        2521.264          46.000    26651389.016   104585822.541        1882.660          41.000  
E27  26111881.095   137218865.318          16.415          43.000    26111880.630                          12.809          22.000  
E34  27364839.485   143803203.102       -2373.529          40.000    27364845.955   107385544.658       -1772.369          40.000  
E30  26598181.841   139774385.083       -1242.126          41.000    26598188.029   104377006.373        -927.508          41.000  
J03  39169350.444   205836339.283       -1469.140          45.000    39169354.209   153708978.408       -1097.310          40.000  
G02  22240965.689   116877108.978         382.457          41.000                                                                  
G07  22907697.513   120380771.692        1753.069          45.000                                                                  
G21  21628934.825   113660851.220        -377.301          46.000                                                                  
> 2023 10 05 14 57 07.0040000  0 14                     
G08  22248411.149   116916194.557       -2674.618          45.000    22248411.863    87307558.570       -1997.304          43.000  
G09  24178930.654   127061112.681       -2894.558          35.000    24178945.510    94883339.695       -2161.121          35.000  
G04  24661025.775                       -3803.914          22.000    24660524.352                       -2748.230          23.000  
G27  24621689.729   129387742.819       -3948.200          34.000    24621675.224    96620737.535       -2948.499          43.000  
E07                                                                  27433628.225   107655414.600       -2290.453          33.000  
E15  25278124.747   132837476.179         157.509          45.000    25278132.582    99196863.000         117.503          41.000  
E18  26650899.582   140051457.198        2521.598          46.000    26650909.243   104583939.591        1882.752          41.000  
E27  26111878.130   137218848.622          16.724          43.000    26111877.822                          12.522          22.000  
E34  27365291.135   143805576.766       -2374.040          40.000    27365297.577   107387317.214       -1772.670          40.000  
E30  26598418.168   139775627.055       -1241.993          41.000    26598424.288   104377933.831        -927.378          41.000  
J03  39169629.694   205837808.482       -1469.294          45.000    39169633.720   153710075.552       -1097.477          40.000  
G02  22240892.843   116876726.728         381.904          41.000                                                                  
G07  22907364.205   120379018.679        1752.806          45.000                                                                  
G21  21629006.824   113661228.771        -378.035          46.000                                                                  
> 2023 10 05 14 57 08.0040000  0 14                     
G08  22248920.146   116918869.582       -2675.606          45.000    22248920.785    87309556.164       -1998.292          43.000  
G09  24179481.586   127064007.080       -2894.698          35.000    24179496.275    94885501.111       -2162.399          35.000  
G04                                                                  24661225.262                       -2750.307          23.000  
G27  24622441.206   129391691.364       -3948.940          34.000    24622426.645    96623686.108       -2948.927          43.000  
E07                                                                  27434211.876   107657705.035       -2290.925          33.000  
E15  25278094.972   132837319.037         156.452          45.000    25278102.692    99196745.656         116.531          41.000  
E18  26650419.619   140048935.777        2521.134          46.000    26650429.423   104582056.712        1882.248          41.000  
E27  26111874.989   137218832.140          16.134          43.000    26111874.552                          11.658          22.000  
E34  27365742.958   143807951.062       -2374.879          40.000    27365749.311   107389090.251       -1773.826          40.000  
E30  26598654.687   139776869.310       -1242.548          41.000    26598660.784   104378861.511        -928.500          41.000  
J03  39169909.240   205839277.970       -1469.921          45.000    39169913.249   153711172.898       -1097.975          40.000  
G02  22240820.116   116876345.305         380.483          41.000                                                                  
G07  22907030.781   120377266.255        1751.904          45.000                                                                  
G21  21629078.757   113661607.277        -379.368          46.000                                                                  
> 2023 10 05 14 57 09.0040000  0 14                     
G08  22249429.293   116921545.022       -2675.509          45.000    22249429.908    87311554.031       -1997.974          43.000  
G09  24180032.481   127066901.904       -2895.286          35.000    24180047.017    94887662.756       -2161.853          36.000  
G04                                                                  24661926.277                       -2749.326          23.000  
G27  24623192.155   129395640.051       -3948.894          34.000    24623177.891    96626634.776       -2948.659          43.000  
E07                                                                  27434795.339   107659995.569       -2290.363          32.000  
E15  25278065.023   132837162.487         156.347          46.000    25278072.957    99196628.740         116.865          41.000  
E18  26649939.890   140046414.430        2521.443          46.000    26649949.554   104580173.862        1882.993          41.000  
E27  26111872.004   137218815.773          16.492          43.000    26111873.572                          12.453          24.000  
E34  27366194.765   143810325.935       -2375.296          40.000    27366201.308   107390863.657       -1773.695          40.000  
E30  26598891.342   139778111.750       -1242.602          41.000    26598897.229   104379789.289        -927.753          41.000  
J03  39170188.847   205840747.672       -1469.693          44.000    39170192.830   153712270.367       -1097.370          40.000  
G02  22240747.550   116875964.611         380.545          41.000                                                                  
G07  22906697.382   120375514.343        1751.590          45.000                                                                  
G21  21629150.906   113661986.637        -379.644          46.000                                                                  
> 2023 10 05 14 57 10.0040000  0 14                     
G08  22249938.475   116924220.760       -2675.853          45.000    22249939.072    87313552.173       -1998.248          43.000  
G09  24180583.676   127069796.973       -2895.252          36.000    24180597.867    94889824.656       -2161.562          36.000  
G04                                                                  24662627.013                       -2748.790          23.000  
G27  24623943.404   129399588.741       -3948.682          33.000    24623929.299    96629583.501       -2948.417          43.000  
E07                                                                  27435378.939   107662286.269       -2290.251          32.000  
E15  25278035.512   132837006.432         155.838          46.000    25278043.352    99196512.241         116.386          41.000  
E18  26649460.224   140043892.994        2521.484          46.000    26649469.801   104578290.986        1883.190          41.000  
E27  26111869.087   137218799.379          16.500          44.000    26111870.344                          12.357          25.000  
E34  27366646.683   143812701.211       -2375.454          40.000    27366653.414   107392637.438       -1773.908          40.000  
E30  26599128.106   139779354.253       -1242.435          41.000    26599133.566   104380717.141        -927.363          41.000  
J03  39170468.642   205842217.460       -1469.632          44.000    39170472.611   153713367.964       -1097.472          40.000  
G02  22240675.340   116875584.560         379.937          42.000                                                                  
G07  22906363.990   120373762.807        1751.446          45.000                                                                  
G21  21629223.355   113662366.761        -380.465          46.000                                                                  
> 2023 10 05 14 57 11.0040000  0 14                     
G08  22250447.754   116926896.597       -2676.030          45.000    22250448.296    87315550.340       -1998.329          43.000  
G09  24181134.718   127072692.097       -2895.668          36.000    24181148.642    94891986.591       -2162.240          36.000  
G04                                                                  24663326.472                       -2751.224          23.000  
G27  24624694.476   129403537.265       -3948.318          33.000    24624680.626    96632532.087       -2948.768          43.000  
E07                                                                  27435962.580   107664576.824       -2290.615          32.000  
E15  25278005.935   132836850.658         155.364          46.000    25278013.697    99196395.894         116.047          41.000  
E18  26648980.392   140041371.291        2521.563          46.000    26648989.817   104576407.897        1883.048          41.000  
E27  26111865.589   137218782.771          16.625          44.000    26111866.242   102468571.7921         12.435          26.000  
E34  27367098.561   143815076.729       -2376.029          40.000    27367105.517   107394411.337       -1774.216          40.000  
E30  26599364.649   139780596.657       -1242.578          41.000    26599370.073   104381644.890        -927.931          42.000  
J03  39170748.344   205843687.144       -1469.832          44.000    39170752.235   153714465.441       -1097.616          40.000  
G02  22240603.010   116875204.942         379.388          42.000                                                                  
G07  22906030.367   120372011.464        1750.887          44.000                                                                  
G21  21629295.879   113662747.426        -381.290          46.000                                                                  
> 2023 10 05 14 57 12.0040000  0 14                     
G08  22250957.376   116929572.893       -2676.386          46.000    22250957.552    87317548.910       -1998.937          42.000  
G09  24181685.762   127075587.667       -2895.571          36.000    24181699.807    94894148.867       -2162.058          36.000  
G04                                                                  24664027.552                       -2749.964          24.000  
G27  24625445.615   129407486.004       -3948.781          34.000    24625432.249    96635480.830       -2948.751          43.000  
E07                                                                  27436546.660   107666867.593       -2290.968          32.000  
E15  25277976.523   132836695.531         155.003          46.000    25277984.248    99196280.067         115.697          41.000  
E18  26648500.438   140038849.682        2521.692          46.000    26648509.982   104574524.898        1883.147          41.000  
E27  26111862.681   137218766.327          16.562          43.000    26111863.112                          12.532          26.000  
E34  27367550.970   143817452.836       -2376.209          40.000    27367557.729   107396185.729       -1774.324          40.000  
E30  26599601.301   139781839.272       -1242.422          41.000    26599606.474   104382572.832        -927.925          41.000  
J03  39171028.075   205845157.093       -1470.038          44.000    39171032.092   153715563.153       -1097.829          40.000  
G02  22240530.854   116874826.104         378.499          41.000                                                                  
G07  22905697.290   120370260.656        1750.684          45.000                                                                  
G21  21629368.659   113663128.994        -381.880          46.000                                                                  
> 2023 10 05 14 57 13.0040000  0 14                     
G08  22251466.822   116932249.363       -2676.623          46.000    22251466.967    87319547.581       -1999.338          43.000  
G09  24182236.895   127078483.405       -2896.282          37.000    24182250.757    94896311.277       -2162.983          36.000  
G04                                                                  24664726.340                       -2748.970          24.000  
G27  24626196.637   129411434.737       -3949.156          32.000    24626183.619    96638429.507       -2948.885          43.000  
E07                                                                  27437130.398   107669158.339       -2291.024          32.000  
E15  25277946.768   132836540.782         154.327          46.000    25277954.778    99196164.500         115.251          42.000  
E18  26648020.482   140036327.901        2521.650          46.000    26648030.173   104572641.757        1882.790          41.000  
E27  26111859.389   137218749.773          16.399          43.000    26111860.391                          12.099          26.000  
E34  27368003.149   143819829.269       -2376.751          40.000    27368009.872   107397960.346       -1774.889          39.000  
E30  26599837.934   139783081.856       -1242.584          41.000    26599843.011   104383500.741        -928.321          41.000  
J03  39171307.526   205846627.020       -1470.046          45.000    39171311.803   153716660.841       -1098.085          40.000  
G02  22240458.670   116874447.763         378.202          41.000                                                                  
G07  22905364.176   120368510.123        1750.350          44.000                                                                  
G21  21629441.323   113663511.200        -382.465          46.000                                                                  
> 2023 10 05 14 57 14.0040000  0 14                     
G08  22251976.259   116934926.325       -2677.174          46.000    22251976.281    87321546.567       -1998.975          43.000  
G09  24182788.310   127081379.563       -2896.399          37.000    24182802.010    94898473.968       -2162.989          36.000  
G04  24664953.611                       -3802.000          24.000    24665427.390                       -2747.968          23.000  
G27  24626947.764   129415383.585       -3949.058          32.000    24626934.950    96641378.312       -2948.991          43.000  
E07                                                                  27437714.236   107671449.283       -2291.189          33.000  
E15  25277917.268   132836386.681         153.873          46.000    25277925.401    99196049.412         114.975          42.000  
E18  26647540.804   140033806.202        2521.936          46.000    26647550.055   104570758.649        1883.338          41.000  
E27  26111855.898   137218733.375          16.216          43.000    26111857.420                          12.716          27.000  
E34  27368455.382   143822206.293       -2377.031          41.000    27368462.090   107399735.395       -1775.331          40.000  
E30  26600074.192   139784324.682       -1243.138          41.000    26600079.588   104384428.787        -927.953          41.000  
J03  39171587.372   205848097.191       -1470.194          45.000    39171591.504   153717758.677       -1098.242          40.000  
G02  22240386.648   116874070.233         377.339          41.000                                                                  
G07  22905031.330   120366760.153        1749.780          45.000                                                                  
G21  21629514.058   113663894.324        -383.634          46.000                                                                  
> 2023 10 05 14 57 15.0040000  0 14                     
G08  22252486.004   116937603.612       -2677.574          46.000    22252485.740    87323545.872       -1999.501          43.000  
G09  24183339.826   127084276.024       -2896.580          37.000    24183353.132    94900636.896       -2163.023          36.000  
G04                                                                  24666125.703                       -2747.286          23.000  
G27  24627698.558   129419332.493       -3949.624          31.000    24627686.537    96644327.175       -2948.693          43.000  
E07                                                                  27438298.194   107673740.288       -2290.961          32.000  
E15  25277888.004   132836233.081         153.244          46.000    25277896.209    99195934.741         114.516          42.000  
E18  26647060.678   140031284.465        2521.895          46.000    26647070.367   104568875.565        1883.330          41.000  
E27  26111852.613   137218716.969          16.186          43.000    26111854.131   102468522.627          12.609          27.000  
E34  27368907.827   143824583.782       -2377.589          41.000    27368914.537   107401510.814       -1775.698          40.000  
E30  26600310.404   139785567.576       -1242.873          41.000    26600316.015   104385356.955        -928.078          41.000  
J03  39171866.988   205849567.475       -1470.263          44.000    39171871.278   153718856.618       -1098.014          40.000  
G02  22240314.706   116873693.350         376.725          41.000                                                                  
G07  22904698.674   120365010.556        1749.519          45.000                                                                  
G21  21629587.150   113664278.190        -384.236          46.000                                                                  
> 2023 10 05 14 57 16.0040000  0 14                     
G08  22252995.671   116940281.240       -2677.914          46.000    22252995.220    87325545.381       -1999.669          43.000  
G09  24183891.421   127087172.827       -2897.639          37.000    24183904.279    94902800.053       -2163.458          36.000  
G04                                                                  24666826.811                       -2750.140          23.000  
G27  24628449.714   129423281.423       -3949.060          31.000    24628437.911    96647276.081       -2949.023          43.000  
E07                                                                  27438881.873   107676031.369       -2291.421          32.000  
E15  25277858.981   132836080.001         152.765          46.000    25277867.167    99195820.431         114.066          42.000  
E18  26646580.793   140028762.706        2521.828          46.000    26646590.401   104566992.427        1883.060          41.000  
E27  26111849.404   137218700.598          16.218          43.000    26111851.711                          12.619          27.000  
E34  27369359.842   143826961.753       -2378.359          40.000    27369367.021   107403286.536       -1775.928          40.000  
E30  26600546.958   139786810.608       -1243.168          41.000    26600552.627   104386285.186        -928.610          41.000  
J03  39172146.629   205851037.887       -1470.349          44.000    39172151.017   153719954.642       -1098.006          40.000  
G02  22240243.054   116873317.135         375.916          41.000                                                                  
G07  22904366.009   120363261.414        1748.863          45.000                                                                  
G21  21629660.107   113664662.848        -385.078          46.000                                                                  
> 2023 10 05 14 57 17.0040000  0 14                     
G08  22253505.278   116942959.277       -2677.964          46.000    22253504.815    87327545.199       -1999.453          42.000  
G09  24184442.956   127090069.977       -2897.615          37.000    24184455.512    94904963.556       -2163.195          36.000  
G04                                                                  24667526.700                       -2747.821          24.000  
G27  24629200.807   129427230.551       -3948.852          32.000    24629189.263    96650225.083       -2948.421          43.000  
E07                                                                  27439465.920   107678322.657       -2290.859          33.000  
E15  25277830.132   132835927.533         152.648          46.000    25277838.069    99195706.583         113.805          42.000  
E18  26646100.766   140026240.983        2521.989          45.000    26646110.534   104565109.311        1883.464          40.000  
E27  26111846.399   137218684.332          16.629          43.000    26111848.098                          13.163          27.000  
E34  27369812.439   143829340.237       -2378.235          40.000    27369819.587   107405062.691       -1775.818          40.000  
E30  26600783.497   139788053.808       -1242.807          41.000    26600789.338   104387213.533        -927.930          42.000  
J03  39172426.559   205852508.512       -1470.477          44.000    39172430.825   153721052.856       -1097.977          40.000  
G02  22240171.277   116872941.667         375.450          41.000                                                                  
G07  22904033.154   120361512.763        1748.756          45.000                                                                  
G21  21629733.410   113665048.384        -385.817          46.000                                                                  
> 2023 10 05 14 57 18.0040000  0 14                     
G08  22254014.684   116945637.669       -2678.447          45.000    22254014.490    87329545.325       -2000.313          42.000  
G09  24184994.575   127092967.441       -2897.615          37.000    24185007.002    94907127.250       -2163.915          35.000  
G04                                                                  24668226.431                       -2750.872          24.000  
G27  24629951.643   129431179.747       -3948.449          32.000    24629940.882    96653174.184       -2949.085          43.000  
E07                                                                  27440050.061   107680614.002       -2290.872          34.000  
E15  25277800.856   132835775.599         151.821          46.000    25277809.105    99195593.134         113.190          42.000  
E18  26645620.836   140023719.244        2521.722          45.000    26645630.821   104563226.219        1883.164          40.000  
E27  26111843.428   137218668.099          16.370          43.000    26111845.042                          11.976          26.000  
E34  27370264.970   143831719.233       -2379.277          40.000    27370272.167   107406839.252       -1776.949          39.000  
E30  26601019.506   139789297.141       -1243.303          40.000    26601025.827   104388142.007        -928.550          42.000  
J03  39172706.586   205853979.267       -1470.875          45.000    39172710.792   153722151.163       -1098.433          40.000  
G02  22240100.307   116872566.875         374.452          41.000                                                                  
G07  22903700.555   120359764.537        1748.182          44.000                                                                  
G21  21629806.601   113665434.695        -386.672          46.000                                                                  
> 2023 10 05 14 57 19.0040000  0 14                     
G08  22254524.349   116948316.378       -2679.079          46.000    22254524.286    87331545.621       -2000.557          42.000  
G09  24185546.538   127095865.225       -2898.337          37.000    24185558.495    94909291.149       -2164.044          35.000  
G04                                                                  24668926.122                       -2748.662          25.000  
G27  24630702.385   129435129.000       -3949.058          32.000    24630692.410    96656123.282       -2949.257          43.000  
E07                                                                  27440634.045   107682905.433       -2291.356          33.000  
E15  25277772.376   132835624.172         151.002          46.000    25277780.274    99195480.037         112.623          42.000  
E18  26645141.161   140021197.465        2521.455          45.000    26645150.997   104561343.064        1882.919          40.000  
E27  26111840.208   137218651.895          15.999          43.000    26111840.590                          12.932          26.000  
E34  27370718.377   143834098.679       -2379.880          40.000    27370725.023   107408616.070       -1777.128          39.000  
E30  26601255.801   139790540.556       -1243.715          40.000    26601262.346   104389070.526        -928.832          42.000  
J03  39172986.680   205855450.147       -1471.098          45.000    39172990.721   153723249.530       -1098.665          40.000  
G02  22240029.059   116872192.734         373.480          41.000                                                                  
G07  22903367.820   120358016.731        1747.425          44.000                                                                  
G21  21629880.138   113665821.775        -387.569          46.000                                                                  
> 2023 10 05 14 57 20.0040000  0 14                     
G08  22255034.104   116950995.328       -2679.047          45.000    22255033.922    87333546.159       -2000.488          42.000  
G09  24186098.266   127098763.196       -2897.675          36.000    24186110.189    94911455.251       -2164.168          35.000  
G04                                                                  24669626.948                       -2749.272          25.000  
G27  24631453.412   129439078.305       -3949.958          32.000    24631444.012    96659072.416       -2949.036          43.000  
E07                                                                  27441217.923   107685196.934       -2291.250          33.000  
E15  25277743.480   132835473.182         150.854          46.000    25277751.671    99195367.289         112.890          42.000  
E18  26644661.201   140018675.572        2522.082          45.000    26644671.101   104559459.845        1883.336          40.000  
E27  26111836.945   137218635.640          16.350          43.000    26111837.649                          11.530          26.000  
E34  27371171.023   143836478.521       -2379.923          40.000    27371177.941   107410393.223       -1776.890          39.000  
E30  26601492.010   139791784.000       -1243.276          40.000    26601498.991   104389999.069        -928.375          42.000  
J03  39173266.701   205856921.077       -1470.931          45.000    39173270.544   153724347.962       -1098.218          40.000  
G02  22239958.166   116871819.167         373.322          41.000                                                                  
G07  22903035.403   120356269.255        1747.463          44.000                                                                  
G21  21629954.028   113666209.564        -388.131          46.000                                                                  
> 2023 10 05 14 57 21.0040000  0 14                     
G08  22255543.977   116953674.765       -2679.487          46.000    22255543.770    87335547.031       -2001.115          42.000  
G09  24186649.977   127101661.649       -2898.732          36.000    24186661.798    94913619.650       -2164.511          35.000  
G04  24670344.935                       -3671.000          26.000    24670326.507                       -2750.079          25.000  
G27  24632204.616   129443027.687       -3949.364          32.000    24632195.474    96662021.662       -2949.224          43.000  
E07                                                                  27441801.792   107687488.585       -2291.826          34.000  
E15  25277715.182   132835322.861         149.927          46.000    25277723.110    99195255.038         112.124          42.000  
E18  26644181.362   140016153.801        2521.733          45.000    26644191.208   104557576.680        1883.435          40.000  
E27  26111833.690   137218619.537          16.111          43.000    26111834.784                          11.622          26.000  
E34  27371624.067   143838858.972       -2380.747          40.000    27371630.872   107412170.840       -1777.956          39.000  
E30  26601728.752   139793027.709       -1243.936          40.000    26601735.644   104390927.801        -928.884          41.000  
J03  39173546.699   205858392.264       -1471.187          45.000    39173550.602   153725446.579       -1098.820          40.000  
G02  22239887.193   116871446.392         372.427          41.000                                                                  
G07  22902702.981   120354522.343        1746.727          44.000                                                                  
G21  21630027.986   113666598.256        -389.031          46.000                                                                  
> 2023 10 05 14 57 22.0040000  0 14                     
G08  22256053.906   116956354.266       -2679.818          46.000    22256053.805    87337547.958       -2001.000          42.000  
G09  24187201.527   127104560.126       -2898.972          37.000    24187213.340    94915784.065       -2164.317          36.000  
G04                                                                  24671027.770                       -2748.671          25.000  
G27  24632955.840   129446976.909       -3949.122          31.000    24632946.986    96664970.760       -2948.876          43.000  
E07                                                                  27442385.731   107689780.125       -2292.073          34.000  
E15  25277686.407   132835172.771         149.824          46.000    25277694.528    99195142.952         111.986          41.000  
E18  26643701.328   140013631.725        2522.003          45.000    26643711.346   104555693.336        1883.378          39.000  
E27  26111830.415   137218603.184          16.231          43.000    26111831.104                          14.316          24.000  
E34  27372077.727   143841239.600       -2380.866          41.000    27372083.900   107413948.566       -1777.750          39.000  
E30  26601965.354   139794271.239       -1243.522          40.000    26601972.309   104391856.390        -928.425          41.000  
J03  39173826.554   205859863.309       -1471.259          45.000    39173830.336   153726545.078       -1098.482          40.000  
G02  22239816.530   116871074.036         371.956          41.000                                                                  
G07  22902370.493   120352775.614        1746.217          44.000                                                                  
G21  21630102.053   113666987.473        -389.601          46.000                                                                  
> 2023 10 05 14 57 23.0040000  0 14                     
G08  22256563.752   116959034.229       -2679.671          46.000    22256563.702    87339549.241       -2000.735          42.000  
G09  24187753.001   127107459.027       -2898.358          37.000    24187764.930    94917948.869       -2164.306          36.000  
G04                                                                  24671728.398                       -2750.734          25.000  
G27  24633707.063   129450926.355       -3948.910          31.000    24633698.610    96667920.063       -2949.137          43.000  
E07                                                                  27442969.618   107692071.858       -2291.118          34.000  
E15  25277657.797   132835023.359         149.577          46.000    25277665.843    99195031.403         111.859          41.000  
E18  26643221.161   140011109.747        2522.415          45.000    26643231.463   104553810.061        1883.657          39.000  
E27  26111827.302   137218587.015          16.535          43.000    26111828.179                          11.963          23.000  
E34  27372531.302   143843620.845       -2380.931          41.000    27372536.914   107415726.799       -1778.277          39.000  
E30  26602201.954   139795515.016       -1243.364          40.000    26602209.083   104392785.212        -928.454          41.000  
J03  39174106.643   205861334.619       -1470.932          45.000    39174110.423   153727643.799       -1098.156          40.000  
G02  22239745.842   116870702.460         371.910          42.000                                                                  
G07  22902038.356   120351029.420        1746.559          44.000                                                                  
G21  21630176.185   113667377.611        -390.153          46.000                                                                  
> 2023 10 05 14 57 24.0040000  0 14                     
G08  22257073.753   116961714.520       -2680.218          46.000    22257073.720    87341550.753       -2001.631          42.000  
G09  24188304.688   127110358.248       -2899.692          37.000    24188316.682    94920113.829       -2164.943          36.000  
G04                                                                  24672428.178                       -2749.373          25.000  
G27  24634458.393   129454875.848       -3949.044          31.000    24634450.001    96670869.331       -2949.411          43.000  
E07                                                                  27443553.682   107694363.671       -2291.595          34.000  
E15  25277629.345   132834874.434         148.955          46.000    25277637.624    99194920.190         111.168          41.000  
E18  26642741.141   140008587.718        2522.197          45.000    26642751.386   104551926.699        1883.540          39.000  
E27  26111824.074   137218570.844          16.444          43.000    26111824.384                          11.758          23.000  
E34  27372984.178   143846002.543       -2381.690          41.000    27372990.144   107417505.316       -1778.591          40.000  
E30  26602438.392   139796758.871       -1243.535          40.000    26602445.896   104393714.063        -928.902          42.000  
J03  39174386.465   205862806.041       -1471.362          45.000    39174390.338   153728742.577       -1098.856          40.000  
G02  22239675.272   116870331.527         370.997          42.000                                                                  
G07  22901706.058   120349283.651        1745.848          44.000                                                                  
G21  21630250.350   113667768.496        -391.091          46.000                                                                  
> 2023 10 05 14 57 25.0040000  0 14                     
G08  22257583.689   116964395.008       -2680.671          46.000    22257583.758    87343552.422       -2001.852          42.000  
G09  24188856.333   127113257.615       -2899.722          37.000    24188868.262    94922278.964       -2165.546          36.000  
G04  24673603.666                       -3800.281          22.000    24673129.278                       -2750.176          25.000  
G27  24635209.133   129458825.274       -3949.352          32.000    24635201.622    96673818.567       -2949.231          43.000  
E07                                                                  27444137.740   107696655.527       -2292.223          34.000  
E15  25277601.213   132834725.897         148.239          46.000    25277609.469    99194809.296         110.610          42.000  
E18  26642261.306   140006065.504        2522.292          45.000    26642271.355   104550043.267        1883.427          39.000  
E27  26111821.154   137218554.576          16.132          43.000    26111822.437                          11.570          24.000  
E34  27373437.388   143848384.573       -2382.317          41.000    27373443.470   107419284.116       -1779.096          39.000  
E30  26602675.188   139798002.703       -1244.190          40.000    26602682.539   104394642.903        -928.804          42.000  
J03  39174666.452   205864277.434       -1471.489          45.000    39174670.503   153729841.379       -1099.228          40.000  
G02  22239604.685   116869961.124         369.961          41.000                                                                  
G07  22901373.725   120347538.154        1745.346          44.000                                                                  
G21  21630324.727   113668160.021        -392.001          46.000                                                                  
> 2023 10 05 14 57 26.0040000  0 14                     
G08  22258093.747   116967075.981       -2681.432          46.000    22258093.944    87345554.447       -2002.776          42.000  
G09  24189408.273   127116157.429       -2900.159          36.000    24189420.078    94924444.397       -2166.055          36.000  
G04                                                                  24673830.465                       -2749.662          25.000  
G27  24635960.087   129462774.938       -3949.946          32.000    24635953.139    96676767.981       -2950.072          43.000  
E07                                                                  27444721.920   107698947.529       -2292.313          34.000  
E15  25277573.104   132834578.042         147.154          46.000    25277581.335    99194698.901         109.754          42.000  
E18  26641781.277   140003543.427        2521.788          45.000    26641791.563   104548159.906        1882.634          40.000  
E27  26111817.980   137218538.491          15.573          43.000    26111819.941                          10.840          25.000  
E34  27373890.880   143850767.205       -2383.169          40.000    27373896.736   107421063.380       -1779.889          40.000  
E30  26602911.821   139799246.772       -1244.274          40.000    26602919.212   104395571.948        -929.559          42.000  
J03  39174946.619   205865749.132       -1472.167          45.000    39174950.543   153730940.362       -1099.633          40.000  
G02  22239534.206   116869591.526         368.751          41.000                                                                  
G07  22901041.410   120345793.243        1744.282          44.000                                                                  
G21  21630399.406   113668552.474        -393.075          46.000                                                                  
> 2023 10 05 14 57 27.0040000  0 14                     
G08  22258603.916   116969757.247       -2681.222          46.000    22258604.194    87347556.670       -2002.442          42.000  
G09  24189960.045   127119057.553       -2900.348          36.000    24189971.913    94926610.056       -2166.134          36.000  
G04                                                                  24674531.191                       -2749.200          25.000  
G27  24636710.881   129466724.589       -3949.785          32.000    24636704.695    96679717.381       -2949.485          43.000  
E07                                                                  27445306.082   107701239.603       -2292.364          34.000  
E15  25277545.061   132834430.665         147.247          46.000    25277553.334    99194588.819         110.117          42.000  
E18  26641301.352   140001021.280        2522.335          44.000    26641311.562   104546276.462        1883.635          40.000  
E27  26111815.393   137218522.376          16.114          43.000    26111817.173                          12.127          26.000  
E34  27374344.555   143853150.275       -2383.106          40.000    27374350.257   107422842.924       -1779.643          40.000  
E30  26603149.048   139800490.953       -1244.227          41.000    26603155.937   104396500.997        -928.855          42.000  
J03  39175226.691   205867220.916       -1471.875          45.000    39175230.535   153732039.404       -1099.298          40.000  
G02  22239464.083   116869222.571         368.658          42.000                                                                  
G07  22900709.376   120344048.706        1744.368          45.000                                                                  
G21  21630474.157   113668945.662        -393.557          46.000                                                                  
> 2023 10 05 14 57 28.0040000  0 14                     
G08  22259113.749   116972438.706       -2681.541          46.000    22259114.505    87349559.079       -2002.298          42.000  
G09  24190511.757   127121957.801       -2900.243          37.000    24190523.804    94928775.839       -2165.921          36.000  
G04                                                                  24675230.682                       -2749.854          25.000  
G27  24637461.873   129470674.132       -3949.625          32.000    24637456.364    96682666.742       -2948.948          43.000  
E07                                                                  27445890.194   107703531.650       -2291.984          34.000  
E15  25277516.937   132834283.643         146.913          46.000    25277525.295    99194479.038         109.788          41.000  
E18  26640821.564   139998498.941        2522.570          45.000    26640831.509   104544392.919        1883.740          39.000  
E27  26111812.108   137218506.115          16.525          43.000    26111813.240                          11.170          26.000  
E34  27374798.028   143855533.671       -2383.564          40.000    27374803.826   107424622.718       -1779.281          40.000  
E30  26603385.698   139801735.075       -1243.963          41.000    26603392.684   104397430.050        -928.812          42.000  
J03  39175506.844   205868692.639       -1471.557          45.000    39175510.794   153733138.425       -1098.666          40.000  
G02  22239394.249   116868854.107         368.443          42.000                                                                  
G07  22900377.665   120342304.413        1744.349          45.000                                                                  
G21  21630549.063   113669339.461        -393.878          46.000                                                                  
> 2023 10 05 14 57 29.0040000  0 14                     
G08  22259623.866   116975120.300       -2681.912          46.000    22259624.628    87351561.547       -2002.439          42.000  
G09  24191063.637   127124858.157       -2900.402          37.000    24191075.830    94930941.659       -2166.066          36.000  
G04                                                                  24675930.807                       -2750.065          25.000  
G27  24638212.857   129474623.598       -3949.423          32.000    24638207.898    96685616.004       -2949.299          43.000  
E07                                                                  27446474.049   107705823.605       -2291.628          34.000  
E15  25277489.108   132834136.963         146.453          46.000    25277497.184    99194369.498         109.495          42.000  
E18  26640341.316   139995976.386        2522.718          45.000    26640351.485   104542509.172        1883.971          39.000  
E27  26111809.001   137218489.716          16.426          43.000    26111809.941                          13.360          25.000  
E34  27375251.642   143857917.343       -2383.897          40.000    27375257.422   107426402.742       -1780.393          40.000  
E30  26603622.589   139802979.087       -1243.803          40.000    26603629.453   104398359.033        -929.005          42.000  
J03  39175786.983   205870164.324       -1471.732          45.000    39175790.813   153734237.403       -1098.837          40.000  
G02  22239324.211   116868486.120         367.747          42.000                                                                  
G07  22900045.603   120340560.366        1743.682          44.000                                                                  
G21  21630624.375   113669733.868        -394.813          46.000                                                                  
> 2023 10 05 14 57 30.0040000  0 14                     
G08  22260133.978   116977802.049       -2682.184          45.000    22260134.987    87353564.161       -2002.537          42.000  
G09  24191615.318   127127758.670       -2900.969          36.000    24191627.876    94933107.595       -2166.283          36.000  
G04                                                                  24676632.135                       -2749.550          25.000  
G27  24638964.132   129478572.918       -3949.674          32.000    24638959.411    96688565.175       -2949.097          43.000  
E07                                                                  27447058.327   107708115.602       -2291.849          34.000  
E15  25277461.213   132833990.619         146.044          46.000    25277469.581    99194260.221         109.093          42.000  
E18  26639861.423   139993453.620        2522.659          45.000    26639871.607   104540625.312        1883.579          39.000  
E27  26111806.202   137218473.167          16.254          43.000    26111806.152                          12.703          26.000  
E34  27375704.988   143860301.296       -2384.593          40.000    27375711.024   107428182.952       -1780.374          40.000  
E30  26603859.342   139804223.046       -1244.145          40.000    26603866.118   104399287.962        -928.812          42.000  
J03  39176066.833   205871635.960       -1471.955          45.000    39176070.769   153735336.365       -1099.098          40.000  
G02  22239254.247   116868118.635         366.742          42.000                                                                  
G07  22899714.045   120338816.559        1743.216          44.000                                                                  
G21  21630699.338   113670128.868        -395.726          46.000                                                                  
> 2023 10 05 14 57 31.0040000  0 14                     
G08  22260644.339   116980484.173       -2682.082          45.000    22260645.327    87355567.061       -2002.565          42.000  
G09  24192167.209   127130659.480       -2900.613          37.000    24192179.827    94935273.827       -2166.574          36.000  
G04                                                                  24677332.785                       -2748.996          25.000  
G27  24639714.938   129482522.371       -3948.971          31.000    24639710.854    96691514.451       -2948.923          43.000  
E07                                                                  27447642.476   107710407.691       -2291.267          34.000  
E15  25277433.496   132833844.861         145.689          46.000    25277441.886    99194151.402         108.765          41.000  
E18  26639381.084   139990930.877        2522.878          45.000    26639391.623   104538741.444        1884.547          39.000  
E27  26111803.247   137218456.681          16.741          43.000    26111803.228                          11.337          25.000  
E34  27376158.892   143862685.760       -2384.491          40.000    27376164.837   107429963.592       -1780.499          40.000  
E30  26604095.879   139805467.169       -1243.583          41.000    26604103.000   104400217.042        -928.987          42.000  
J03  39176346.875   205873107.771       -1471.629          45.000    39176350.848   153736435.460       -1099.010          40.000  
G02  22239184.785   116867751.830         366.706          42.000                                                                  
G07  22899382.012   120337073.214        1743.353          44.000                                                                  
G21  21630774.706   113670524.701        -395.885          46.000                                                                  
> 2023 10 05 14 57 32.0040000  0 14                     
G08  22261154.605   116983166.386       -2682.293          46.000    22261155.768    87357570.011       -2003.085          42.000  
G09  24192719.000   127133560.377       -2900.811          36.000    24192731.910    94937440.054       -2166.298          37.000  
G04                                                                  24678033.710                       -2749.853          25.000  
G27  24640466.090   129486471.672       -3949.357          32.000    24640462.363    96694463.572       -2948.967          43.000  
E07                                                                  27448226.479   107712699.675       -2291.852          35.000  
E15  25277406.019   132833699.374         145.435          46.000    25277414.141    99194042.765         108.330          42.000  
E18  26638900.856   139988407.859        2523.108          45.000    26638911.318   104536857.393        1884.076          39.000  
E27  26111800.099   137218439.997          16.688          43.000    26111800.353                          12.646          26.000  
E34  27376612.879   143865070.455       -2384.723          40.000    27376618.506   107431744.357       -1780.814          39.000  
E30  26604332.604   139806711.155       -1243.927          41.000    26604339.755   104401145.970        -928.928          42.000  
J03  39176627.081   205874579.462       -1471.540          44.000    39176630.746   153737534.443       -1098.886          40.000  
G02  22239115.202   116867385.469         366.143          42.000                                                                  
G07  22899050.226   120335330.052        1743.090          44.000                                                                  
G21  21630850.068   113670921.080        -396.661          46.000                                                                  
> 2023 10 05 14 57 33.0040000  0 14                     
G08  22261664.980   116985849.082       -2683.013          46.000    22261666.422    87359573.351       -2003.782          42.000  
G09  24193271.296   127136461.792       -2901.797          36.000    24193284.054    94939606.682       -2166.839          36.000  
G04                                                                  24678734.773                       -2750.385          25.000  
G27  24641217.205   129490421.124       -3949.155          32.000    24641214.126    96697412.886       -2949.179          43.000  
E07                                                                  27448810.589   107714991.883       -2291.666          34.000  
E15  25277378.814   132833554.577         144.418          46.000    25277386.494    99193934.626         108.040          42.000  
E18  26638420.534   139985884.969        2522.695          45.000    26638431.093   104534973.414        1884.025          40.000  
E27  26111797.223   137218423.483          16.453          43.000    26111798.519                          12.445          26.000  
E34  27377066.444   143867455.793       -2385.635          40.000    27377072.436   107433525.613       -1780.976          40.000  
E30  26604569.325   139807955.430       -1244.576          41.000    26604576.322   104402075.134        -929.367          42.000  
J03  39176907.152   205876051.446       -1471.960          45.000    39176910.881   153738633.668       -1099.411          40.000  
G02  22239045.844   116867019.917         365.174          42.000                                                                  
G07  22898718.563   120333587.473        1742.340          44.000                                                                  
G21  21630925.541   113671318.406        -397.852          46.000                                                                  
> 2023 10 05 14 57 34.0040000  0 14                     
G08  22262175.697   116988531.953       -2683.003          46.000    22262176.772    87361576.795       -2003.875          42.000  
G09  24193823.482   127139363.279       -2901.807          36.000    24193836.209    94941773.386       -2167.198          36.000  
G04                                                                  24679435.976                       -2750.377          24.000  
G27  24641968.672   129494370.528       -3949.291          33.000    24641965.566    96700362.114       -2949.292          43.000  
E07                                                                  27449394.665   107717284.037       -2291.578          34.000  
E15  25277351.003   132833410.109         144.191          46.000    25277359.114    99193826.764         107.607          42.000  
E18  26637940.580   139983361.868        2522.929          45.000    26637951.179   104533089.291        1884.297          40.000  
E27  26111794.038   137218406.826          16.641          43.000    26111794.217                          12.595          26.000  
E34  27377521.017   143869841.413       -2385.841          40.000    27377526.334   107435307.093       -1781.547          40.000  
E30  26604806.224   139809199.606       -1244.405          41.000    26604813.103   104403004.246        -929.392          42.000  
J03  39177187.445   205877523.387       -1471.936          45.000    39177191.003   153739732.851       -1099.298          40.000  
G02  22238976.246   116866654.869         364.649          42.000                                                                  
G07  22898387.120   120331845.134        1742.130          44.000                                                                  
G21  21631001.608   113671716.331        -398.404          46.000                                                                  
> 2023 10 05 14 57 35.0040000  0 14                     
G08  22262686.531   116991215.068       -2683.008          46.000    22262687.363    87363580.388       -2003.422          42.000  
G09  24194375.663   127142264.955       -2901.237          36.000    24194388.223    94943940.217       -2167.076          36.000  
G04                                                                  24680136.323                       -2749.721          24.000  
G27  24642719.999   129498319.882       -3948.795          33.000    24642717.015    96703311.286       -2948.975          43.000  
E07                                                                  27449979.034   107719576.240       -2292.267          34.000  
E15  25277323.847   132833266.081         143.913          46.000    25277331.650    99193719.194         107.356          42.000  
E18  26637460.351   139980838.627        2523.632          45.000    26637470.996   104531205.065        1884.161          40.000  
E27  26111791.049   137218390.098          16.987          43.000    26111791.272                          12.107          26.000  
E34  27377975.648   143872227.401       -2386.034          40.000    27377980.447   107437088.823       -1781.857          40.000  
E30  26605042.900   139810443.789       -1243.920          41.000    26605049.936   104403933.323        -929.042          42.000  
J03  39177467.293   205878995.348       -1471.683          45.000    39177471.094   153740832.029       -1099.336          40.000  
G02  22238906.905   116866290.397         364.346          42.000                                                                  
G07  22898055.577   120330103.117        1742.151          44.000                                                                  
G21  21631077.726   113672114.938        -398.719          46.000                                                                  
> 2023 10 05 14 57 36.0040000  0 14                     
G08  22263197.062   116993898.563       -2683.654          46.000    22263197.841    87365584.310       -2003.997          42.000  
G09  24194927.794   127145167.009       -2901.958          36.000    24194940.352    94946107.328       -2167.426          37.000  
G04                                                                  24680837.229                       -2750.181          23.000  
G27  24643471.330   129502269.356       -3949.716          33.000    24643468.621    96706260.565       -2949.269          43.000  
E07                                                                  27450563.089   107721868.531       -2292.412          34.000  
E15  25277296.810   132833122.591         143.242          46.000    25277304.344    99193612.054         107.178          41.000  
E18  26636980.194   139978315.411        2523.185          44.000    26636990.812   104529320.850        1884.453          40.000  
E27  26111787.488   137218373.422          16.731          43.000    26111788.636                          11.603          26.000  
E34  27378430.204   143874613.877       -2386.701          39.000    27378434.553   107438870.969       -1782.225          39.000  
E30  26605280.061   139811688.124       -1244.245          42.000    26605286.620   104404862.550        -929.136          41.000  
J03  39177747.572   205880467.470       -1472.207          45.000    39177751.238   153741931.352       -1099.387          40.000  
G02  22238837.712   116865926.592         363.546          42.000                                                                  
G07  22897723.972   120328361.565        1741.345          44.000                                                                  
G21  21631153.691   113672514.366        -399.991          46.000                                                                  
> 2023 10 05 14 57 37.0040000  0 14                     
G08  22263707.753   116996582.311       -2684.289          45.000    22263708.656    87367588.433       -2004.740          42.000  
G09  24195480.192   127148069.241       -2902.209          36.000    24195492.562    94948274.587       -2167.890          37.000  
G04  24681562.913                       -3773.929          24.000    24681536.323                       -2751.590          24.000  
G27  24644223.124   129506218.763       -3949.422          32.000    24644220.076    96709209.825       -2949.871          43.000  
E07                                                                  27451147.117   107724160.826       -2292.750          34.000  
E15  25277269.270   132832979.524         142.447          46.000    25277277.070    99193505.223         106.242          42.000  
E18  26636500.048   139975792.055        2522.987          45.000    26636510.446   104527436.511        1884.534          39.000  
E27  26111784.397   137218356.667          16.248          43.000    26111784.123                          11.461          25.000  
E34  27378884.260   143877000.725       -2387.452          40.000    27378888.865   107440653.333       -1782.916          39.000  
E30  26605516.734   139812932.461       -1244.470          41.000    26605523.452   104405791.738        -929.391          42.000  
J03  39178027.659   205881939.599       -1472.342          45.000    39178031.460   153743030.675       -1100.032          40.000  
G02  22238768.672   116865563.380         362.572          42.000                                                                  
G07  22897392.742   120326620.317        1740.806          44.000                                                                  
G21  21631229.799   113672914.471        -400.858          46.000                                                                  
> 2023 10 05 14 57 38.0040000  0 14                     
G08  22264218.672   116999266.514       -2684.376          45.000    22264219.552    87369592.835       -2004.204          42.000  
G09  24196032.492   127150971.949       -2902.975          36.000    24196044.901    94950442.134       -2167.611          37.000  
G04                                                                  24682236.791                       -2749.077          23.000  
G27  24644974.574   129510168.369       -3949.761          33.000    24644971.657    96712159.178       -2949.405          43.000  
E07                                                                  27451731.415   107726453.316       -2292.825          34.000  
E15  25277241.893   132832837.124         141.925          46.000    25277250.042    99193398.860         105.980          42.000  
E18  26636020.137   139973268.794        2523.211          45.000    26636030.239   104525552.298        1883.730          39.000  
E27  26111781.038   137218340.088          16.417          43.000    26111780.343                          13.195          24.000  
E34  27379338.657   143879388.197       -2388.038          40.000    27379342.994   107442436.171       -1783.205          40.000  
E30  26605753.625   139814177.028       -1244.612          41.000    26605760.249   104406721.134        -929.462          42.000  
J03  39178307.809   205883412.008       -1472.627          45.000    39178311.494   153744130.193       -1099.698          40.000  
G02  22238700.002   116865200.962         361.716          42.000                                                                  
G07  22897061.646   120324879.636        1740.462          44.000                                                                  
G21  21631306.267   113673315.489        -401.608          46.000                                                                  
> 2023 10 05 14 57 39.0040000  0 14                     
G08  22264729.566   117001950.990       -2684.688          45.000    22264730.558    87371597.505       -2004.779          43.000  
G09  24196585.119   127153874.884       -2903.073          37.000    24196597.237    94952609.922       -2167.885          37.000  
G04                                                                  24682938.115                       -2750.764          22.000  
G27  24645725.623   129514118.031       -3949.163          34.000    24645723.310    96715108.600       -2949.327          42.000  
E07                                                                  27452315.540   107728745.887       -2292.540          34.000  
E15  25277214.953   132832695.179         141.519          45.000    25277222.969    99193292.892         106.149          42.000  
E18  26635539.996   139970745.456        2523.272          45.000    26635550.090   104523667.985        1884.284          40.000  
E27  26111777.880   137218323.477          16.511          44.000    26111777.816   102468224.7721         12.574          25.000  
E34  27379793.338   143881776.006       -2388.060          39.000    27379797.402   107444219.349       -1783.251          39.000  
E30  26605990.556   139815421.699       -1244.702          42.000    26605996.974   104407650.567        -929.423          41.000  
J03  39178588.099   205884884.482       -1472.476          45.000    39178591.724   153745229.771       -1099.543          40.000  
G02  22238631.256   116864839.092         361.531          42.000                                                                  
G07  22896730.189   120323139.327        1740.052          45.000                                                                  
G21  21631382.871   113673717.226        -402.019          47.000                                                                  
> 2023 10 05 14 57 40.0040000  0 14                     
G08  22265240.529   117004635.570       -2685.067          44.000    22265241.325    87373602.205       -2004.828          43.000  
G09  24197137.623   127156777.896       -2903.445          37.000    24197149.624    94954777.714       -2167.663          37.000  
G04                                                                  24683639.776                       -2757.692          20.000  
G27  24646477.129   129518067.499       -3949.639          35.000    24646474.794    96718057.841       -2949.294          42.000  
E07                                                                  27452899.836   107731038.332       -2292.983          34.000  
E15  25277188.011   132832553.504         141.359          46.000    25277196.125    99193187.106         105.481          41.000  
E18  26635059.521   139968221.851        2523.533          46.000    26635069.953   104521783.451        1884.605          40.000  
E27  26111774.374   137218306.640          17.032          43.000    26111777.718   102468212.156          12.734          27.000  
E34  27380247.580   143884164.113       -2388.224          41.000    27380251.740   107446002.665       -1783.480          40.000  
E30  26606227.624   139816666.157       -1244.493          41.000    26606233.722   104408579.892        -929.346          41.000  
J03  39178868.182   205886356.825       -1472.238          44.000    39178871.650   153746329.258       -1099.724          41.000  
G02  22238562.498   116864477.670         360.846          42.000                                                                  
G07  22896399.037   120321399.185        1739.743          45.000                                                                  
G21  21631459.731   113674119.505        -402.485          46.000                                                                  
> 2023 10 05 14 57 41.0040000  0 14                     
G08  22265751.662   117007320.369       -2684.904          44.000    22265752.332    87375607.076       -2004.514          43.000  
G09  24197690.032   127159681.088       -2903.682          37.000    24197702.192    94956945.687       -2167.644          36.000  
G04  24684324.601                       -3670.355          25.000    24684340.537                       -2751.755          19.000  
G27  24647228.865   129522016.908       -3949.364          36.000    24647226.253    96721007.069       -2948.936          42.000  
E07                                                                  27453484.083   107733330.800       -2292.310          33.000  
E15  25277161.011   132832412.267         141.066          47.000    25277169.137    99193081.635         105.490          41.000  
E18  26634579.252   139965698.085        2523.803          45.000    26634589.656   104519898.833        1885.098          40.000  
E27  26111770.945   137218289.757          16.863          43.000    26111772.422   102468199.630          12.798          27.000  
E34  27380702.392   143886552.607       -2388.761          41.000    27380706.252   107447786.253       -1783.475          39.000  
E30  26606464.662   139817910.670       -1244.508          41.000    26606470.494   104409509.228        -929.077          41.000  
J03  39179148.660   205887829.237       -1472.569          44.000    39179151.929   153747428.768       -1099.206          41.000  
G02  22238493.758   116864116.820         360.585          43.000                                                                  
G07  22896068.013   120319659.368        1739.581          45.000                                                                  
G21  21631536.670   113674522.479        -403.382          47.000                                                                  
> 2023 10 05 14 57 42.0040000  0 14                     
G08  22266262.505   117010005.523       -2685.607          44.000    22266263.339    87377612.257       -2005.250          43.000  
G09  24198242.454   127162584.612       -2903.616          37.000    24198254.520    94959113.925       -2168.626          36.000  
G04  24685029.112                       -3674.872          25.000    24685041.050                       -2749.820          20.000  
G27  24647980.455   129525966.393       -3949.500          36.000    24647977.735    96723956.392       -2949.298          42.000  
E07                                                                  27454068.341   107735623.406       -2292.271          33.000  
E15  25277134.137   132832271.568         140.391          47.000    25277142.438    99192976.586         104.965          41.000  
E18  26634098.959   139963174.316        2523.837          45.000    26634109.497   104518014.230        1884.856          40.000  
E27  26111767.359   137218272.903          16.750          42.000    26111769.769   102468187.078          12.660          27.000  
E34  27381157.139   143888941.547       -2389.277          40.000    27381160.798   107449570.225       -1784.014          39.000  
E30  26606701.957   139819155.305       -1244.746          41.000    26606707.319   104410438.682        -929.620          41.000  
J03  39179428.719   205889301.764       -1472.630          44.000    39179432.226   153748528.411       -1099.622          41.000  
G02  22238425.147   116863756.648         359.849          43.000                                                                  
G07  22895737.026   120317919.991        1739.040          45.000                                                                  
G21  21631613.595   113674926.240        -404.245          47.000                                                                  
> 2023 10 05 14 57 43.0040000  0 14                     
G08  22266773.508   117012690.946       -2685.722          44.000    22266774.367    87379617.597       -2005.668          43.000  
G09  24198795.286   127165488.358       -2903.896          37.000    24198807.097    94961282.274       -2168.270          36.000  
G04  24685735.791                       -3674.872          25.000    24685742.271                       -2748.320          21.000  
G27  24648731.958   129529915.889       -3949.442          36.000    24648729.406    96726905.670       -2949.418          42.000  
E07                                                                  27454652.644   107737915.996       -2292.880          33.000  
E15  25277107.537   132832131.319         140.005          47.000    25277115.562    99192871.835         104.433          41.000  
E18  26633618.700   139960650.459        2523.932          45.000    26633629.138   104516129.532        1884.462          40.000  
E27  26111764.069   137218255.991          16.978          43.000    26111766.031                          12.912          27.000  
E34  27381611.695   143891330.887       -2389.504          40.000    27381615.379   107451354.466       -1784.465          39.000  
E30  26606938.880   139820399.971       -1244.489          41.000    26606944.162   104411368.115        -929.499          41.000  
J03  39179708.832   205890774.352       -1472.762          44.000    39179712.561   153749628.063       -1099.789          41.000  
G02  22238356.756   116863397.072         359.167          43.000                                                                  
G07  22895406.386   120316180.952        1738.881          45.000                                                                  
G21  21631690.518   113675330.713        -404.918          47.000                                                                  
> 2023 10 05 14 57 44.0040000  0 14                     
G08  22267284.658   117015376.628       -2685.819          44.000    22267285.516    87381623.140       -2005.406          43.000  
G09  24199347.882   127168392.348       -2904.091          37.000    24199359.782    94963450.846       -2168.067          36.000  
G04  24686430.544                       -3674.872          24.000    24686443.187                       -2748.580          21.000  
G27  24649483.505   129533865.395       -3949.616          35.000    24649480.934    96729854.978       -2949.219          42.000  
E07                                                                  27455236.769   107740208.701       -2293.740          33.000  
E15  25277081.175   132831991.532         139.618          47.000    25277089.045    99192767.457         104.424          41.000  
E18  26633138.363   139958126.506        2524.071          45.000    26633148.955   104514244.773        1884.973          40.000  
E27  26111760.699   137218239.060          17.004          43.000    26111762.061   102468161.787          13.306          26.000  
E34  27382066.345   143893720.630       -2389.881          40.000    27382070.130   107453139.024       -1784.620          39.000  
E30  26607175.825   139821644.699       -1244.681          41.000    26607180.977   104412297.623        -929.289          41.000  
J03  39179989.045   205892247.010       -1472.820          43.000    39179992.963   153750727.792       -1099.753          41.000  
G02  22238288.410   116863038.107         358.371          43.000                                                                  
G07  22895075.272   120314442.294        1738.332          46.000                                                                  
G21  21631767.682   113675735.914        -405.617          47.000                                                                  
> 2023 10 05 14 57 45.0040000  0 14                     
G08  22267795.777   117018062.566       -2686.121          44.000    22267796.547    87383628.896       -2006.019          43.000  
G09  24199900.330   127171296.613       -2904.981          37.000    24199912.535    94965619.645       -2169.533          36.000  
G04  24687131.343                       -3674.872          24.000    24687143.240                       -2748.557          22.000  
G27  24650235.256   129537814.883       -3949.557          35.000    24650232.605    96732804.283       -2949.328          42.000  
E07                                                                  27455821.005   107742501.368       -2292.593          33.000  
E15  25277054.604   132831852.215         138.928          47.000    25277062.585    99192663.447         103.524          41.000  
E18  26632657.861   139955602.476        2523.815          45.000    26632668.558   104512359.952        1884.639          40.000  
E27  26111757.515   137218222.090          16.812          43.000    26111759.509   102468149.202          11.873          26.000  
E34  27382521.166   143896110.791       -2390.451          40.000    27382524.925   107454923.921       -1785.422          39.000  
E30  26607412.939   139822889.477       -1245.151          41.000    26607417.899   104413227.175        -929.853          41.000  
J03  39180269.357   205893719.731       -1472.970          43.000    39180273.163   153751827.562       -1100.039          41.000  
G02  22238220.295   116862679.735         357.852          43.000                                                                  
G07  22894744.578   120312703.988        1737.748          46.000                                                                  
G21  21631845.050   113676141.839        -406.504          47.000                                                                  
> 2023 10 05 14 57 46.0040000  0 14                     
G08  22268307.159   117020748.987       -2686.458          44.000    22268307.706    87385634.957       -2006.140          43.000  
G09  24200453.305   127174201.293       -2904.685          37.000    24200465.289    94967788.677       -2169.131          36.000  
G04  24687829.852                       -3674.872          24.000    24687843.657                       -2743.168          22.000  
G27  24650987.005   129541764.609       -3949.947          35.000    24650984.152    96735753.718       -2949.520          42.000  
E07                                                                  27456405.393   107744794.223       -2292.579          33.000  
E15  25277028.345   132831713.540         138.483          47.000    25277036.191    99192559.884         103.053          41.000  
E18  26632177.485   139953078.513        2524.223          45.000    26632188.271   104510475.169        1884.805          40.000  
E27  26111754.575   137218205.276          17.063          43.000    26111756.761                          12.974          26.000  
E34  27382975.644   143898501.559       -2390.889          40.000    27382979.895   107456709.171       -1785.272          39.000  
E30  26607650.296   139824134.482       -1244.862          42.000    26607654.827   104414156.865        -929.689          41.000  
J03  39180549.753   205895192.710       -1472.874          43.000    39180553.567   153752927.484       -1099.802          41.000  
G02  22238152.249   116862322.152         357.685          43.000                                                                  
G07  22894413.937   120310966.235        1737.628          46.000                                                                  
G21  21631922.395   113676548.666        -406.950          47.000                                                                  
> 2023 10 05 14 57 47.0040000  0 14                     
G08  22268818.694   117023435.625       -2686.599          45.000    22268819.027    87387641.221       -2006.056          43.000  
G09  24201005.946   127177106.119       -2904.660          37.000    24201018.008    94969957.898       -2169.332          36.000  
G04                                                                  24688543.196                       -2748.982          22.000  
G27  24651738.728   129545714.208       -3949.024          36.000    24651735.917    96738703.127       -2949.163          42.000  
E07                                                                  27456989.724   107747087.166       -2293.013          33.000  
E15  25277002.323   132831575.261         138.281          47.000    25277009.872    99192456.622         103.374          41.000  
E18  26631697.034   139950554.415        2524.367          45.000    26631707.873   104508590.313        1884.976          40.000  
E27  26111751.501   137218188.373          17.267          43.000    26111753.035                          12.076          26.000  
E34  27383430.762   143900892.659       -2391.294          40.000    27383435.041   107458494.762       -1785.529          39.000  
E30  26607887.148   139825379.461       -1244.666          42.000    26607891.878   104415086.586        -929.674          41.000  
J03  39180830.142   205896665.686       -1472.822          43.000    39180833.892   153754027.460       -1099.578          41.000  
G02  22238084.030   116861965.127         356.839          43.000                                                                  
G07  22894083.568   120309228.768        1737.613          46.000                                                                  
G21  21631999.933   113676956.151        -407.653          47.000                                                                  
> 2023 10 05 14 57 48.0040000  0 14                     
G08  22269330.223   117026122.618       -2687.010          45.000    22269330.333    87389647.767       -2007.036          43.000  
G09  24201559.090   127180011.330       -2905.412          37.000    24201570.860    94972127.350       -2169.912          36.000  
G04                                                                  24689244.272                       -2743.363          22.000  
G27  24652490.246   129549663.942       -3949.504          35.000    24652487.537    96741652.606       -2949.765          42.000  
E07                                                                  27457574.034   107749380.159       -2293.514          33.000  
E15  25276975.989   132831437.540         137.409          47.000    25276983.828    99192353.796         102.327          41.000  
E18  26631216.768   139948030.305        2524.362          45.000    26631227.493   104506705.447        1884.624          40.000  
E27  26111747.944   137218171.519          16.855          43.000    26111749.194                          11.992          26.000  
E34  27383885.539   143903284.255       -2391.922          40.000    27383890.083   107460280.705       -1786.453          39.000  
E30  26608124.127   139826624.599       -1245.296          42.000    26608128.691   104416016.369        -930.005          41.000  
J03  39181110.302   205898138.832       -1473.349          43.000    39181114.030   153755127.556       -1100.528          41.000  
G02  22238016.238   116861608.784         356.020          43.000                                                                  
G07  22893752.891   120307491.764        1736.804          46.000                                                                  
G21  21632077.536   113677364.438        -408.657          47.000                                                                  
> 2023 10 05 14 57 49.0040000  0 14                     
G08  22269841.388   117028809.938       -2687.368          45.000    22269841.869    87391654.509       -2007.043          43.000  
G09  24202111.783   127182916.810       -2905.750          37.000    24202123.927    94974296.998       -2169.777          36.000  
G04                                                                  24689944.419                       -2751.445          23.000  
G27  24653241.852   129553613.747       -3949.896          36.000    24653239.133    96744602.088       -2949.340          42.000  
E07                                                                  27458158.413   107751673.204       -2293.147          33.000  
E15  25276949.667   132831300.325         136.984          47.000    25276957.658    99192251.309         102.150          41.000  
E18  26630736.227   139945506.171        2524.190          45.000    26630747.248   104504820.522        1884.655          40.000  
E27  26111744.882   137218154.689          16.885          43.000    26111745.945                          12.723          26.000  
E34  27384340.703   143905676.294       -2392.063          40.000    27384345.317   107462066.954       -1786.630          39.000  
E30  26608361.534   139827869.821       -1245.202          42.000    26608365.580   104416946.237        -929.814          41.000  
J03  39181390.504   205899612.078       -1473.220          43.000    39181394.355   153756227.673       -1099.943          41.000  
G02  22237948.501   116861253.104         355.593          43.000                                                                  
G07  22893422.348   120305755.175        1736.494          46.000                                                                  
G21  21632155.349   113677773.492        -409.357          47.000                                                                  
> 2023 10 05 14 57 50.0040000  0 14                     
G08  22270352.590   117031497.596       -2687.804          45.000    22270353.242    87393661.533       -2006.992          43.000  
G09  24202664.411   127185822.607       -2905.885          37.000    24202676.853    94976466.894       -2169.534          36.000  
G04                                                                  24690645.203                       -2749.215          22.000  
G27  24653993.443   129557563.626       -3950.551          36.000    24653990.851    96747551.695       -2949.690          42.000  
E07                                                                  27458742.778   107753966.389       -2292.446          33.000  
E15  25276923.693   132831163.656         136.487          47.000    25276931.802    99192149.263         101.983          41.000  
E18  26630255.836   139942982.014        2524.193          45.000    26630266.936   104502935.611        1884.950          40.000  
E27  26111741.769   137218137.901          16.721          43.000    26111742.830                          13.556          26.000  
E34  27384795.288   143908068.836       -2392.744          40.000    27384800.526   107463853.601       -1786.726          39.000  
E30  26608598.721   139829115.155       -1245.305          42.000    26608602.458   104417876.209        -929.824          41.000  
J03  39181670.872   205901085.477       -1473.302          43.000    39181674.785   153757327.967       -1100.200          41.000  
G02  22237880.856   116860898.105         354.761          43.000                                                                  
G07  22893091.710   120304019.027        1736.000          46.000                                                                  
G21  21632233.311   113678183.360        -410.256          47.000                                                                  
> 2023 10 05 14 57 51.0040000  0 14                     
G08  22270864.292   117034185.339       -2687.805          45.000    22270864.818    87395668.619       -2007.401          43.000  
G09  24203217.433   127188728.499       -2906.544          37.000    24203229.858    94978636.907       -2170.848          36.000  
G04                                                                  24691347.593                       -2746.285          23.000  
G27  24654745.173   129561513.321       -3950.071          36.000    24654742.298    96750501.133       -2949.587          42.000  
E07                                                                  27459326.989   107756259.535       -2294.039          33.000  
E15  25276897.406   132831027.267         136.162          47.000    25276905.700    99192047.443         101.236          42.000  
E18  26629775.358   139940457.594        2524.468          45.000    26629786.467   104501050.500        1885.046          40.000  
E27  26111738.699   137218120.901          16.914          43.000    26111739.624                          12.087          26.000  
E34  27385250.416   143910461.608       -2392.935          40.000    27385255.727   107465640.430       -1787.578          39.000  
E30  26608835.773   139830360.385       -1245.170          42.000    26608839.417   104418806.091        -930.108          41.000  
J03  39181951.380   205902558.784       -1473.446          43.000    39181955.117   153758428.166       -1100.613          41.000  
G02  22237813.434   116860543.553         353.901          43.000                                                                  
G07  22892761.347   120302283.073        1735.701          46.000                                                                  
G21  21632311.455   113678593.778        -411.003          47.000                                                                  
> 2023 10 05 14 57 52.0040000  0 14                     
G08  22271375.739   117036873.498       -2688.351          45.000    22271376.304    87397675.999       -2007.555          43.000  
G09  24203770.480   127191634.763       -2906.664          37.000    24203782.585    94980807.132       -2170.650          36.000  
G04                                                                  24692047.640                       -2755.717          23.000  
G27  24655496.983   129565463.135       -3949.379          36.000    24655493.952    96753450.678       -2949.693          42.000  
E07                                                                  27459911.137   107758552.747       -2293.376          33.000  
E15  25276871.848   132830891.497         135.520          47.000    25276880.001    99191946.045         100.795          42.000  
E18  26629295.179   139937933.228        2524.355          45.000    26629306.103   104499165.421        1884.831          40.000  
E27  26111735.761   137218104.018          16.802          43.000    26111736.550                          12.629          26.000  
E34  27385705.703   143912854.954       -2393.908          40.000    27385711.267   107467427.612       -1787.140          39.000  
E30  26609072.842   139831605.803       -1245.384          42.000    26609076.479   104419736.094        -930.218          41.000  
J03  39182232.003   205904032.287       -1473.637          43.000    39182235.481   153759528.474       -1100.154          41.000  
G02  22237746.163   116860189.722         353.417          43.000                                                                  
G07  22892431.368   120300547.628        1735.022          46.000                                                                  
G21  21632389.396   113679005.052        -411.697          47.000                                                                  
> 2023 10 05 14 57 53.0040000  0 14                     
G08  22271887.100   117039561.904       -2688.801          45.000    22271887.993    87399683.588       -2007.673          43.000  
G09  24204323.306   127194541.237       -2907.195          36.000    24204335.659    94982977.531       -2170.640          36.000  
G04                                                                  24692749.130                       -2747.160          24.000  
G27  24656248.834   129569412.925       -3949.757          36.000    24656245.520    96756400.221       -2949.682          42.000  
E07                                                                  27460495.648   107760846.011       -2293.278          33.000  
E15  25276845.827   132830756.133         134.798          47.000    25276854.341    99191844.968         100.645          42.000  
E18  26628814.865   139935408.726        2524.115          45.000    26628825.785   104497280.248        1885.167          40.000  
E27  26111732.826   137218087.044          16.662          43.000    26111733.530                          11.996          26.000  
E34  27386160.546   143915248.635       -2394.361          40.000    27386166.828   107469215.127       -1787.962          39.000  
E30  26609309.955   139832851.230       -1246.021          42.000    26609313.578   104420666.132        -930.334          41.000  
J03  39182512.403   205905505.803       -1473.802          43.000    39182515.974   153760628.864       -1100.624          41.000  
G02  22237678.909   116859836.449         352.785          42.000                                                                  
G07  22892101.127   120298812.486        1734.631          46.000                                                                  
G21  21632467.700   113679417.007        -412.660          47.000                                                                  
> 2023 10 05 14 57 54.0040000  0 14                     
G08  22272398.844   117042250.712       -2688.993          45.000    22272399.606    87401691.464       -2008.141          43.000  
G09  24204876.310   127197448.038       -2907.397          36.000    24204888.839    94985148.184       -2170.936          36.000  
G04                                                                  24693450.130                       -2747.046          24.000  
G27  24657000.543   129573362.859       -3949.959          36.000    24656997.173    96759349.824       -2949.931          42.000  
E07                                                                  27461080.147   107763139.406       -2293.875          33.000  
E15  25276820.309   132830621.350         134.553          47.000    25276828.858    99191744.300         100.597          42.000  
E18  26628334.288   139932884.244        2524.449          45.000    26628345.423   104495395.082        1885.206          40.000  
E27  26111729.330   137218070.154          17.078          43.000    26111729.816                          12.220          26.000  
E34  27386615.587   143917642.824       -2394.362          40.000    27386622.453   107471003.004       -1788.275          39.000  
E30  26609547.027   139834096.806       -1245.705          42.000    26609550.577   104421596.261        -930.339          41.000  
J03  39182792.867   205906979.508       -1473.617          43.000    39182796.506   153761729.345       -1100.682          41.000  
G02  22237611.710   116859483.904         352.106          42.000                                                                  
G07  22891771.039   120297077.833        1734.480          46.000                                                                  
G21  21632546.379   113679829.794        -413.117          47.000                                                                  
> 2023 10 05 14 57 55.0040000  0 14                     
G08  22272910.588   117044939.889       -2689.700          45.000    22272911.278    87403699.600       -2008.256          43.000  
G09  24205429.334   127200355.197       -2907.797          36.000    24205442.045    94987319.089       -2171.199          36.000  
G04                                                                  24694150.439                       -2747.947          24.000  
G27  24657752.345   129577312.886       -3950.281          36.000    24657748.961    96762299.499       -2949.805          42.000  
E07                                                                  27461664.639   107765432.859       -2292.649          33.000  
E15  25276794.706   132830487.126         133.643          47.000    25276803.128    99191644.074          99.863          42.000  
E18  26627853.721   139930359.763        2524.153          45.000    26627864.858   104493509.917        1885.266          40.000  
E27  26111726.613   137218053.342          16.428          43.000    26111727.218                          13.224          26.000  
E34  27387070.847   143920037.537       -2395.238          40.000    27387078.069   107472791.247       -1788.674          39.000  
E30  26609784.181   139835342.527       -1246.157          42.000    26609787.593   104422526.503        -930.501          41.000  
J03  39183073.485   205908453.384       -1474.285          43.000    39183076.702   153762829.951       -1100.750          41.000  
G02  22237544.875   116859132.058         351.230          42.000                                                                  
G07  22891440.932   120295343.649        1733.605          46.000                                                                  
G21  21632624.992   113680243.404        -414.420          46.000                                                                  
> 2023 10 05 14 57 56.0040000  0 14                     
G08  22273422.123   117047629.204       -2689.255          45.000    22273423.046    87405707.891       -2008.136          43.000  
G09  24205982.306   127203262.476       -2907.533          36.000    24205995.175    94989490.106       -2170.976          37.000  
G04                                                                  24694850.739                       -2750.344          24.000  
G27  24658504.035   129581262.780       -3950.072          36.000    24658500.495    96765249.099       -2949.309          42.000  
E07                                                                  27462248.969   107767726.349       -2293.809          33.000  
E15  25276769.427   132830353.233         133.789          47.000    25276777.643    99191544.117          99.954          42.000  
E18  26627373.454   139927835.073        2524.722          45.000    26627384.473   104491624.642        1885.579          40.000  
E27  26111723.380   137218036.347          17.263          43.000    26111723.198                          13.140          26.000  
E34  27387526.126   143922432.518       -2395.137          40.000    27387533.820   107474579.721       -1788.126          39.000  
E30  26610020.927   139836588.149       -1245.478          42.000    26610024.576   104423456.694        -929.834          41.000  
J03  39183353.755   205909927.184       -1473.872          43.000    39183357.099   153763930.543       -1100.419          41.000  
G02  22237477.975   116858780.675         351.251          43.000                                                                  
G07  22891110.846   120293609.692        1733.949          45.000                                                                  
G21  21632703.885   113680657.597        -414.505          47.000                                                                  
> 2023 10 05 14 57 57.0040000  0 14                     
G08  22273933.843   117050318.499       -2689.555          45.000    22273934.715    87407716.115       -2008.588          43.000  
G09  24206535.414   127206169.698       -2907.313          37.000    24206548.478    94991661.072       -2171.096          38.000  
G04                                                                  24695551.566                       -2752.866          24.000  
G27  24659255.225   129585212.398       -3949.749          36.000    24659252.023    96768198.480       -2949.604          42.000  
E07                                                                  27462833.658   107770019.597       -2293.477          34.000  
E15  25276743.913   132830219.506         133.395          47.000    25276752.142    99191444.243          99.646          42.000  
E18  26626893.257   139925309.987        2525.069          46.000    26626903.790   104489739.035        1885.555          39.000  
E27  26111720.537   137218019.044          17.083          43.000    26111720.164                          13.031          26.000  
E34  27387981.533   143924827.616       -2395.575          39.000    27387989.692   107476368.266       -1788.719          39.000  
E30  26610257.427   139837833.564       -1245.809          41.000    26610261.618   104424386.686        -930.010          41.000  
J03  39183634.403   205911400.762       -1473.777          44.000    39183637.680   153765030.927       -1100.344          41.000  
G02  22237411.550   116858429.609         350.689          43.000                                                                  
G07  22890780.930   120291875.805        1733.655          45.000                                                                  
G21  21632782.577   113681072.224        -415.083          47.000                                                                  
> 2023 10 05 14 57 58.0040000  0 14                     
G08  22274445.503   117053008.086       -2690.127          45.000    22274446.624    87409724.556       -2008.629          43.000  
G09  24207088.503   127209077.210       -2908.114          37.000    24207101.514    94993832.225       -2171.384          38.000  
G04                                                                  24696253.189                       -2743.537          23.000  
G27  24660006.672   129589162.058       -3950.382          36.000    24660003.666    96771147.882       -2949.729          42.000  
E07                                                                  27463418.017   107772312.966       -2293.505          34.000  
E15  25276718.502   132830086.293         132.612          47.000    25276726.910    99191344.758          99.316          41.000  
E18  26626412.494   139922784.875        2524.619          46.000    26626423.158   104487853.377        1885.432          39.000  
E27  26111717.751   137218001.743          16.985          43.000    26111717.915                          12.812          26.000  
E34  27388437.483   143927223.154       -2396.006          39.000    27388445.575   107478157.132       -1788.939          39.000  
E30  26610494.716   139839079.051       -1245.998          41.000    26610498.714   104425316.755        -929.931          41.000  
J03  39183914.696   205912874.456       -1474.179          43.000    39183918.224   153766131.415       -1100.617          41.000  
G02  22237344.856   116858079.201         349.683          43.000                                                                  
G07  22890451.155   120290142.342        1732.852          45.000                                                                  
G21  21632861.814   113681487.624        -416.157          47.000                                                                  
> 2023 10 05 14 57 59.0040000  0 14                     
G08  22274957.296   117055698.092       -2690.421          45.000    22274958.488    87411733.349       -2008.886          43.000  
G09  24207641.582   127211985.090       -2907.823          37.000    24207654.961    94996003.721       -2171.665          38.000  
G04                                                                  24696954.301                       -2749.825          23.000  
G27  24660758.340   129593111.843       -3950.436          36.000    24660755.143    96774097.411       -2949.438          42.000  
E07                                                                  27464002.595   107774606.509       -2293.614          34.000  
E15  25276693.190   132829953.690         132.080          47.000    25276701.572    99191245.760          98.691          41.000  
E18  26625932.140   139920259.802        2524.881          46.000    26625942.741   104485967.813        1885.233          39.000  
E27  26111714.272   137217984.558          17.083          43.000    26111714.300                          12.334          26.000  
E34  27388892.905   143929619.259       -2396.366          39.000    27388901.584   107479946.464       -1789.579          39.000  
E30  26610731.478   139840324.730       -1245.922          41.000    26610735.752   104426246.999        -930.300          40.000  
J03  39184195.162   205914348.359       -1474.089          44.000    39184198.684   153767232.067       -1100.307          41.000  
G02  22237278.152   116857729.553         348.943          43.000                                                                  
G07  22890121.420   120288409.379        1732.497          45.000                                                                  
G21  21632940.958   113681903.885        -416.861          47.000                                                                  
> 2023 10 05 14 58 00.0040000  0 14                     
G08  22275469.329   117058388.310       -2690.344          44.000    22275470.327    87413742.275       -2009.142          43.000  
G09  24208194.800   127214893.182       -2908.284          37.000    24208208.288    94998175.301       -2171.338          38.000  
G04                                                                  24697654.410                       -2751.613          24.000  
G27  24661510.154   129597061.590       -3949.874          36.000    24661506.873    96777046.897       -2949.476          42.000  
E07                                                                  27464586.997   107776899.982       -2292.909          34.000  
E15  25276668.129   132829821.475         132.103          47.000    25276676.376    99191147.022          98.684          42.000  
E18  26625451.391   139917734.597        2525.180          46.000    26625462.239   104484082.077        1885.768          39.000  
E27  26111710.918   137217967.268          17.405          43.000    26111711.102                          13.576          26.000  
E34  27389349.089   143932015.729       -2396.535          39.000    27389357.540   107481736.000       -1789.651          39.000  
E30  26610968.434   139841570.400       -1245.634          41.000    26610972.872   104427177.198        -930.132          40.000  
J03  39184475.486   205915822.263       -1473.805          44.000    39184479.106   153768332.716       -1100.585          41.000  
G02  22237211.804   116857380.423         348.817          43.000                                                                  
G07  22889791.594   120286676.706        1732.625          45.000                                                                  
G21  21633020.428   113682320.802        -417.276          47.000                                                                  
> 2023 10 05 14 58 01.0040000  0 14                     
G08  22275981.225   117061078.756       -2690.513          44.000    22275982.414    87415751.358       -2008.922          43.000  
G09  24208748.247   127217801.428       -2908.469          37.000    24208761.847    95000347.056       -2171.846          38.000  
G04                                                                  24698355.721                       -2753.523          24.000  
G27  24662261.537   129601011.300       -3949.576          36.000    24662258.335    96779996.338       -2949.230          42.000  
E07                                                                  27465171.476   107779193.485       -2292.706          34.000  
E15  25276643.174   132829689.684         131.505          47.000    25276651.288    99191048.612          98.353          42.000  
E18  26624970.964   139915209.215        2525.426          46.000    26624981.640   104482196.262        1885.919          39.000  
E27  26111707.737   137217949.905          17.427          43.000    26111707.628                          13.328          26.000  
E34  27389804.974   143934412.514       -2397.032          39.000    27389813.495   107483525.822       -1789.737          39.000  
E30  26611205.118   139842816.078       -1245.693          41.000    26611209.866   104428107.408        -930.062          41.000  
J03  39184755.873   205917296.188       -1473.797          44.000    39184759.561   153769433.376       -1100.603          41.000  
G02  22237145.476   116857031.858         348.125          43.000                                                                  
G07  22889461.835   120284944.357        1732.307          45.000                                                                  
G21  21633099.838   113682738.385        -417.716          47.000                                                                  
> 2023 10 05 14 58 02.0040000  0 14                     
G08  22276492.947   117063769.032       -2690.498          44.000    22276494.417    87417760.364       -2009.041          43.000  
G09  24209301.800   127220709.470       -2908.204          37.000    24209315.114    95002518.628       -2171.266          37.000  
G04                                                                  24699056.163                       -2746.523          23.000  
G27  24663013.388   129604960.533       -3949.493          36.000    24663009.833    96782945.454       -2948.865          42.000  
E07                                                                  27465756.042   107781486.735       -2293.399          34.000  
E15  25276617.710   132829557.889         131.707          47.000    25276626.219    99190950.216          98.497          42.000  
E18  26624490.560   139912683.308        2526.015          46.000    26624500.677   104480310.053        1886.327          39.000  
E27  26111704.145   137217932.064          17.910          43.000    26111704.496                          13.473          26.000  
E34  27390260.343   143936809.264       -2396.911          39.000    27390269.592   107485315.618       -1789.915          39.000  
E30  26611442.072   139844061.342       -1245.194          41.000    26611446.888   104429037.323        -929.820          41.000  
J03  39185036.388   205918769.733       -1473.692          43.000    39185039.996   153770533.761       -1100.091          41.000  
G02  22237079.306   116856683.437         348.174          43.000                                                                  
G07  22889132.126   120283211.904        1732.320          45.000                                                                  
G21  21633179.216   113683156.255        -418.419          46.000                                                                  
> 2023 10 05 14 58 03.0040000  0 14                     
G08  22277005.028   117066459.549       -2690.660          44.000    22277006.274    87419769.493       -2009.353          43.000  
G09  24209855.010   127223617.746       -2908.137          37.000    24209868.406    95004690.398       -2171.967          37.000  
G04                                                                  24699756.923                       -2746.915          23.000  
G27  24663765.060   129608909.741       -3949.115          36.000    24663761.475    96785894.551       -2948.931          42.000  
E07                                                                  27466340.280   107783779.960       -2293.064          34.000  
E15  25276593.052   132829426.553         131.015          47.000    25276601.334    99190852.140          97.836          42.000  
E18  26624010.256   139910157.292        2526.108          46.000    26624020.107   104478423.737        1886.433          39.000  
E27  26111700.568   137217914.154          17.966          43.000    26111701.123   102467919.169          13.730          26.000  
E34  27390716.371   143939206.414       -2397.454          39.000    27390725.833   107487105.670       -1789.977          40.000  
E30  26611678.757   139845306.636       -1245.304          41.000    26611683.773   104429967.232        -929.808          41.000  
J03  39185316.735   205920243.308       -1473.594          43.000    39185320.524   153771634.152       -1100.444          41.000  
G02  22237013.135   116856335.630         347.171          43.000                                                                  
G07  22888802.507   120281479.810        1731.880          45.000                                                                  
G21  21633259.032   113683574.806        -418.935          47.000                                                                  
> 2023 10 05 14 58 04.0040000  0 14                     
G08  22277517.214   117069150.330       -2691.327          44.000    22277518.286    87421778.848       -2009.590          43.000  
G09  24210408.207   127226526.250       -2908.525          37.000    24210421.712    95006862.321       -2171.969          37.000  
G04                                                                  24700457.741                       -2747.504          24.000  
G27  24664516.713   129612858.993       -3949.620          36.000    24664512.957    96788843.651       -2949.139          42.000  
E07                                                                  27466924.857   107786073.271       -2292.965          34.000  
E15  25276568.033   132829295.668         130.118          47.000    25276576.341    99190754.390          97.382          42.000  
E18  26623529.553   139907631.174        2525.886          46.000    26623539.539   104476537.319        1886.344          40.000  
E27  26111696.809   137217896.232          17.507          43.000    26111698.687                          13.777          26.000  
E34  27391172.349   143941603.954       -2398.118          39.000    27391182.117   107488896.050       -1790.570          40.000  
E30  26611915.600   139846551.986       -1245.842          41.000    26611920.746   104430897.207        -930.125          41.000  
J03  39185596.918   205921716.959       -1473.983          43.000    39185600.926   153772734.597       -1100.329          41.000  
G02  22236947.175   116855988.390         346.901          43.000                                                                  
G07  22888473.036   120279748.072        1731.050          45.000                                                                  
G21  21633338.764   113683994.086        -419.985          47.000                                                                  
> 2023 10 05 14 58 05.0040000  0 14                     
G08  22278028.902   117071841.476       -2691.247          44.000    22278030.295    87423788.497       -2009.710          43.000  
G09  24210961.835   127229435.110       -2908.961          37.000    24210975.370    95009034.510       -2171.935          36.000  
G04                                                                  24701157.367                       -2746.765          24.000  
G27  24665268.110   129616808.342       -3949.284          36.000    24665264.564    96791792.851       -2949.250          42.000  
E07                                                                  27467509.224   107788366.725       -2293.734          33.000  
E15  25276543.410   132829165.332         130.049          47.000    25276551.523    99190657.090          97.128          42.000  
E18  26623048.738   139905105.064        2526.064          46.000    26623059.029   104474650.980        1886.212          40.000  
E27  26111693.064   137217878.345          17.956          43.000    26111693.849                          12.295          26.000  
E34  27391627.667   143944001.988       -2398.232          38.000    27391638.506   107490686.818       -1790.771          39.000  
E30  26612152.932   139847797.462       -1245.497          41.000    26612157.613   104431827.285        -930.043          41.000  
J03  39185877.470   205923190.779       -1474.055          43.000    39185881.243   153773835.200       -1100.560          41.000  
G02  22236881.092   116855641.866         346.205          43.000                                                                  
G07  22888143.649   120278016.786        1730.980          45.000                                                                  
G21  21633418.856   113684414.178        -420.621          46.000                                                                  
> 2023 10 05 14 58 06.0040000  0 14                     
G08  22278541.350   117074532.978       -2691.689          44.000    22278542.551    87425798.359       -2010.036          43.000  
G09  24211515.549   127232344.228       -2909.368          37.000    24211528.862    95011206.900       -2172.617          36.000  
G04                                                                  24701859.501                       -2746.830          23.000  
G27  24666019.712   129620757.730       -3949.619          35.000    24666016.142    96794742.042       -2949.206          42.000  
E07                                                                  27468093.675   107790660.152       -2293.270          33.000  
E15  25276519.018   132829035.513         129.407          47.000    25276526.740    99190560.131          96.848          42.000  
E18  26622568.309   139902578.905        2526.130          46.000    26622578.311   104472764.548        1886.200          40.000  
E27  26111689.606   137217860.490          17.805          42.000    26111690.988                          13.542          26.000  
E34  27392083.871   143946400.500       -2399.054          38.000    27392094.861   107492477.892       -1791.455          39.000  
E30  26612389.499   139849043.044       -1245.881          41.000    26612394.767   104432757.405        -930.310          41.000  
J03  39186157.969   205924664.697       -1474.114          43.000    39186161.749   153774935.827       -1100.582          41.000  
G02  22236815.257   116855296.003         345.437          43.000                                                                  
G07  22887814.159   120276285.912        1730.655          46.000                                                                  
G21  21633498.762   113684835.037        -421.302          46.000                                                                  
> 2023 10 05 14 58 07.0040000  0 14                     
G08  22279053.553   117077224.595       -2691.789          44.000    22279054.882    87427808.317       -2009.606          43.000  
G09  24212068.960   127235253.474       -2909.171          37.000    24212082.598    95013379.382       -2172.541          36.000  
G04                                                                  24702560.552                       -2749.777          24.000  
G27  24666771.015   129624706.963       -3949.098          36.000    24666767.609    96797691.132       -2948.607          42.000  
E07                                                                  27468678.058   107792953.598       -2293.300          33.000  
E15  25276494.220   132828906.018         129.467          47.000    25276502.033    99190463.425          96.865          42.000  
E18  26622087.822   139900052.524        2526.618          46.000    26622097.791   104470877.968        1886.798          40.000  
E27  26111686.111   137217842.455          18.168          43.000    26111687.562                          14.243          26.000  
E34  27392540.373   143948799.262       -2398.864          38.000    27392551.258   107494269.176       -1791.219          39.000  
E30  26612626.796   139850288.521       -1245.192          42.000    26612631.888   104433687.470        -929.658          41.000  
J03  39186438.442   205926138.539       -1473.702          43.000    39186442.200   153776036.429       -1100.137          41.000  
G02  22236749.631   116854950.574         345.585          43.000                                                                  
G07  22887484.831   120274555.267        1730.729          46.000                                                                  
G21  21633578.931   113685256.475        -421.571          47.000                                                                  
> 2023 10 05 14 58 08.0040000  0 14                     
G08  22279565.708   117079916.260       -2691.664          44.000    22279567.114    87429818.356       -2009.748          43.000  
G09  24212622.392   127238162.733       -2909.345          37.000    24212636.116    95015551.872       -2172.364          36.000  
G04                                                                  24703261.636                       -2754.072          24.000  
G27  24667522.380   129628656.010       -3949.203          35.000    24667519.074    96800640.105       -2948.729          42.000  
E07                                                                  27469262.508   107795246.866       -2292.150          33.000  
E15  25276469.714   132828776.769         129.171          47.000    25276477.535    99190366.937          96.393          42.000  
E18  26621607.193   139897525.827        2527.140          46.000    26621616.901   104468991.176        1887.144          40.000  
E27  26111682.502   137217824.166          18.419          43.000    26111683.464   102467852.014          13.827          26.000  
E34  27392996.994   143951198.218       -2398.859          38.000    27393007.801   107496060.616       -1791.269          39.000  
E30  26612863.891   139851533.858       -1245.410          42.000    26612868.832   104434617.435        -929.670          41.000  
J03  39186718.978   205927612.247       -1473.638          43.000    39186722.610   153777136.949       -1100.263          41.000  
G02  22236684.029   116854605.556         344.967          43.000                                                                  
G07  22887155.363   120272824.775        1730.436          46.000                                                                  
G21  21633659.075   113685678.431        -422.267          47.000                                                                  
> 2023 10 05 14 58 09.0040000  0 14                     
G08  22280077.931   117082607.969       -2692.294          44.000    22280079.367    87431828.391       -2010.684          43.000  
G09  24213176.086   127241072.012       -2909.951          37.000    24213189.633    95017724.358       -2172.764          36.000  
G04                                                                  24703962.234                       -2749.889          23.000  
G27  24668273.968   129632604.815       -3949.252          35.000    24668270.608    96803588.878       -2948.994          42.000  
E07                                                                  27469846.968   107797540.051       -2293.104          33.000  
E15  25276444.910   132828647.762         128.370          47.000    25276452.851    99190270.596          95.743          42.000  
E18  26621126.254   139894998.834        2526.626          46.000    26621135.897   104467104.125        1886.546          40.000  
E27  26111678.906   137217805.628          18.116          43.000    26111679.473                          13.850          25.000  
E34  27393453.414   143953597.363       -2399.982          38.000    27393464.233   107497852.176       -1792.072          39.000  
E30  26613100.344   139852778.994       -1245.711          42.000    26613105.814   104435547.224        -929.842          41.000  
J03  39186999.245   205929085.788       -1474.017          43.000    39187003.123   153778237.319       -1100.753          41.000  
G02  22236618.372   116854260.920         343.812          43.000                                                                  
G07  22886826.198   120271094.428        1729.694          46.000                                                                  
G21  21633739.433   113686100.888        -423.406          47.000                                                                  
> 2023 10 05 14 58 10.0040000  0 14                     
G08  22280590.121   117085300.011       -2691.898          44.000    22280591.519    87433838.676       -2010.002          43.000  
G09  24213730.057   127243981.606       -2909.370          37.000    24213743.356    95019897.086       -2172.202          36.000  
G04                                                                  24704662.567                       -2744.333          23.000  
G27  24669025.143   129636553.700       -3948.390          35.000    24669022.046    96806537.707       -2948.449          42.000  
E07                                                                  27470431.389   107799833.368       -2293.654          33.000  
E15  25276420.603   132828519.281         128.625          47.000    25276428.412    99190174.638          96.225          42.000  
E18  26620645.313   139892471.809        2527.345          46.000    26620654.984   104465217.057        1887.389          40.000  
E27  26111675.225   137217787.122          18.911          43.000    26111676.639                          13.973          25.000  
E34  27393910.102   143955996.975       -2399.357          38.000    27393920.850   107499644.086       -1791.832          39.000  
E30  26613337.484   139854024.253       -1245.024          41.000    26613342.753   104436477.133        -929.485          41.000  
J03  39187279.783   205930559.473       -1473.514          43.000    39187283.461   153779337.785       -1100.155          41.000  
G02  22236552.641   116853916.947         343.926          43.000                                                                  
G07  22886497.010   120269364.510        1730.010          46.000                                                                  
G21  21633819.977   113686524.114        -423.155          47.000                                                                  
> 2023 10 05 14 58 11.0040000  0 14                     
G08  22281102.507   117087992.374       -2692.448          44.000    22281103.877    87435849.218       -2010.338          43.000  
G09  24214283.863   127246891.484       -2910.088          37.000    24214297.159    95022070.062       -2172.854          36.000  
G04                                                                  24705363.205                       -2750.377          23.000  
G27  24669776.728   129640502.621       -3948.634          35.000    24669773.475    96809486.604       -2948.736          42.000  
E07                                                                  27471015.768   107802126.670       -2292.541          33.000  
E15  25276396.220   132828391.318         127.769          47.000    25276403.968    99190079.104          95.716          42.000  
E18  26620164.754   139889944.746        2527.194          46.000    26620174.053   104463329.984        1887.219          40.000  
E27  26111671.318   137217768.639          18.485          42.000    26111673.992                          14.190          25.000  
E34  27394367.075   143958397.030       -2399.964          38.000    27394377.651   107501436.368       -1792.314          39.000  
E30  26613573.929   139855269.628       -1245.462          41.000    26613579.784   104437407.138        -929.824          41.000  
J03  39187560.154   205932033.261       -1473.733          43.000    39187563.999   153780438.369       -1100.435          41.000  
G02  22236487.179   116853573.645         342.752          43.000                                                                  
G07  22886167.985   120267635.004        1729.254          46.000                                                                  
G21  21633900.769   113686948.129        -424.323          47.000                                                                  
> 2023 10 05 14 58 12.0040000  0 14                     
G08  22281614.868   117090684.873       -2692.608          44.000    22281616.182    87437859.843       -2010.680          43.000  
G09  24214837.633   127249801.465       -2910.307          37.000    24214850.833    95024243.082       -2172.809          36.000  
G04                                                                  24706065.089                       -2746.406          23.000  
G27  24670527.858   129644451.416       -3948.546          34.000    24670525.004    96812435.368       -2948.903          42.000  
E07                                                                  27471600.228   107804419.993       -2293.119          33.000  
E15  25276371.738   132828263.681         127.446          47.000    25276379.596    99189983.789          94.963          42.000  
E18  26619683.716   139887417.456        2527.401          46.000    26619693.272   104461442.725        1887.205          40.000  
E27  26111667.458   137217749.972          18.629          42.000    26111669.803                          13.266          25.000  
E34  27394824.281   143960797.406       -2400.638          38.000    27394834.579   107503228.821       -1792.552          39.000  
E30  26613810.719   139856514.886       -1245.223          42.000    26613816.650   104438337.040        -930.136          41.000  
J03  39187840.687   205933506.985       -1473.729          43.000    39187844.440   153781538.871       -1100.709          41.000  
G02  22236421.915   116853230.783         342.579          43.000                                                                  
G07  22885838.988   120265905.772        1729.064          46.000                                                                  
G21  21633981.690   113687372.723        -424.908          47.000                                                                  
> 2023 10 05 14 58 13.0040000  0 14                     
G08  22282127.269   117093377.808       -2693.076          44.000    22282128.588    87439870.809       -2011.285          43.000  
G09  24215391.429   127252711.846       -2910.707          37.000    24215404.546    95026416.403       -2173.390          35.000  
G04                                                                  24706764.962                       -2749.704          22.000  
G27  24671279.419   129648400.389       -3949.024          34.000    24671276.518    96815384.248       -2948.730          42.000  
E07                                                                  27472184.776   107806713.462       -2294.154          33.000  
E15  25276347.621   132828136.666         126.766          47.000    25276355.332    99189888.931          94.665          42.000  
E18  26619202.908   139884890.233        2527.209          46.000    26619212.302   104459555.511        1887.174          40.000  
E27  26111663.905   137217731.443          18.515          42.000    26111666.156                          13.108          25.000  
E34  27395281.461   143963198.297       -2401.251          38.000    27395291.363   107505021.699       -1793.005          39.000  
E30  26614047.739   139857760.365       -1245.611          41.000    26614053.742   104439267.093        -930.106          41.000  
J03  39188121.195   205934980.950       -1474.136          43.000    39188124.940   153782639.544       -1100.642          41.000  
G02  22236356.968   116852888.708         341.643          43.000                                                                  
G07  22885510.016   120264176.984        1728.454          46.000                                                                  
G21  21634062.712   113687798.196        -425.924          47.000                                                                  
> 2023 10 05 14 58 14.0040000  0 14                     
G08  22282639.648   117096071.008       -2693.644          44.000    22282641.325    87441881.967       -2011.257          43.000  
G09  24215945.591   127255622.473       -2911.198          37.000    24215958.484    95028589.916       -2173.622          35.000  
G04                                                                  24707464.450                       -2746.217          22.000  
G27  24672030.653   129652349.340       -3949.511          34.000    24672027.994    96818333.170       -2949.167          42.000  
E07                                                                  27472769.179   107809006.941       -2293.396          33.000  
E15  25276323.268   132828010.108         125.940          47.000    25276331.476    99189794.454          94.054          42.000  
E18  26618722.137   139882362.917        2526.977          46.000    26618731.444   104457668.240        1887.089          40.000  
E27  26111660.536   137217712.872          18.313          42.000    26111663.055                          14.573          25.000  
E34  27395738.832   143965599.588       -2401.539          38.000    27395748.165   107506814.898       -1793.210          39.000  
E30  26614284.623   139859005.899       -1245.938          41.000    26614290.605   104440197.200        -930.020          41.000  
J03  39188401.546   205936454.963       -1474.453          43.000    39188405.305   153783740.291       -1100.915          41.000  
G02  22236291.808   116852547.230         340.821          43.000                                                                  
G07  22885181.217   120262448.600        1727.859          46.000                                                                  
G21  21634143.758   113688224.381        -426.895          47.000                                                                  
> 2023 10 05 14 58 15.0040000  0 14                     
G08  22283152.325   117098764.743       -2693.553          44.000    22283153.893    87443893.534       -2011.526          43.000  
G09  24216499.740   127258533.636       -2911.199          37.000    24216512.227    95030763.837       -2174.009          35.000  
G04                                                                  24708166.039                       -2744.034          21.000  
G27  24672781.910   129656298.602       -3948.509          34.000    24672779.438    96821282.298       -2949.141          42.000  
E07                                                                  27473353.904   107811300.765       -2294.295          33.000  
E15  25276299.542   132827884.327         125.798          47.000    25276307.492    99189700.508          94.091          41.000  
E18  26618241.252   139879835.813        2527.557          46.000    26618250.522   104455781.140        1887.151          40.000  
E27  26111657.076   137217694.580          18.740          42.000    26111658.620                          12.618          25.000  
E34  27396196.717   143968001.620       -2401.988          38.000    27396205.376   107508608.624       -1793.900          39.000  
E30  26614521.685   139860251.776       -1245.542          41.000    26614527.613   104441127.572        -930.320          41.000  
J03  39188681.880   205937929.357       -1474.432          43.000    39188685.854   153784841.296       -1101.061          41.000  
G02  22236226.806   116852206.671         340.322          43.000                                                                  
G07  22884852.517   120260720.883        1727.849          46.000                                                                  
G21  21634224.890   113688651.599        -427.270          47.000                                                                  
> 2023 10 05 14 58 16.0040000  0 14                     
G08  22283665.127   117101458.531       -2693.943          45.000    22283666.570    87445905.112       -2011.732          43.000  
G09  24217053.786   127261444.795       -2911.541          37.000    24217066.070    95032937.737       -2174.188          35.000  
G04                                                                  24708866.775                       -2750.763          22.000  
G27  24673533.576   129660247.621       -3948.679          34.000    24673530.893    96824231.218       -2949.032          42.000  
E07                                                                  27473938.395   107813594.366       -2293.792          33.000  
E15  25276275.316   132827758.747         125.398          47.000    25276283.636    99189606.736          93.581          41.000  
E18  26617760.308   139877308.375        2527.418          46.000    26617769.614   104453893.748        1887.409          40.000  
E27  26111652.997   137217675.999          18.804          42.000    26111655.018                          14.179          25.000  
E34  27396654.630   143970403.812       -2402.599          38.000    27396662.498   107510402.416       -1793.637          39.000  
E30  26614758.556   139861497.469       -1245.762          41.000    26614764.854   104442057.780        -930.273          41.000  
J03  39188962.378   205939403.559       -1474.389          43.000    39188966.409   153785942.168       -1101.109          41.000  
G02  22236162.013   116851866.461         339.783          43.000                                                                  
G07  22884523.725   120258993.288        1727.287          46.000                                                                  
G21  21634306.557   113689079.281        -428.041          47.000                                                                  
> 2023 10 05 14 58 17.0040000  0 14                     
G08  22284177.902   117104152.692       -2694.251          45.000    22284179.350    87447917.003       -2011.878          43.000  
G09  24217607.945   127264356.269       -2911.437          37.000    24217620.213    95035111.885       -2173.979          35.000  
G04                                                                  24709568.030                       -2743.073          21.000  
G27  24674285.070   129664196.777       -3949.629          33.000    24674282.425    96827180.257       -2949.136          42.000  
E07                                                                  27474522.942   107815888.108       -2293.109          32.000  
E15  25276251.591   132827633.746         124.820          47.000    25276259.805    99189513.404          93.159          41.000  
E18  26617279.598   139874780.951        2527.510          46.000    26617288.630   104452006.404        1887.626          40.000  
E27  26111649.827   137217657.504          18.513          42.000    26111652.034                          13.909          25.000  
E34  27397112.407   143972806.483       -2402.712          39.000    27397119.684   107512196.689       -1794.729          39.000  
E30  26614995.379   139862743.306       -1245.980          41.000    26615002.041   104442988.130        -930.444          41.000  
J03  39189242.914   205940877.929       -1474.413          43.000    39189247.151   153787043.172       -1100.970          41.000  
G02  22236097.330   116851526.970         339.086          42.000                                                                  
G07  22884195.106   120257266.162        1726.922          46.000                                                                  
G21  21634387.955   113689507.801        -428.901          47.000                                                                  
> 2023 10 05 14 58 18.0040000  0 14                     
G08  22284690.516   117106847.058       -2694.551          45.000    22284691.815    87449929.043       -2012.460          43.000  
G09  24218162.313   127267267.955       -2912.050          37.000    24218174.348    95037286.207       -2174.754          35.000  
G04                                                                  24710269.365                       -2735.749          21.000  
G27  24675036.481   129668145.825       -3948.867          33.000    24675034.009    96830129.233       -2949.313          42.000  
E07                                                                  27475107.484   107818181.907       -2294.719          33.000  
E15  25276227.875   132827509.135         124.363          47.000    25276236.005    99189420.364          92.751          41.000  
E18  26616798.586   139872253.364        2527.743          46.000    26616807.586   104450118.938        1887.108          40.000  
E27  26111646.663   137217638.893          18.549          43.000    26111648.198                          13.821          25.000  
E34  27397569.822   143975209.510       -2403.184          39.000    27397577.023   107513991.141       -1794.729          39.000  
E30  26615232.497   139863989.116       -1245.861          41.000    26615239.047   104443918.446        -930.464          41.000  
J03  39189523.486   205942352.312       -1474.550          43.000    39189527.631   153788144.168       -1101.150          41.000  
G02  22236032.767   116851188.000         338.699          42.000                                                                  
G07  22883866.350   120255539.323        1726.677          46.000                                                                  
G21  21634469.537   113689936.958        -429.449          47.000                                                                  
> 2023 10 05 14 58 19.0040000  0 14                     
G08  22285203.337   117109541.601       -2694.457          45.000    22285204.571    87451941.186       -2012.307          43.000  
G09  24218716.615   127270179.771       -2911.690          37.000    24218728.346    95039460.605       -2174.841          35.000  
G04                                                                  24710971.001                       -2747.824          21.000  
G27  24675787.511   129672094.797       -3948.871          33.000    24675785.314    96833078.117       -2948.897          42.000  
E07                                                                  27475692.039   107820475.570       -2293.079          33.000  
E15  25276204.204   132827384.899         124.156          47.000    25276212.249    99189327.581          92.477          41.000  
E18  26616317.771   139869725.607        2527.908          46.000    26616326.489   104448231.315        1887.453          40.000  
E27  26111643.156   137217620.172          18.871          43.000    26111645.235                          15.279          25.000  
E34  27398027.859   143977612.869       -2403.625          39.000    27398034.302   107515785.836       -1794.756          39.000  
E30  26615469.513   139865234.898       -1245.817          41.000    26615476.132   104444848.725        -930.407          41.000  
J03  39189803.989   205943826.663       -1474.261          43.000    39189808.269   153789245.136       -1101.133          41.000  
G02  22235968.297   116850849.555         338.301          42.000                                                                  
G07  22883537.808   120253812.780        1726.596          46.000                                                                  
G21  21634551.065   113690366.759        -429.999          47.000                                                                  
> 2023 10 05 14 58 20.0040000  0 14                     
G08  22285716.263   117112236.267       -2694.680          45.000    22285717.401    87453953.454       -2012.510          43.000  
G09  24219270.815   127273091.668       -2911.824          38.000    24219282.286    95041635.062       -2174.661          35.000  
G04                                                                  24711672.422                       -2746.684          21.000  
G27  24676538.766   129676043.635       -3949.375          32.000    24676536.808    96836026.917       -2948.794          42.000  
E07                                                                  27476276.437   107822769.276       -2294.345          33.000  
E15  25276180.514   132827260.963         123.702          47.000    25276188.856    99189235.036          92.591          41.000  
E18  26615836.484   139867197.585        2528.052          46.000    26615845.486   104446343.530        1887.773          40.000  
E27  26111640.000   137217601.258          18.686          43.000    26111640.794                          14.031          25.000  
E34  27398485.783   143980016.449       -2403.922          39.000    27398491.601   107517580.724       -1795.025          39.000  
E30  26615706.650   139866480.569       -1245.925          41.000    26615713.264   104445778.933        -930.341          41.000  
J03  39190084.500   205945300.911       -1474.351          43.000    39190088.789   153790346.049       -1100.683          41.000  
G02  22235904.039   116850511.549         337.915          42.000                                                                  
G07  22883209.334   120252086.425        1726.041          46.000                                                                  
G21  21634632.762   113690797.124        -430.863          47.000                                                                  
> 2023 10 05 14 58 21.0040000  0 14                     
G08  22286228.892   117114931.256       -2695.156          45.000    22286230.306    87455965.952       -2012.833          43.000  
G09  24219824.984   127276003.851       -2912.233          38.000    24219836.446    95043809.772       -2175.436          35.000  
G04                                                                  24712372.398                       -2741.885          22.000  
G27  24677290.071   129679992.489       -3948.821          32.000    24677288.368    96838975.758       -2949.097          42.000  
E07                                                                  27476861.104   107825062.973       -2294.347          33.000  
E15  25276157.087   132827137.539         123.208          47.000    25276165.295    99189142.888          91.817          42.000  
E18  26615355.555   139864669.528        2528.207          46.000    26615364.310   104444455.704        1887.601          41.000  
E27  26111636.200   137217582.347          18.846          43.000    26111637.143                          13.855          25.000  
E34  27398943.854   143982420.486       -2404.247          39.000    27398949.012   107519375.962       -1795.680          39.000  
E30  26615943.768   139867726.319       -1245.710          41.000    26615950.323   104446709.213        -930.409          41.000  
J03  39190365.014   205946775.282       -1474.364          43.000    39190369.336   153791447.041       -1100.791          41.000  
G02  22235839.893   116850174.209         337.183          42.000                                                                  
G07  22882881.080   120250360.495        1725.605          46.000                                                                  
G21  21634714.988   113691228.250        -431.513          47.000                                                                  
> 2023 10 05 14 58 22.0040000  0 14                     
G08  22286741.792   117117626.597       -2695.465          45.000    22286743.115    87457978.675       -2012.800          43.000  
G09  24220379.395   127278916.385       -2912.476          38.000    24220390.765    95045984.640       -2174.521          35.000  
G04                                                                  24713071.670                       -2748.017          22.000  
G27  24678041.181   129683941.429       -3948.399          32.000    24678039.660    96841924.625       -2949.081          42.000  
E07                                                                  27477445.607   107827356.786       -2294.110          33.000  
E15  25276133.584   132827014.659         122.712          47.000    25276141.955    99189051.121          91.393          41.000  
E18  26614874.571   139862141.465        2528.290          46.000    26614883.230   104442567.852        1887.845          41.000  
E27  26111632.869   137217563.486          18.914          43.000    26111633.192                          14.130          25.000  
E34  27399401.752   143984825.023       -2404.696          39.000    27399406.721   107521171.532       -1795.743          39.000  
E30  26616181.450   139868972.214       -1245.652          41.000    26616187.230   104447639.559        -930.232          41.000  
J03  39190645.573   205948249.805       -1474.467          43.000    39190649.994   153792548.140       -1101.152          41.000  
G02  22235775.862   116849837.554         336.587          42.000                                                                  
G07  22882552.775   120248635.014        1725.333          46.000                                                                  
G21  21634797.350   113691660.186        -432.159          47.000                                                                  
> 2023 10 05 14 58 23.0040000  0 14                     
G08  22287254.916   117120322.031       -2695.699          45.000    22287256.137    87459991.512       -2012.738          43.000  
G09  24220933.729   127281828.985       -2912.988          38.000    24220944.884    95048159.628       -2174.795          35.000  
G04                                                                  24713773.412                       -2751.790          22.000  
G27  24678791.829   129687890.229       -3949.064          31.000    24678791.202    96844873.392       -2948.496          42.000  
E07                                                                  27478030.166   107829650.544       -2294.240          33.000  
E15  25276110.382   132826892.078         122.473          47.000    25276118.606    99188959.598          91.143          41.000  
E18  26614393.440   139859613.145        2528.463          46.000    26614402.056   104440679.832        1888.244          40.000  
E27  26111629.323   137217544.437          19.128          43.000    26111629.227                          13.705          25.000  
E34  27399859.989   143987229.798       -2405.063          39.000    27399864.246   107522967.308       -1795.614          39.000  
E30  26616418.314   139870218.005       -1245.979          41.000    26616424.246   104448569.871        -930.177          41.000  
J03  39190926.187   205949724.229       -1474.381          43.000    39190930.614   153793649.175       -1100.601          41.000  
G02  22235711.776   116849501.351         335.793          42.000                                                                  
G07  22882224.417   120246909.734        1725.091          46.000                                                                  
G21  21634879.503   113692092.672        -432.696          47.000                                                                  
> 2023 10 05 14 58 24.0040000  0 14                     
G08  22287767.905   117123017.692       -2695.947          45.000    22287769.024    87462004.516       -2013.217          43.000  
G09  24221488.181   127284741.746       -2912.961          38.000    24221499.052    95050334.765       -2175.613          35.000  
G04                                                                  24714475.002                       -2749.636          22.000  
G27  24679542.893   129691838.945       -3948.331          31.000    24679542.535    96847822.135       -2948.735          42.000  
E07                                                                  27478614.690   107831944.288       -2294.000          33.000  
E15  25276087.027   132826769.925         121.783          47.000    25276095.411    99188868.378          91.049          41.000  
E18  26613912.278   139857084.697        2528.325          46.000    26613920.966   104438791.713        1888.062          41.000  
E27  26111625.525   137217525.320          18.778          43.000    26111624.806                          14.515          25.000  
E34  27400317.722   143989634.926       -2405.567          39.000    27400321.852   107524763.373       -1796.352          39.000  
E30  26616655.454   139871463.791       -1246.182          41.000    26616661.210   104449500.180        -930.613          41.000  
J03  39191206.743   205951198.669       -1474.601          43.000    39191211.130   153794750.246       -1101.372          41.000  
G02  22235647.892   116849165.701         335.076          42.000                                                                  
G07  22881896.228   120245184.779        1724.588          46.000                                                                  
G21  21634962.034   113692525.852        -433.811          47.000                                                                  
> 2023 10 05 14 58 25.0040000  0 14                     
G08  22288280.712   117125713.499       -2695.643          44.000    22288282.086    87464017.606       -2013.144          43.000  
G09  24222042.852   127287654.649       -2912.853          38.000    24222053.479    95052509.987       -2175.663          35.000  
G04                                                                  24715175.951                       -2745.557          22.000  
G27  24680293.801   129695787.576       -3947.936          31.000    24680293.860    96850770.776       -2948.689          42.000  
E07                                                                  27479199.194   107834237.988       -2293.821          33.000  
E15  25276063.716   132826648.100         121.776          47.000    25276072.270    99188777.413          90.524          41.000  
E18  26613431.029   139854556.030        2528.885          46.000    26613439.825   104436903.413        1888.492          41.000  
E27  26111621.758   137217506.021          19.464          43.000    26111621.628                          14.871          25.000  
E34  27400775.719   143992040.344       -2405.522          39.000    27400779.580   107526559.595       -1796.176          39.000  
E30  26616892.615   139872709.498       -1245.603          41.000    26616898.330   104450430.397        -930.239          41.000  
J03  39191487.296   205952673.065       -1474.392          43.000    39191491.813   153795851.232       -1101.202          41.000  
G02  22235583.915   116848830.529         334.941          42.000                                                                  
G07  22881568.068   120243460.067        1724.678          46.000                                                                  
G21  21635044.682   113692959.620        -434.171          47.000                                                                  
> 2023 10 05 14 58 26.0040000  0 14                     
G08  22288793.843   117128409.552       -2696.730          44.000    22288795.188    87466030.884       -2013.379          43.000  
G09  24222597.317   127290567.749       -2913.798          38.000    24222608.001    95054685.313       -2175.914          35.000  
G04                                                                  24715876.993                       -2747.025          23.000  
G27  24681044.570   129699736.138       -3948.322          30.000    24681045.271    96853719.377       -2948.662          42.000  
E07                                                                  27479783.704   107836531.691       -2293.884          33.000  
E15  25276040.432   132826526.698         120.811          47.000    25276049.257    99188686.737          90.629          41.000  
E18  26612950.051   139852027.230        2528.394          46.000    26612958.685   104435015.024        1888.360          40.000  
E27  26111618.119   137217486.655          18.990          43.000    26111618.010                          14.114          25.000  
E34  27401233.382   143994446.107       -2406.362          39.000    27401237.312   107528356.111       -1796.620          39.000  
E30  26617129.678   139873955.224       -1246.392          41.000    26617135.449   104451360.637        -930.313          41.000  
J03  39191767.949   205954147.474       -1474.893          43.000    39191772.389   153796952.238       -1101.021          41.000  
G02  22235520.135   116848495.900         334.075          42.000                                                                  
G07  22881239.906   120241735.674        1723.755          46.000                                                                  
G21  21635127.209   113693394.056        -435.188          47.000                                                                  
> 2023 10 05 14 58 27.0040000  0 14                     
G08  22289307.068   117131105.928       -2696.267          44.000    22289308.306    87468044.437       -2013.375          43.000  
G09  24223151.777   127293481.134       -2913.264          38.000    24223162.197    95056860.890       -2175.394          35.000  
G04                                                                  24716579.134                       -2755.391          23.000  
G27  24681795.325   129703684.854       -3948.974          30.000    24681796.670    96856668.071       -2948.644          42.000  
E07                                                                  27480368.310   107838825.541       -2293.552          33.000  
E15  25276017.523   132826405.841         120.766          47.000    25276026.334    99188596.512          90.170          41.000  
E18  26612468.717   139849498.413        2529.053          46.000    26612477.510   104433126.642        1888.866          41.000  
E27  26111614.465   137217467.346          19.431          43.000    26111614.407                          14.443          24.000  
E34  27401691.117   143996852.369       -2406.327          39.000    27401695.271   107530153.009       -1796.822          39.000  
E30  26617366.966   139875201.063       -1245.838          41.000    26617372.509   104452290.995        -930.244          41.000  
J03  39192048.361   205955622.025       -1474.556          43.000    39192052.880   153798053.391       -1100.917          41.000  
G02  22235456.700   116848161.997         333.653          42.000                                                                  
G07  22880911.956   120240011.722        1723.882          46.000                                                                  
G21  21635209.777   113693829.298        -435.416          47.000                                                                  
> 2023 10 05 14 58 28.0040000  0 14                     
G08  22289820.364   117133802.728       -2696.857          44.000    22289821.455    87470058.273       -2014.083          43.000  
G09  24223706.440   127296394.935       -2913.864          38.000    24223716.809    95059036.768       -2175.816          35.000  
G04  24716139.612                       -3807.000          22.000    24717278.898                       -2751.001          23.000  
G27  24682546.109   129707633.654       -3949.099          29.000    24682548.152    96859616.844       -2948.859          42.000  
E07                                                                  27480952.771   107841119.486       -2293.638          33.000  
E15  25275994.690   132826285.602         120.012          47.000    25276003.435    99188506.702          89.747          41.000  
E18  26611987.548   139846969.669        2528.817          46.000    26611996.247   104431238.288        1888.352          41.000  
E27  26111610.618   137217448.151          19.137          43.000    26111610.864                          13.683          25.000  
E34  27402149.100   143999259.184       -2406.970          39.000    27402153.296   107531950.296       -1797.408          39.000  
E30  26617604.178   139876447.102       -1246.051          41.000    26617609.757   104453221.459        -930.195          41.000  
J03  39192329.120   205957096.795       -1474.739          43.000    39192333.600   153799154.684       -1101.360          41.000  
G02  22235393.477   116847828.834         332.852          42.000                                                                  
G07  22880583.942   120238288.300        1723.202          46.000                                                                  
G21  21635292.739   113694265.424        -436.457          47.000                                                                  
> 2023 10 05 14 58 29.0040000  0 14                     
G08  22290333.800   117136499.872       -2697.315          44.000    22290334.723    87472072.362       -2014.224          43.000  
G09  24224260.918   127299309.035       -2913.921          38.000    24224271.280    95061212.866       -2175.820          35.000  
G04                                                                  24717980.386                       -2750.385          23.000  
G27  24683296.829   129711582.551       -3949.270          29.000    24683299.525    96862565.674       -2948.879          42.000  
E07                                                                  27481537.470   107843413.533       -2293.773          33.000  
E15  25275971.802   132826165.890         119.502          47.000    25275980.705    99188417.321          89.055          41.000  
E18  26611506.065   139844440.894        2528.871          46.000    26611515.004   104429349.940        1888.107          41.000  
E27  26111606.930   137217428.989          19.035          43.000    26111607.707                          13.753          25.000  
E34  27402607.058   144001666.484       -2407.473          39.000    27402611.397   107533747.942       -1797.607          39.000  
E30  26617840.825   139877693.259       -1246.250          41.000    26617846.774   104454152.028        -930.580          41.000  
J03  39192609.735   205958571.708       -1475.027          43.000    39192614.200   153800256.067       -1101.504          41.000  
G02  22235330.295   116847496.337         332.279          42.000                                                                  
G07  22880256.011   120236565.314        1722.799          46.000                                                                  
G21  21635375.940   113694702.336        -437.423          46.000                                                                  
> 2023 10 05 14 58 30.0040000  0 14                     
G08  22290847.009   117139197.251       -2697.769          44.000    22290847.967    87474086.654       -2014.439          43.000  
G09  24224815.610   127302223.379       -2914.570          38.000    24224825.832    95063389.167       -2176.142          35.000  
G04                                                                  24718680.041                       -2738.277          23.000  
G27  24684047.419   129715531.411       -3949.271          28.000    24684050.981    96865514.542       -2949.371          42.000  
E07                                                                  27482122.173   107845707.668       -2294.565          33.000  
E15  25275949.373   132826046.636         118.684          47.000    25275957.830    99188328.266          88.940          41.000  
E18  26611025.027   139841912.033        2528.569          46.000    26611033.756   104427461.505        1888.509          41.000  
E27  26111603.583   137217409.786          18.765          43.000    26111602.830                          11.859          25.000  
E34  27403065.064   144004074.166       -2408.112          39.000    27403069.563   107535545.910       -1797.995          39.000  
E30  26618078.409   139878939.472       -1246.821          41.000    26618083.876   104455082.653        -930.853          41.000  
J03  39192890.228   205960046.671       -1475.326          43.000    39192894.901   153801357.521       -1101.606          41.000  
G02  22235267.236   116847164.446         331.253          42.000                                                                  
G07  22879928.287   120234842.688        1722.047          46.000                                                                  
G21  21635459.191   113695139.967        -438.444          46.000                                                                  
> 2023 10 05 14 58 31.0040000  0 14                     
G08  22291360.132   117141895.104       -2697.864          44.000    22291361.438    87476101.300       -2015.074          44.000  
G09  24225370.177   127305138.151       -2914.775          38.000    24225380.364    95065565.775       -2176.715          35.000  
G04                                                                  24719381.603                       -2746.600          23.000  
G27  24684797.622   129719480.475       -3948.459          28.000    24684802.478    96868463.517       -2949.279          42.000  
E07                                                                  27482706.805   107848001.955       -2294.110          33.000  
E15  25275927.023   132825928.032         118.645          47.000    25275935.223    99188239.706          88.485          41.000  
E18  26610543.659   139839383.261        2529.011          46.000    26610552.504   104425573.157        1888.168          41.000  
E27  26111600.046   137217390.738          19.150          43.000    26111598.260                          14.046          24.000  
E34  27403523.507   144006482.448       -2408.151          39.000    27403527.824   107537344.315       -1798.887          39.000  
E30  26618315.676   139880185.908       -1246.236          41.000    26618321.157   104456013.442        -930.737          41.000  
J03  39193170.980   205961521.905       -1475.251          43.000    39193175.561   153802459.151       -1101.473          41.000  
G02  22235204.184   116846833.353         331.104          42.000                                                                  
G07  22879600.530   120233120.611        1722.068          46.000                                                                  
G21  21635542.623   113695578.494        -438.685          46.000                                                                  
> 2023 10 05 14 58 32.0040000  0 14                     
G08  22291873.665   117144593.108       -2698.276          44.000    22291874.809    87478116.014       -2015.093          43.000  
G09  24225924.962   127308053.016       -2914.963          38.000    24225935.016    95067742.458       -2176.941          35.000  
G04                                                                  24720082.556                       -2755.275          23.000  
G27  24685547.830   129723429.391       -3948.915          27.000    24685553.768    96871412.381       -2948.947          42.000  
E07                                                                  27483291.359   107850296.158       -2294.201          33.000  
E15  25275904.414   132825809.765         118.041          47.000    25275912.713    99188151.399          87.783          41.000  
E18  26610062.260   139836854.275        2528.858          46.000    26610071.259   104423684.610        1888.345          41.000  
E27  26111596.455   137217371.521          19.443          43.000    26111594.780                          15.652          24.000  
E34  27403981.369   144008890.994       -2408.407          39.000    27403986.233   107539142.897       -1798.978          39.000  
E30  26618553.286   139881432.268       -1246.463          41.000    26618558.312   104456944.156        -930.975          41.000  
J03  39193451.543   205962997.058       -1475.028          43.000    39193456.242   153803560.726       -1101.655          41.000  
G02  22235141.447   116846502.734         330.404          42.000                                                                  
G07  22879272.688   120231398.779        1721.506          46.000                                                                  
G21  21635625.931   113696017.617        -439.393          46.000                                                                  
> 2023 10 05 14 58 33.0040000  0 14                     
G08  22292387.057   117147291.524       -2698.561          44.000    22292388.372    87480131.083       -2015.283          43.000  
G09  24226479.972   127310968.251       -2915.048          38.000    24226489.923    95069919.421       -2176.893          35.000  
G04                                                                  24720783.887                       -2747.979          23.000  
G27  24686298.060   129727378.558       -3949.705          27.000    24686305.367    96874361.379       -2949.019          42.000  
E07                                                                  27483876.211   107852590.566       -2294.330          33.000  
E15  25275882.263   132825692.095         117.510          47.000    25275890.274    99188063.538          87.664          41.000  
E18  26609581.321   139834325.335        2528.885          46.000    26609589.895   104421796.140        1888.249          41.000  
E27  26111592.623   137217352.421          19.146          43.000    26111591.771                          14.051          24.000  
E34  27404439.456   144011300.097       -2409.085          39.000    27404444.620   107540941.921       -1799.405          39.000  
E30  26618790.536   139882678.808       -1246.466          41.000    26618795.701   104457875.029        -931.081          41.000  
J03  39193732.418   205964472.423       -1475.410          43.000    39193737.130   153804662.477       -1101.893          41.000  
G02  22235078.635   116846172.870         329.431          42.000                                                                  
G07  22878945.083   120229677.436        1721.220          46.000                                                                  
G21  21635709.760   113696457.594        -440.315          46.000                                                                  
> 2023 10 05 14 58 34.0040000  0 14                     
G08  22292900.351   117149990.105       -2699.038          44.000    22292901.758    87482146.253       -2015.433          43.000  
G09  24227034.838   127313883.628       -2915.945          38.000    24227044.720    95072096.484       -2177.471          35.000  
G04                                                                  24721484.693                       -2748.896          23.000  
G27  24687048.147   129731327.430       -3948.963          27.000    24687056.970    96877310.275       -2948.999          42.000  
E07                                                                  27484460.928   107854884.900       -2294.590          33.000  
E15  25275860.100   132825574.754         117.102          47.000    25275868.008    99187975.931          87.102          41.000  
E18  26609099.572   139831796.159        2529.167          46.000    26609108.612   104419907.473        1888.737          41.000  
E27  26111589.301   137217333.154          19.225          43.000    26111588.632                          15.917          24.000  
E34  27404898.092   144013709.493       -2409.832          39.000    27404903.111   107542741.110       -1799.168          39.000  
E30  26619027.987   139883925.276       -1246.545          42.000    26619032.933   104458805.826        -930.827          41.000  
J03  39194013.050   205965947.726       -1475.609          43.000    39194017.946   153805764.173       -1102.085          41.000  
G02  22235016.247   116845843.477         328.809          42.000                                                                  
G07  22878617.573   120227956.346        1720.750          46.000                                                                  
G21  21635793.546   113696898.168        -441.080          46.000                                                                  
> 2023 10 05 14 58 35.0040000  0 14                     
G08  22293414.033   117152688.898       -2699.011          44.000    22293415.315    87484161.566       -2015.513          43.000  
G09  24227589.710   127316799.169       -2915.709          38.000    24227599.465    95074273.652       -2176.990          35.000  
G04                                                                  24722185.693                       -2754.459          23.000  
G27  24687797.993   129735276.338       -3949.093          26.000    24687808.353    96880259.122       -2948.977          42.000  
E07                                                                  27485045.556   107857179.197       -2293.933          33.000  
E15  25275837.779   132825457.857         116.626          47.000    25275845.741    99187888.615          87.067          41.000  
E18  26608618.360   139829266.880        2529.274          46.000    26608627.368   104418018.694        1889.080          41.000  
E27  26111585.751   137217313.835          19.308          43.000    26111585.588                          14.376          24.000  
E34  27405356.377   144016119.237       -2410.099          39.000    27405361.709   107544540.587       -1799.392          39.000  
E30  26619265.424   139885171.769       -1246.546          42.000    26619270.022   104459736.653        -931.222          41.000  
J03  39194293.950   205967423.064       -1475.524          43.000    39194298.727   153806865.867       -1101.845          41.000  
G02  22234953.659   116845514.656         328.394          42.000                                                                  
G07  22878290.096   120226235.596        1720.501          46.000                                                                  
G21  21635877.635   113697339.434        -441.695          46.000                                                                  
> 2023 10 05 14 58 36.0040000  0 14                     
G08  22293927.708   117155388.119       -2699.379          44.000    22293929.018    87486177.220       -2015.620          44.000  
G09  24228144.779   127319715.167       -2916.034          38.000    24228154.529    95076451.150       -2177.233          35.000  
G04                                                                  24722888.567                       -2743.611          24.000  
G27  24688547.839   129739225.442       -3948.925          25.000    24688559.668    96883208.122       -2948.625          42.000  
E07                                                                  27485630.283   107859473.722       -2294.105          32.000  
E15  25275815.558   132825341.597         116.208          47.000    25275823.567    99187801.787          87.029          42.000  
E18  26608137.182   139826737.686        2529.331          46.000    26608146.039   104416130.031        1889.121          41.000  
E27  26111582.290   137217294.658          19.309          43.000    26111581.369                          14.653          24.000  
E34  27405814.862   144018529.582       -2410.480          39.000    27405820.418   107546340.517       -1799.685          39.000  
E30  26619502.892   139886418.486       -1246.742          42.000    26619507.052   104460667.622        -930.646          41.000  
J03  39194574.732   205968898.646       -1475.606          43.000    39194579.586   153807967.754       -1101.480          41.000  
G02  22234891.174   116845186.613         327.841          42.000                                                                  
G07  22877962.653   120224515.386        1720.181          46.000                                                                  
G21  21635961.730   113697781.602        -442.599          46.000                                                                  
> 2023 10 05 14 58 37.0040000  0 14                     
G08  22294441.053   117158087.569       -2699.680          44.000    22294442.714    87488193.058       -2015.976          44.000  
G09  24228699.939   127322631.339       -2916.182          38.000    24228709.600    95078628.843       -2177.187          35.000  
G04                                                                  24723588.890                       -2746.591          24.000  
G27  24689299.478                       -3949.909          25.000    24689311.269    96886157.116       -2948.849          42.000  
E07                                                                  27486215.119   107861768.245       -2293.917          33.000  
E15  25275793.469   132825225.768         115.561          47.000    25275801.634    99187715.320          86.640          42.000  
E18  26607655.798   139824208.367        2529.335          46.000    26607664.901   104414241.287        1888.648          41.000  
E27  26111578.510   137217275.404          19.173          43.000    26111576.932                          14.098          23.000  
E34  27406273.104   144020940.283       -2410.933          39.000    27406278.987   107548140.749       -1800.421          39.000  
E30  26619739.951   139887665.211       -1246.815          42.000    26619744.303   104461598.629        -930.738          41.000  
J03  39194855.658   205970374.266       -1476.064          43.000    39194860.248   153809069.690       -1101.747          41.000  
G02  22234828.853   116844859.158         327.009          42.000                                                                  
G07  22877635.212   120222795.517        1719.478          46.000                                                                  
G21  21636046.088   113698224.438        -443.188          47.000                                                                  
> 2023 10 05 14 58 38.0040000  0 14                     
G08  22294955.040   117160787.583       -2700.384          44.000    22294956.658    87490209.282       -2016.293          44.000  
G09  24229254.887   127325548.053       -2916.829          38.000    24229264.616    95080806.897       -2178.282          34.000  
G04                                                                  24724289.428                       -2747.231          24.000  
G27  24690049.452                       -3949.908          24.000    24690062.761    96889106.306       -2949.651          42.000  
E07                                                                  27486799.945   107864063.050       -2294.678          33.000  
E15  25275771.508   132825110.685         114.804          47.000    25275779.765    99187629.366          85.861          42.000  
E18  26607174.439   139821679.242        2529.017          46.000    26607183.580   104412352.651        1888.339          41.000  
E27  26111574.786   137217256.405          19.026          43.000    26111573.460                          14.438          23.000  
E34  27406731.637   144023351.662       -2411.551          39.000    27406738.058   107549941.451       -1800.953          39.000  
E30  26619977.510   139888912.274       -1247.085          42.000    26619981.558   104462529.862        -931.249          41.000  
J03  39195136.697   205971850.216       -1476.037          43.000    39195141.118   153810171.863       -1102.238          41.000  
G02  22234766.555   116844532.582         326.236          42.000                                                                  
G07  22877308.043   120221076.288        1719.037          46.000                                                                  
G21  21636130.596   113698668.286        -444.166          47.000                                                                  
> 2023 10 05 14 58 39.0040000  0 14                     
G08  22295469.038   117163487.681       -2700.285          44.000    22295470.369    87492225.595       -2016.488          44.000  
G09  24229809.816   127328464.805       -2916.466          38.000    24229819.636    95082984.968       -2177.867          34.000  
G04                                                                  24724989.734                       -2742.544          24.000  
G27  24690801.215                       -3948.566          23.000    24690814.414    96892055.352       -2949.199          42.000  
E07                                                                  27487384.673   107866357.762       -2294.947          33.000  
E15  25275749.843   132824995.891         114.722          47.000    25275757.895    99187543.644          85.675          42.000  
E18  26606693.097   139819149.853        2529.338          46.000    26606702.331   104410463.821        1888.621          41.000  
E27  26111571.610   137217237.198          19.163          43.000    26111570.620                          14.900          23.000  
E34  27407190.358   144025763.293       -2411.860          39.000    27407197.016   107551742.327       -1801.045          39.000  
E30  26620214.752   139890159.210       -1247.011          42.000    26620218.895   104463461.026        -931.272          41.000  
J03  39195417.585   205973326.066       -1475.784          43.000    39195422.032   153811273.966       -1102.330          41.000  
G02  22234704.701   116844206.453         325.804          42.000                                                                  
G07  22876980.902   120219357.266        1718.968          46.000                                                                  
G21  21636215.286   113699112.695        -444.668          47.000                                                                  
> 2023 10 05 14 58 40.0040000  0 14                     
G08  22295982.814   117166187.887       -2700.667          44.000    22295984.137    87494242.003       -2016.603          44.000  
G09  24230364.971   127331381.658       -2917.296          38.000    24230374.673    95085163.116       -2177.833          34.000  
G04                                                                  24725690.918                       -2750.435          24.000  
G27  24691548.493                       -3948.557          22.000    24691565.773    96895004.296       -2949.135          42.000  
E07                                                                  27487969.527   107868652.360       -2294.560          33.000  
E15  25275727.742   132824881.396         114.025          47.000    25275736.158    99187458.167          85.235          42.000  
E18  26606211.463   139816620.199        2529.400          46.000    26606220.920   104408574.804        1889.069          41.000  
E27  26111568.000   137217217.787          19.115          43.000    26111567.508                          14.090          23.000  
E34  27407649.024   144028175.143       -2412.467          39.000    27407655.806   107553543.418       -1801.456          39.000  
E30  26620452.192   139891406.027       -1247.242          42.000    26620456.129   104464392.085        -930.840          41.000  
J03  39195698.532   205974801.812       -1475.835          43.000    39195702.790   153812375.996       -1102.000          41.000  
G02  22234642.685   116843880.752         325.067          42.000                                                                  
G07  22876653.907   120217638.443        1718.476          46.000                                                                  
G21  21636300.035   113699557.644        -445.399          47.000                                                                  
> 2023 10 05 14 58 41.0040000  0 14                     
G08  22296496.765   117168888.332       -2700.384          44.000    22296497.934    87496258.575       -2016.655          44.000  
G09  24230919.723   127334298.681       -2916.995          38.000    24230929.754    95087341.449       -2178.844          34.000  
G04                                                                  24726392.068                       -2746.933          25.000  
G27                                                                  24692317.041    96897953.197       -2948.853          41.000  
E07                                                                  27488554.344   107870946.997       -2295.073          33.000  
E15  25275706.196   132824767.323         114.133          47.000    25275714.317    99187372.989          85.015          42.000  
E18  26605729.993   139814090.414        2530.171          46.000    26605739.459   104406685.694        1889.291          41.000  
E27  26111564.166   137217198.310          19.695          43.000    26111563.380                          13.384          23.000  
E34  27408107.751   144030587.373       -2412.194          39.000    27408114.888   107555344.740       -1801.329          39.000  
E30  26620689.087   139892652.848       -1246.447          42.000    26620693.480   104465323.166        -930.845          41.000  
J03  39195979.308   205976277.594       -1475.457          43.000    39195983.608   153813478.054       -1101.931          41.000  
G02  22234580.563   116843555.612         325.048          42.000                                                                  
G07  22876326.775   120215919.952        1718.531          46.000                                                                  
G21  21636384.994   113700003.289        -445.745          47.000                                                                  
> 2023 10 05 14 58 42.0040000  0 14                     
G08  22297010.825   117171589.057       -2701.176          44.000    22297012.017    87498275.331       -2017.088          44.000  
G09  24231474.645   127337215.967       -2917.694          38.000    24231484.823    95089519.901       -2179.162          34.000  
G04                                                                  24727092.345                       -2751.965          25.000  
G27                                                                  24693068.667    96900902.099       -2949.246          42.000  
E07                                                                  27489139.003   107873241.646       -2294.865          33.000  
E15  25275684.653   132824653.724         113.191          47.000    25275692.824    99187288.153          84.221          42.000  
E18  26605248.469   139811560.567        2529.609          46.000    26605258.179   104404796.504        1888.990          41.000  
E27  26111560.556   137217178.798          19.500          43.000    26111559.781                          14.534          23.000  
E34  27408566.381   144033000.008       -2413.018          39.000    27408573.885   107557146.378       -1802.031          39.000  
E30  26620926.216   139893899.749       -1247.188          42.000    26620930.727   104466254.292        -931.558          41.000  
J03  39196260.164   205977753.462       -1476.222          43.000    39196264.378   153814580.141       -1102.274          41.000  
G02  22234518.935   116843231.110         323.789          42.000                                                                  
G07  22876000.102   120214201.838        1717.641          46.000                                                                  
G21  21636470.043   113700449.661        -447.006          47.000                                                                  
> 2023 10 05 14 58 43.0040000  0 14                     
G08  22297524.909   117174290.118       -2701.334          44.000    22297525.915    87500292.356       -2016.722          44.000  
G09  24232029.817   127340133.560       -2917.513          38.000    24232040.009    95091698.590       -2178.486          34.000  
G04                                                                  24727793.806                       -2749.889          25.000  
G27                                                                  24693820.082    96903851.063       -2948.891          41.000  
E07                                                                  27489723.680   107875536.413       -2293.996          33.000  
E15  25275662.950   132824540.663         112.797          47.000    25275671.342    99187203.717          84.525          42.000  
E18  26604767.222   139809030.689        2529.928          46.000    26604776.774   104402907.314        1889.504          41.000  
E27  26111556.458   137217159.337          19.559          43.000    26111556.204                          14.468          23.000  
E34  27409025.784   144035413.130       -2413.376          38.000    27409033.235   107558948.371       -1801.838          39.000  
E30  26621163.546   139895146.758       -1247.151          41.000    26621167.969   104467185.504        -931.145          41.000  
J03  39196540.944   205979229.455       -1476.108          43.000    39196545.204   153815682.334       -1101.711          41.000  
G02  22234457.065   116842907.272         323.579          42.000                                                                  
G07  22875673.056   120212484.162        1717.529          46.000                                                                  
G21  21636555.193   113700896.828        -447.463          47.000                                                                  
> 2023 10 05 14 58 44.0040000  0 14                     
G08  22298038.668   117176991.355       -2701.133          45.000    22298039.873    87502309.535       -2016.823          44.000  
G09  24232584.713   127343051.308       -2917.368          38.000    24232595.250    95093877.494       -2178.763          34.000  
G04  24727902.483                       -3805.852          26.000    24728494.533                       -2759.302          25.000  
G27                                                                  24694571.640    96906799.969       -2948.411          42.000  
E07                                                                  27490308.596   107877831.184       -2293.956          33.000  
E15  25275641.660   132824427.989         112.833          47.000    25275650.020    99187119.593          84.415          42.000  
E18  26604285.838   139806500.654        2530.420          46.000    26604295.402   104401018.038        1889.553          41.000  
E27  26111552.903   137217139.762          20.122          43.000    26111552.466                          14.813          23.000  
E34  27409484.525   144037826.554       -2412.985          38.000    27409492.482   107560750.640       -1801.964          39.000  
E30  26621400.837   139896393.740       -1246.589          41.000    26621405.238   104468116.692        -930.650          41.000  
J03  39196821.827   205980705.438       -1475.730          43.000    39196826.157   153816784.560       -1101.695          41.000  
G02  22234395.249   116842583.967         323.370          42.000                                                                  
G07  22875346.361   120210766.775        1717.536          46.000                                                                  
G21  21636640.399   113701344.638        -447.734          47.000                                                                  
> 2023 10 05 14 58 45.0040000  0 14                     
G08  22298552.742   117179692.690       -2701.717          45.000    22298554.018    87504326.765       -2017.562          44.000  
G09  24233139.741   127345969.136       -2918.301          38.000    24233150.538    95096056.354       -2179.390          34.000  
G04                                                                  24729196.096                       -2750.046          25.000  
G27                                                                  24695323.017    96909748.748       -2948.869          42.000  
E07                                                                  27490893.371   107880125.860       -2295.304          32.000  
E15  25275620.425   132824315.609         111.764          47.000    25275628.563    99187035.673          83.477          42.000  
E18  26603803.991   139803970.352        2530.082          46.000    26603813.866   104399128.500        1889.409          41.000  
E27  26111549.447   137217120.005          19.342          43.000    26111546.977                          14.066          23.000  
E34  27409943.706   144040240.255       -2414.207          39.000    27409951.831   107562553.047       -1802.741          39.000  
E30  26621637.689   139897640.605       -1247.099          41.000    26621642.718   104469047.790        -931.343          41.000  
J03  39197102.767   205982181.323       -1476.196          43.000    39197107.156   153817886.659       -1102.249          41.000  
G02  22234333.671   116842261.118         322.244          42.000                                                                  
G07  22875019.581   120209049.592        1716.871          46.000                                                                  
G21  21636725.943   113701793.001        -448.926          47.000                                                                  
> 2023 10 05 14 58 46.0040000  0 14                     
G08  22299066.784   117182394.588       -2702.144          45.000    22299068.230    87506344.397       -2017.423          44.000  
G09  24233694.836   127348887.440       -2917.840          37.000    24233706.116    95098235.594       -2179.423          34.000  
G04                                                                  24729897.456                       -2747.154          25.000  
G27                                                                  24696074.483    96912697.709       -2948.565          42.000  
E07                                                                  27491478.209   107882420.784       -2295.750          33.000  
E15  25275599.030   132824203.941         111.644          47.000    25275607.418    99186952.274          83.498          42.000  
E18  26603322.058   139801440.217        2530.370          46.000    26603332.410   104397239.127        1889.422          41.000  
E27  26111545.077   137217100.443          19.914          43.000    26111544.075                          15.834          23.000  
E34  27410403.005   144042654.584       -2414.367          39.000    27410411.220   107564355.964       -1802.888          40.000  
E30  26621875.164   139898887.778       -1246.985          41.000    26621879.908   104469979.108        -931.381          41.000  
J03  39197383.657   205983657.512       -1475.912          43.000    39197388.099   153818989.017       -1102.121          41.000  
G02  22234272.531   116841939.096         322.032          42.000                                                                  
G07  22874693.007   120207333.036        1716.620          46.000                                                                  
G21  21636811.330   113702242.348        -449.438          47.000                                                                  
> 2023 10 05 14 58 47.0040000  0 14                     
G08  22299580.978   117185096.669       -2702.388          45.000    22299582.457    87508362.218       -2017.880          44.000  
G09  24234250.063   127351805.921       -2918.408          37.000    24234261.533    95100414.953       -2178.995          34.000  
G04                                                                  24730597.903                       -2754.426          25.000  
G27                                                                  24696825.960    96915646.650       -2948.785          42.000  
E07                                                                  27492063.092   107884715.657       -2294.519          33.000  
E15  25275577.913   132824092.679         110.821          47.000    25275586.388    99186869.225          82.613          42.000  
E18  26602841.061   139798909.911        2530.397          46.000    26602850.888   104395349.649        1889.274          41.000  
E27  26111541.376   137217080.786          19.674          43.000    26111540.119                          14.343          23.000  
E34  27410862.231   144045069.254       -2414.876          39.000    27410870.716   107566159.156       -1803.476          40.000  
E30  26622112.102   139900134.929       -1247.136          41.000    26622117.252   104470910.446        -931.515          41.000  
J03  39197664.824   205985133.715       -1476.209          43.000    39197669.000   153820091.384       -1102.080          41.000  
G02  22234211.376   116841617.642         321.074          42.000                                                                  
G07  22874366.543   120205616.773        1716.185          46.000                                                                  
G21  21636896.908   113702692.338        -450.361          47.000                                                                  
> 2023 10 05 14 58 48.0040000  0 14                     
G08  22300095.270   117187799.058       -2702.326          45.000    22300096.574    87510380.262       -2018.373          44.000  
G09  24234805.261   127354724.679       -2918.470          37.000    24234816.919    95102594.567       -2179.428          34.000  
G04                                                                  24731297.373                       -2752.607          24.000  
G27  24697518.253                       -3949.314          24.000    24697577.431    96918595.633       -2949.604          41.000  
E07                                                                  27492647.778   107887010.643       -2295.366          33.000  
E15  25275556.847   132823981.907         110.706          47.000    25275565.296    99186786.516          82.290          42.000  
E18  26602359.527   139796379.579        2530.450          46.000    26602369.368   104393460.116        1889.296          41.000  
E27  26111537.490   137217061.149          19.736          43.000    26111536.232                          14.625          23.000  
E34  27411321.462   144047484.382       -2415.325          38.000    27411330.290   107567962.642       -1803.487          40.000  
E30  26622349.750   139901382.158       -1247.090          41.000    26622354.740   104471841.821        -931.411          41.000  
J03  39197945.841   205986610.026       -1476.242          43.000    39197949.832   153821193.839       -1102.609          41.000  
G02  22234150.377   116841296.809         320.752          42.000                                                                  
G07  22874039.906   120203900.922        1715.787          46.000                                                                  
G21  21636982.410   113703143.096        -450.941          47.000                                                                  
> 2023 10 05 14 58 49.0040000  0 14                     
G08  22300609.709   117190501.738       -2702.914          44.000    22300610.844    87512398.479       -2018.616          43.000  
G09  24235360.266   127357643.707       -2919.236          37.000    24235372.301    95104774.319       -2180.135          35.000  
G04                                                                  24731999.987                       -2745.227          24.000  
G27  24698277.454                       -3949.698          25.000    24698328.878    96921544.547       -2949.136          41.000  
E07                                                                  27493232.598   107889305.595       -2295.330          34.000  
E15  25275536.088   132823871.625         109.936          47.000    25275544.019    99186704.135          82.173          42.000  
E18  26601878.178   139793849.161        2530.426          46.000    26601887.771   104391570.526        1889.201          39.000  
E27  26111533.805   137217041.479          19.481          43.000    26111533.391                          14.806          23.000  
E34  27411781.326   144049899.909       -2415.512          38.000    27411789.941   107569766.438       -1804.213          39.000  
E30  26622587.225   139902629.465       -1247.634          41.000    26622592.187   104472773.210        -931.329          41.000  
J03  39198227.078   205988086.395       -1476.417          44.000    39198230.815   153822296.336       -1102.970          42.000  
G02  22234089.280   116840976.613         319.571          42.000                                                                  
G07  22873713.475   120202185.459        1715.152          46.000                                                                  
G21  21637068.343   113703594.582        -451.857          47.000                                                                  
> 2023 10 05 14 58 50.0040000  0 14                     
G08  22301123.942   117193204.767       -2703.073          44.000    22301125.203    87514416.952       -2018.047          43.000  
G09  24235915.751   127360563.045       -2919.292          37.000    24235927.885    95106954.324       -2179.723          35.000  
G04                                                                  24732701.821                       -2756.553          23.000  
G27  24699033.199                       -3948.866          26.000    24699080.426    96924493.563       -2948.565          41.000  
E07                                                                  27493817.405   107891600.736       -2295.022          34.000  
E15  25275514.943   132823761.889         109.812          47.000    25275523.258    99186622.192          82.300          42.000  
E18  26601396.601   139791318.749        2530.729          46.000    26601406.167   104389680.914        1890.034          39.000  
E27  26111530.312   137217021.863          20.010          43.000    26111530.332                          14.401          24.000  
E34  27412240.582   144052315.961       -2416.218          38.000    27412249.670   107571570.621       -1803.976          39.000  
E30  26622824.936   139903876.912       -1247.256          41.000    26622829.538   104473704.760        -931.116          41.000  
J03  39198508.242   205989562.945       -1476.379          44.000    39198511.872   153823398.934       -1102.050          42.000  
G02  22234028.360   116840657.103         319.507          42.000                                                                  
G07  22873387.105   120200470.456        1715.131          46.000                                                                  
G21  21637154.472   113704046.893        -452.424          47.000                                                                  
> 2023 10 05 14 58 51.0040000  0 14                     
G08  22301638.399   117195907.999       -2703.523          44.000    22301639.760    87516435.623       -2018.678          44.000  
G09  24236471.217   127363482.564       -2919.835          37.000    24236483.491    95109134.525       -2180.624          35.000  
G04  24734009.164                       -3804.617          23.000    24733400.607                       -2751.558          23.000  
G27  24699790.465                       -3948.953          27.000    24699831.880    96927442.583       -2948.881          41.000  
E07                                                                  27494402.103   107893895.872       -2295.397          34.000  
E15  25275493.878   132823652.587         108.806          47.000    25275502.515    99186540.592          81.442          41.000  
E18  26600915.000   139788788.198        2530.331          46.000    26600924.600   104387791.253        1889.654          39.000  
E27  26111525.978   137217002.201          19.342          43.000    26111526.581                          15.397          24.000  
E34  27412700.630   144054732.331       -2416.656          38.000    27412709.349   107573375.077       -1804.713          39.000  
E30  26623062.105   139905124.352       -1247.458          41.000    26623066.850   104474636.323        -931.658          41.000  
J03  39198789.275   205991039.515       -1476.847          44.000    39198792.825   153824501.585       -1102.419          42.000  
G02  22233967.752   116840338.191         318.276          42.000                                                                  
G07  22873061.007   120198755.777        1714.298          46.000                                                                  
G21  21637240.908   113704499.884        -453.548          47.000                                                                  
> 2023 10 05 14 58 52.0040000  0 14                     
G08  22302152.972   117198611.300       -2703.183          44.000    22302154.225    87518454.318       -2018.695          44.000  
G09  24237026.582   127366402.147       -2919.629          37.000    24237039.144    95111314.675       -2180.376          35.000  
G04                                                                  24734100.028                       -2741.868          22.000  
G27  24700546.813   129802223.3723      -3948.975          27.000    24700583.229    96930391.437       -2948.972          41.000  
E07                                                                  27494986.894   107896190.896       -2295.133          34.000  
E15  25275473.416   132823543.537         109.055          47.000    25275481.758    99186459.162          81.209          41.000  
E18  26600433.230   139786257.356        2531.044          46.000    26600443.070   104385901.336        1890.081          39.000  
E27  26111522.209   137216982.285          20.138          43.000    26111524.268                          15.133          24.000  
E34  27413160.686   144057148.931       -2416.452          38.000    27413169.316   107575179.671       -1804.821          40.000  
E30  26623299.153   139906371.675       -1247.355          41.000    26623304.215   104475567.735        -931.413          41.000  
J03  39199070.151   205992515.950       -1476.374          44.000    39199073.972   153825604.124       -1102.701          42.000  
G02  22233907.086   116840019.657         318.491          41.000                                                                  
G07  22872734.941   120197041.264        1714.506          46.000                                                                  
G21  21637326.875   113704953.394        -453.724          47.000                                                                  
> 2023 10 05 14 58 53.0040000  0 14                     
G08  22302667.398   117201314.792       -2703.619          44.000    22302668.684    87520473.155       -2019.095          44.000  
G09  24237582.213   127369321.867       -2919.798          37.000    24237594.766    95113494.989       -2180.945          35.000  
G04                                                                  24734801.677                       -2748.521          23.000  
G27  24701302.878   129806172.1892      -3948.803          28.000    24701334.580    96933340.211       -2948.708          41.000  
E07                                                                  27495571.832   107898485.914       -2295.627          34.000  
E15  25275452.690   132823434.901         108.422          47.000    25275461.004    99186378.034          80.839          41.000  
E18  26599951.795   139783726.370        2530.993          46.000    26599961.379   104384011.302        1889.983          39.000  
E27  26111518.476   137216962.279          20.097          43.000    26111519.805                          14.292          25.000  
E34  27413620.617   144059565.866       -2416.861          38.000    27413629.439   107576984.518       -1805.089          40.000  
E30  26623536.576   139907618.947       -1247.209          41.000    26623541.519   104476499.155        -931.667          41.000  
J03  39199350.952   205993992.388       -1476.577          44.000    39199354.805   153826706.651       -1102.737          42.000  
G02  22233846.460   116839701.696         317.570          41.000                                                                  
G07  22872408.629   120195327.071        1714.073          46.000                                                                  
G21  21637413.243   113705407.564        -454.498          47.000                                                                  
> 2023 10 05 14 58 54.0040000  0 14                     
G08  22303181.995   117204018.655       -2704.061          43.000    22303183.284    87522492.303       -2019.164          44.000  
G09  24238137.643   127372241.956       -2919.995          37.000    24238150.480    95115675.582       -2181.113          35.000  
G04                                                                  24735502.861                       -2747.093          23.000  
G27  24702059.360   129810121.1322      -3948.771          28.000    24702086.058    96936289.126       -2948.908          41.000  
E07                                                                  27496156.834   107900781.053       -2294.884          34.000  
E15  25275432.155   132823326.822         108.001          47.000    25275440.392    99186297.348          80.339          42.000  
E18  26599470.185   139781195.395        2531.182          46.000    26599479.788   104382121.322        1890.009          40.000  
E27  26111514.448   137216942.362          20.057          43.000    26111516.275                          15.067          25.000  
E34  27414080.921   144061983.317       -2417.406          38.000    27414089.544   107578789.775       -1805.285          40.000  
E30  26623773.888   139908866.404       -1247.323          41.000    26623778.989   104477430.694        -931.359          41.000  
J03  39199631.920   205995468.995       -1476.449          43.000    39199635.875   153827809.323       -1102.514          41.000  
G02  22233786.078   116839384.437         316.972          42.000                                                                  
G07  22872082.600   120193613.347        1713.746          46.000                                                                  
G21  21637499.914   113705862.560        -455.175          47.000                                                                  
> 2023 10 05 14 58 55.0040000  0 14                     
G08  22303696.379   117206722.731       -2704.037          43.000    22303697.884    87524511.598       -2019.521          44.000  
G09  24238693.101   127375162.212       -2920.521          36.000    24238706.100    95117856.281       -2180.953          35.000  
G04                                                                  24736204.443                       -2752.830          23.000  
G27  24702811.770   129814069.5111      -3948.724          29.000    24702837.653    96939237.974       -2949.006          41.000  
E07                                                                  27496741.669   107903076.192       -2294.959          33.000  
E15  25275411.252   132823219.167         107.387          47.000    25275419.975    99186216.950          80.332          42.000  
E18  26598988.395   139778664.264        2531.288          46.000    26598998.182   104380231.191        1890.280          40.000  
E27  26111510.341   137216922.351          20.021          43.000    26111510.874                          15.417          25.000  
E34  27414540.233   144064401.114       -2417.657          38.000    27414549.565   107580595.284       -1805.930          40.000  
E30  26624010.802   139910113.851       -1247.451          41.000    26624016.389   104478362.232        -931.462          41.000  
J03  39199912.906   205996945.617       -1476.563          43.000    39199916.799   153828912.016       -1102.769          41.000  
G02  22233726.137   116839067.724         316.379          42.000                                                                  
G07  22871756.608   120191899.930        1713.373          46.000                                                                  
G21  21637586.437   113706318.225        -456.014          47.000                                                                  
> 2023 10 05 14 58 56.0040000  0 14                     
G08  22304210.935   117209427.018       -2704.521          43.000    22304212.499    87526531.006       -2019.756          44.000  
G09  24239248.476   127378082.628       -2920.591          36.000    24239261.737    95120037.056       -2180.583          34.000  
G04                                                                  24736904.095                       -2743.891          23.000  
G27  24703578.502   129818018.330       -3948.783          31.000    24703588.962    96942186.727       -2948.853          41.000  
E07                                                                  27497326.455   107905371.314       -2295.443          33.000  
E15  25275390.804   132823111.877         107.019          47.000    25275399.591    99186136.838          79.769          42.000  
E18  26598506.229   139776132.966        2531.505          46.000    26598516.421   104378340.949        1890.103          41.000  
E27  26111506.212   137216902.210          20.031          43.000    26111506.741                          15.512          24.000  
E34  27414999.953   144066819.233       -2418.708          38.000    27415009.788   107582400.984       -1805.725          40.000  
E30  26624247.947   139911361.245       -1247.429          41.000    26624253.760   104479293.722        -931.437          41.000  
J03  39200193.669   205998422.222       -1476.667          43.000    39200197.655   153830014.645       -1102.669          42.000  
G02  22233665.845   116838751.528         315.929          42.000                                                                  
G07  22871430.415   120190186.815        1712.830          46.000                                                                  
G21  21637673.418   113706774.522        -456.615          47.000                                                                  
> 2023 10 05 14 58 57.0040000  0 14                     
G08  22304725.611   117212131.531       -2704.642          43.000    22304727.108    87528550.582       -2019.336          44.000  
G09  24239804.025   127381003.241       -2920.461          36.000    24239817.400    95122218.048       -2180.672          34.000  
G04                                                                  24737604.504                       -2749.700          23.000  
G27  24704337.033   129821967.043       -3948.125          32.000    24704340.447    96945135.472       -2948.309          41.000  
E07                                                                  27497911.122   107907666.404       -2294.476          33.000  
E15  25275370.678   132823005.029         107.002          47.000    25275379.200    99186057.041          79.997          42.000  
E18  26598024.683   139773601.553        2531.835          46.000    26598034.607   104376450.613        1890.635          41.000  
E27  26111502.299   137216882.005          20.620          43.000    26111503.661                          14.678          25.000  
E34  27415460.657   144069237.726       -2418.220          38.000    27415469.872   107584206.996       -1805.887          40.000  
E30  26624485.094   139912608.692       -1247.337          41.000    26624491.087   104480225.238        -931.192          41.000  
J03  39200474.639   205999898.870       -1476.562          43.000    39200478.581   153831117.326       -1102.410          42.000  
G02  22233605.683   116838435.914         315.786          42.000                                                                  
G07  22871104.427   120188474.027        1712.923          46.000                                                                  
G21  21637760.501   113707231.527        -457.106          47.000                                                                  
> 2023 10 05 14 58 58.0040000  0 14                     
G08  22305240.314   117214836.002       -2704.571          43.000    22305241.786    87530570.186       -2019.271          44.000  
G09  24240359.361   127383923.794       -2920.455          35.000    24240373.232    95124398.975       -2180.839          34.000  
G04                                                                  24738305.850                       -2752.219          22.000  
G27  24705088.484   129825915.522       -3948.297          32.000    24705091.784    96948084.001       -2948.008          41.000  
E07                                                                  27498496.062   107909961.388       -2294.816          33.000  
E15  25275350.598   132822898.340         106.750          47.000    25275358.950    99185977.387          79.781          42.000  
E18  26597543.126   139771069.754        2531.944          46.000    26597552.716   104374560.007        1890.684          41.000  
E27  26111498.980   137216861.467          20.866          43.000    26111499.676                          14.656          25.000  
E34  27415920.879   144071656.323       -2418.669          39.000    27415930.321   107586013.128       -1806.479          40.000  
E30  26624722.263   139913855.855       -1247.155          41.000    26624728.462   104481156.596        -931.208          41.000  
J03  39200755.412   206001375.260       -1476.037          43.000    39200759.578   153832219.863       -1102.096          42.000  
G02  22233545.655   116838120.615         315.064          42.000                                                                  
G07  22870778.180   120186761.312        1712.693          46.000                                                                  
G21  21637847.384   113707688.939        -457.699          47.000                                                                  
> 2023 10 05 14 58 59.0040000  0 14                     
G08  22305755.021   117217540.614       -2704.760          43.000    22305756.515    87532589.890       -2020.147          44.000  
G09  24240915.006   127386844.445       -2921.093          35.000    24240928.912    95126579.968       -2181.442          34.000  
G04                                                                  24739007.096                       -2753.661          22.000  
G27  24705839.699   129829863.864       -3948.352          33.000    24705843.178    96951032.449       -2948.659          41.000  
E07                                                                  27499080.843   107912256.303       -2295.400          33.000  
E15  25275330.029   132822791.981         106.152          47.000    25275338.656    99185897.990          78.811          42.000  
E18  26597061.253   139768537.716        2532.004          46.000    26597070.946   104372669.209        1890.559          41.000  
E27  26111495.356   137216840.765          20.810          43.000    26111494.913                          15.159          25.000  
E34  27416381.277   144074075.179       -2419.035          39.000    27416390.695   107587819.417       -1807.083          40.000  
E30  26624959.361   139915102.933       -1247.155          41.000    26624965.757   104482087.873        -931.838          41.000  
J03  39201036.158   206002851.592       -1476.303          43.000    39201040.655   153833322.330       -1102.884          42.000  
G02  22233486.023   116837805.775         314.630          42.000                                                                  
G07  22870452.439   120185048.826        1712.205          46.000                                                                  
G21  21637934.670   113708146.938        -458.456          47.000                                                                  
> 2023 10 05 14 59 00.0040000  0 14                     
G08  22306269.813   117220245.531       -2704.952          43.000    22306271.262    87534609.748       -2019.870          44.000  
G09  24241470.662   127389765.330       -2920.989          35.000    24241484.643    95128761.145       -2181.565          34.000  
G04                                                                  24739708.070                       -2737.978          22.000  
G27  24706593.458   129833812.195       -3947.977          33.000    24706594.618    96953980.875       -2948.512          41.000  
E07                                                                  27499665.637   107914551.224       -2295.028          33.000  
E15  25275309.795   132822686.102         105.775          47.000    25275318.474    99185818.910          78.799          42.000  
E18  26596579.421   139766005.624        2532.198          46.000    26596589.125   104370778.332        1891.134          40.000  
E27  26111491.339   137216820.040          21.001          43.000    26111491.270                          15.093          25.000  
E34  27416841.688   144076494.462       -2419.394          39.000    27416851.014   107589625.988       -1806.760          40.000  
E30  26625196.728   139916350.094       -1247.042          41.000    26625203.097   104483019.147        -931.297          41.000  
J03  39201317.311   206004328.014       -1476.531          43.000    39201321.509   153834424.817       -1102.454          42.000  
G02  22233426.443   116837491.550         314.276          42.000                                                                  
G07  22870126.663   120183336.737        1711.842          46.000                                                                  
G21  21638021.948   113708605.676        -459.004          47.000                                                                  
> 2023 10 05 14 59 01.0040000  0 14                     
G08  22306784.381   117222950.873       -2705.183          43.000    22306785.989    87536629.968       -2019.876          44.000  
G09  24242026.218   127392686.654       -2920.945          35.000    24242040.783    95130942.640       -2181.274          34.000  
G04                                                                  24740408.250                       -2753.069          21.000  
G27  24707345.061   129837760.737       -3948.381          33.000    24707345.900    96956929.434       -2947.817          41.000  
E07                                                                  27500250.541   107916846.317       -2294.287          33.000  
E15  25275289.951   132822580.893         105.182          47.000    25275298.418    99185740.337          78.875          42.000  
E18  26596097.436   139763473.617        2532.290          46.000    26596107.322   104368887.568        1891.032          40.000  
E27  26111487.644   137216799.497          20.898          43.000    26111487.951                          16.546          25.000  
E34  27417302.255   144078914.334       -2419.660          38.000    27417311.460   107591433.037       -1806.793          40.000  
E30  26625433.731   139917597.501       -1247.098          41.000    26625440.481   104483950.661        -931.117          41.000  
J03  39201598.397   206005804.704       -1476.481          44.000    39201602.492   153835527.541       -1102.322          42.000  
G02  22233366.727   116837178.163         313.251          42.000                                                                  
G07  22869800.949   120181625.206        1711.726          46.000                                                                  
G21  21638109.520   113709065.342        -459.771          47.000                                                                  
> 2023 10 05 14 59 02.0040000  0 14                     
G08  22307299.310   117225656.409       -2705.982          43.000    22307300.929    87538650.342       -2020.446          44.000  
G09  24242581.895   127395608.168       -2922.010          35.000    24242596.595    95133124.255       -2181.252          34.000  
G04                                                                  24741109.839                       -2755.597          21.000  
G27  24708096.572   129841709.154       -3947.973          33.000    24708097.205    96959877.991       -2948.948          41.000  
E07                                                                  27500835.408   107919141.470       -2295.296          33.000  
E15  25275269.484   132822476.042         104.552          47.000    25275278.277    99185662.054          78.362          42.000  
E18  26595615.618   139760941.436        2532.126          46.000    26595625.444   104366996.660        1891.386          40.000  
E27  26111483.451   137216778.819          20.651          43.000    26111483.722                          15.660          25.000  
E34  27417762.674   144081334.513       -2420.295          39.000    27417771.969   107593240.338       -1807.398          40.000  
E30  26625671.013   139918844.870       -1247.631          41.000    26625677.802   104484882.148        -931.528          41.000  
J03  39201879.390   206007281.338       -1476.766          43.000    39201883.570   153836630.248       -1102.682          42.000  
G02  22233307.098   116836865.275         312.236          42.000                                                                  
G07  22869475.278   120179913.951        1710.854          46.000                                                                  
G21  21638197.045   113709525.621        -460.730          47.000                                                                  
> 2023 10 05 14 59 03.0040000  0 14                     
G08  22307813.830   117228362.144       -2705.852          43.000    22307815.798    87540670.869       -2020.879          44.000  
G09  24243137.655   127398529.783       -2921.669          35.000    24243152.652    95135306.010       -2182.459          34.000  
G04                                                                  24741807.480                       -2747.681          20.000  
G27  24708847.648   129845657.530       -3948.145          34.000    24708848.533    96962826.424       -2948.618          41.000  
E07                                                                  27501420.404   107921436.540       -2295.198          33.000  
E15  25275249.706   132822371.586         104.355          47.000    25275258.463    99185584.078          77.439          42.000  
E18  26595133.621   139758409.086        2532.577          46.000    26595143.278   104365105.638        1891.161          40.000  
E27  26111479.994   137216758.036          20.857          43.000    26111481.007                          16.071          26.000  
E34  27418223.385   144083755.035       -2420.490          39.000    27418232.600   107595047.871       -1807.901          40.000  
E30  26625908.172   139920092.198       -1247.061          41.000    26625915.229   104485813.601        -931.758          41.000  
J03  39202160.502   206008757.983       -1476.482          44.000    39202164.568   153837732.949       -1102.933          42.000  
G02  22233247.607   116836552.905         312.275          42.000                                                                  
G07  22869149.770   120178202.988        1710.925          46.000                                                                  
G21  21638284.811   113709986.559        -461.146          47.000                                                                  
> 2023 10 05 14 59 04.0040000  0 14                     
G08  22308328.898   117231068.045       -2706.320          43.000    22308330.710    87542691.503       -2020.979          44.000  
G09  24243693.694   127401451.545       -2922.138          34.000    24243708.598    95137487.788       -2182.092          34.000  
G04                                                                  24742506.300                       -2748.544          21.000  
G27  24709598.879   129849605.801       -3947.946          34.000    24709599.791    96965774.802       -2948.765          41.000  
E07                                                                  27502005.333   107923731.561       -2294.640          33.000  
E15  25275229.684   132822267.498         103.745          47.000    25275238.712    99185506.325          77.312          41.000  
E18  26594651.829   139755876.566        2532.483          46.000    26594661.389   104363214.445        1890.994          41.000  
E27  26111476.200   137216737.118          20.852          43.000    26111476.765                          15.297          25.000  
E34  27418683.985   144086175.863       -2421.077          39.000    27418693.349   107596855.619       -1808.005          40.000  
E30  26626145.162   139921339.492       -1247.312          41.000    26626152.611   104486745.005        -931.583          41.000  
J03  39202441.466   206010234.592       -1476.697          43.000    39202445.553   153838835.599       -1102.915          42.000  
G02  22233188.196   116836241.093         311.398          42.000                                                                  
G07  22868824.483   120176492.311        1710.222          46.000                                                                  
G21  21638372.359   113710448.120        -462.013          47.000                                                                  
> 2023 10 05 14 59 05.0040000  0 14                     
G08  22308844.061   117233774.275       -2706.239          43.000    22308845.690    87544712.397       -2020.635          44.000  
G09  24244249.649   127404373.627       -2922.096          35.000    24244264.763    95139669.872       -2182.421          34.000  
G04                                                                  24743205.301                       -2754.460          22.000  
G27  24710350.231   129853554.169       -3948.574          34.000    24710351.183    96968723.222       -2948.038          41.000  
E07                                                                  27502590.213   107926026.716       -2294.448          33.000  
E15  25275210.588   132822163.945         103.384          47.000    25275219.050    99185428.997          77.488          42.000  
E18  26594170.111   139753344.017        2532.565          46.000    26594179.618   104361323.269        1891.415          40.000  
E27  26111472.429   137216716.248          20.931          43.000    26111472.117                          15.457          25.000  
E34  27419145.162   144088597.165       -2421.427          39.000    27419153.970   107598663.734       -1807.962          40.000  
E30  26626382.598   139922586.907       -1247.297          41.000    26626389.962   104487676.498        -931.049          41.000  
J03  39202722.310   206011711.334       -1476.736          43.000    39202726.537   153839938.366       -1102.632          42.000  
G02  22233128.980   116835929.953         310.812          42.000                                                                  
G07  22868498.741   120174782.059        1710.112          46.000                                                                  
G21  21638460.314   113710910.465        -462.512          47.000                                                                  
> 2023 10 05 14 59 06.0040000  0 14                     
G08  22309358.698   117236480.630       -2706.277          43.000    22309360.716    87546733.395       -2021.042          44.000  
G09  24244805.465   127407295.794       -2921.781          34.000    24244820.875    95141852.001       -2182.131          34.000  
G04                                                                  24743905.756                       -2747.842          23.000  
G27  24711101.266   129857502.361       -3948.106          34.000    24711102.470    96971671.554       -2947.853          41.000  
E07                                                                  27503174.957   107928321.792       -2294.484          33.000  
E15  25275190.670   132822060.697         103.179          47.000    25275199.281    99185351.919          77.163          41.000  
E18  26593688.137   139750811.224        2532.882          46.000    26593697.712   104359431.922        1891.593          41.000  
E27  26111468.620   137216695.175          21.299          43.000    26111468.983                          15.438          25.000  
E34  27419606.031   144091018.721       -2421.631          39.000    27419614.864   107600472.035       -1808.027          40.000  
E30  26626619.916   139923834.204       -1247.028          41.000    26626627.297   104488607.955        -931.452          41.000  
J03  39203003.332   206013187.994       -1476.393          43.000    39203007.573   153841041.084       -1102.592          42.000  
G02  22233070.018   116835619.265         310.528          42.000                                                                  
G07  22868173.262   120173072.040        1709.993          46.000                                                                  
G21  21638548.378   113711373.395        -463.173          47.000                                                                  
> 2023 10 05 14 59 07.0040000  0 14                     
G08  22309873.746   117239187.360       -2706.757          44.000    22309875.819    87548754.638       -2021.449          44.000  
G09  24245361.453   127410218.284       -2922.290          35.000    24245376.910    95144034.374       -2182.752          34.000  
G04  24744933.840                       -3801.828          23.000    24744605.515                       -2749.346          22.000  
G27  24711852.678   129861450.610       -3948.074          34.000    24711853.745    96974619.940       -2948.378          41.000  
E07                                                                  27503759.681   107930617.033       -2296.090          33.000  
E15  25275171.289   132821958.021         102.615          47.000    25275179.677    99185275.240          76.354          42.000  
E18  26593206.128   139748278.441        2532.896          46.000    26593215.780   104357540.554        1891.336          41.000  
E27  26111464.411   137216674.185          21.232          43.000    26111465.311                          15.289          25.000  
E34  27420066.736   144093440.761       -2422.159          39.000    27420075.608   107602280.708       -1808.648          40.000  
E30  26626857.210   139925081.668       -1247.324          41.000    26626864.713   104489539.485        -931.523          41.000  
J03  39203284.314   206014664.837       -1477.065          43.000    39203288.555   153842143.895       -1102.690          42.000  
G02  22233011.251   116835309.290         309.877          42.000                                                                  
G07  22867847.811   120171362.483        1709.477          46.000                                                                  
G21  21638637.016   113711837.128        -463.917          47.000                                                                  
> 2023 10 05 14 59 08.0040000  0 14                     
G08  22310388.861   117241894.503       -2707.719          44.000    22310390.949    87550776.205       -2021.999          44.000  
G09  24245917.593   127413141.199       -2923.833          35.000    24245933.157    95146217.028       -2183.148          34.000  
G04                                                                  24745306.810                       -2744.135          23.000  
G27  24712604.160   129865399.090       -3949.349          34.000    24712605.197    96977568.452       -2948.913          41.000  
E07                                                                  27504344.630   107932912.342       -2295.751          33.000  
E15  25275151.909   132821855.973         101.600          47.000    25275160.233    99185199.025          75.836          42.000  
E18  26592724.243   139745745.735        2532.544          46.000    26592733.931   104355649.252        1890.699          41.000  
E27  26111460.124   137216653.330          20.626          43.000    26111460.577                          15.495          25.000  
E34  27420527.435   144095863.395       -2423.115          39.000    27420536.690   107604089.814       -1809.626          40.000  
E30  26627094.490   139926329.355       -1248.041          41.000    26627102.099   104490471.195        -932.185          41.000  
J03  39203565.204   206016141.886       -1477.421          43.000    39203569.591   153843246.894       -1103.183          42.000  
G02  22232952.339   116835000.090         308.573          42.000                                                                  
G07  22867522.638   120169653.467        1708.447          46.000                                                                  
G21  21638725.377   113712301.769        -465.472          47.000                                                                  
> 2023 10 05 14 59 09.0040000  0 14                     
G08  22310903.775   117244601.895       -2707.413          44.000    22310906.045    87552797.982       -2021.932          44.000  
G09  24246473.742   127416064.308       -2923.204          35.000    24246489.381    95148399.900       -2183.290          34.000  
G04                                                                  24746007.172                       -2749.123          23.000  
G27  24713355.651   129869347.512       -3948.336          34.000    24713356.570    96980516.964       -2948.144          41.000  
E07                                                                  27504929.582   107935207.768       -2295.855          33.000  
E15  25275132.517   132821754.390         101.467          47.000    25275140.892    99185123.186          75.939          41.000  
E18  26592242.512   139743212.942        2533.051          46.000    26592251.976   104353757.907        1891.439          41.000  
E27  26111456.545   137216632.438          21.094          43.000    26111456.036                          16.411          25.000  
E34  27420988.756   144098286.413       -2422.820          39.000    27420997.707   107605899.226       -1809.647          40.000  
E30  26627332.146   139927577.066       -1247.475          41.000    26627339.551   104491402.935        -931.529          41.000  
J03  39203846.229   206017618.996       -1476.773          43.000    39203850.660   153844349.961       -1102.881          42.000  
G02  22232893.766   116834691.482         308.505          42.000                                                                  
G07  22867197.612   120167944.817        1708.665          46.000                                                                  
G21  21638813.791   113712767.117        -465.541          47.000                                                                  
> 2023 10 05 14 59 10.0040000  0 14                     
G08  22311418.939   117247309.380       -2707.504          44.000    22311421.245    87554819.800       -2021.854          44.000  
G09  24247030.005   127418987.503       -2923.445          35.000    24247045.756    95150582.807       -2183.153          34.000  
G04                                                                  24746707.859                       -2747.143          23.000  
G27  24714106.995   129873295.802       -3948.330          35.000    24714107.786    96983465.367       -2948.283          41.000  
E07                                                                  27505514.450   107937503.049       -2295.235          33.000  
E15  25275113.320   132821653.114         100.969          47.000    25275121.849    99185047.581          75.425          41.000  
E18  26591760.777   139740679.903        2533.120          47.000    26591769.952   104351866.340        1891.961          41.000  
E27  26111452.196   137216611.338          21.248          43.000    26111451.696                          14.664          25.000  
E34  27421450.702   144100709.679       -2423.457          39.000    27421459.084   107607708.811       -1809.628          40.000  
E30  26627569.134   139928824.682       -1247.658          41.000    26627576.754   104492334.618        -931.747          41.000  
J03  39204127.287   206019096.040       -1477.183          43.000    39204131.815   153845452.921       -1102.723          42.000  
G02  22232835.070   116834383.330         307.964          42.000                                                                  
G07  22866872.548   120166236.384        1708.271          46.000                                                                  
G21  21638902.395   113713233.026        -466.279          47.000                                                                  
> 2023 10 05 14 59 11.0040000  0 14                     
G08  22311934.499   117250017.250       -2708.406          44.000    22311936.330    87556841.879       -2022.042          43.000  
G09  24247586.541   127421911.011       -2923.460          35.000    24247602.219    95152765.926       -2183.680          34.000  
G04                                                                  24747408.878                       -2745.351          23.000  
G27  24714858.653   129877244.136       -3948.527          34.000    24714859.340    96986413.820       -2948.715          41.000  
E07                                                                  27506099.231   107939798.452       -2295.568          33.000  
E15  25275094.509   132821552.391         100.392          47.000    25275102.619    99184972.350          74.962          41.000  
E18  26591278.046   139738146.851        2533.242          46.000    26591287.811   104349974.762        1891.705          39.000  
E27  26111447.836   137216590.318          21.014          43.000    26111449.108                          15.680          25.000  
E34  27421911.804   144103133.464       -2424.278          39.000    27421920.277   107609518.750       -1809.964          40.000  
E30  26627806.757   139930072.450       -1247.862          41.000    26627814.343   104493266.368        -932.003          42.000  
J03  39204408.425   206020573.227       -1477.291          43.000    39204412.900   153846556.012       -1103.284          42.000  
G02  22232776.640   116834075.871         307.136          42.000                                                                  
G07  22866547.761   120164528.417        1707.774          46.000                                                                  
G21  21638991.191   113713699.757        -467.196          47.000                                                                  
> 2023 10 05 14 59 12.0040000  0 14                     
G08  22312450.090   117252725.501       -2708.407          44.000    22312451.705    87558864.274       -2022.650          44.000  
G09  24248143.261   127424834.923       -2924.664          35.000    24248158.562    95154949.326       -2183.303          33.000  
G04                                                                  24748109.193                       -2748.015          24.000  
G27  24715610.072   129881192.706       -3948.347          34.000    24715610.588    96989362.382       -2948.823          41.000  
E07                                                                  27506684.258   107942094.017       -2295.422          33.000  
E15  25275075.257   132821452.278          99.982          47.000    25275083.187    99184897.610          74.478          41.000  
E18  26590796.666   139735613.866        2533.043          46.000    26590805.937   104348083.233        1891.358          40.000  
E27  26111443.567   137216569.403          21.169          43.000    26111447.454                          13.778          23.000  
E34  27422372.879   144105557.721       -2424.474          39.000    27422381.402   107611329.096       -1810.379          41.000  
E30  26628044.289   139931320.400       -1247.923          41.000    26628051.901   104494198.275        -931.918          41.000  
J03  39204689.504   206022050.600       -1477.215          44.000    39204693.938   153847659.247       -1103.140          41.000  
G02  22232718.203   116833769.157         306.456          42.000                                                                  
G07  22866222.936   120162820.936        1707.379          46.000                                                                  
G21  21639080.271   113714167.344        -467.830          47.000                                                                  
> 2023 10 05 14 59 13.0040000  0 14                     
G08  22312965.554   117255433.763       -2708.467          44.000    22312966.993    87560886.707       -2022.604          44.000  
G09  24248699.779   127427758.774       -2924.476          36.000    24248715.053    95157132.727       -2183.178          33.000  
G04                                                                  24748809.799                       -2748.111          25.000  
G27  24716361.303   129885140.959       -3948.462          34.000    24716361.953    96992310.764       -2948.477          41.000  
E07                                                                  27507269.334   107944389.475       -2295.575          32.000  
E15  25275056.189   132821352.360          99.486          47.000    25275064.077    99184823.004          74.358          41.000  
E18  26590314.708   139733080.533        2533.229          47.000    26590323.863   104346191.497        1891.480          40.000  
E27  26111439.507   137216548.196          21.062          43.000    26111444.595                          20.017          22.000  
E34  27422834.148   144107982.157       -2424.864          39.000    27422842.814   107613139.590       -1810.753          41.000  
E30  26628281.657   139932568.145       -1247.866          41.000    26628289.287   104495130.044        -931.782          41.000  
J03  39204970.700   206023527.814       -1477.231          44.000    39204975.023   153848762.373       -1103.240          42.000  
G02  22232659.954   116833462.804         305.778          42.000                                                                  
G07  22865898.271   120161113.597        1706.956          46.000                                                                  
G21  21639169.437   113714635.398        -468.626          47.000                                                                  
> 2023 10 05 14 59 14.0040000  0 14                     
G08  22313480.920   117258142.423       -2709.124          44.000    22313482.632    87562909.423       -2023.258          44.000  
G09  24249256.444   127430683.023       -2924.721          35.000    24249271.338    95159316.421       -2184.189          33.000  
G04  24748846.425                       -3804.883          27.000    24749510.499                       -2744.607          24.000  
G27  24717112.745   129889089.354       -3948.175          34.000    24717113.346    96995259.238       -2948.756          41.000  
E07                                                                  27507854.409   107946684.987       -2295.302          33.000  
E15  25275037.699   132821253.042          98.777          47.000    25275045.364    99184748.843          73.916          41.000  
E18  26589832.561   139730547.236        2533.043          46.000    26589841.675   104344299.742        1891.875          41.000  
E27  26111435.595   137216527.080          20.900          44.000    26111437.252                          17.292          22.000  
E34  27423295.942   144110407.138       -2425.736          39.000    27423304.421   107614950.447       -1811.232          41.000  
E30  26628519.280   139933816.081       -1248.269          40.000    26628526.666   104496061.918        -931.890          41.000  
J03  39205251.666   206025005.202       -1477.618          44.000    39205256.102   153849865.626       -1103.496          42.000  
G02  22232601.780   116833157.172         304.917          42.000                                                                  
G07  22865573.457   120159406.740        1706.296          46.000                                                                  
G21  21639258.618   113715104.284        -469.576          47.000                                                                  
> 2023 10 05 14 59 15.0040000  0 14                     
G08  22313996.376   117260851.384       -2709.310          44.000    22313998.075    87564932.323       -2023.030          44.000  
G09  24249813.170   127433607.546       -2924.705          35.000    24249827.778    95161500.273       -2183.745          34.000  
G04                                                                  24750210.650                       -2750.671          24.000  
G27  24717864.162   129893037.709       -3948.226          34.000    24717864.662    96998207.696       -2948.142          41.000  
E07                                                                  27508439.238   107948980.598       -2295.886          33.000  
E15  25275018.799   132821154.211          98.838          47.000    25275026.439    99184675.028          73.758          41.000  
E18  26589350.602   139728013.896        2533.378          47.000    26589359.557   104342407.948        1891.978          40.000  
E27  26111431.501   137216505.957          21.364          45.000    26111432.793                          16.151          25.000  
E34  27423757.804   144112832.540       -2425.550          38.000    27423766.012   107616761.617       -1811.035          41.000  
E30  26628756.468   139935064.078       -1247.830          39.000    26628764.175   104496993.853        -931.736          41.000  
J03  39205532.917   206026482.688       -1477.408          44.000    39205537.274   153850968.930       -1103.205          41.000  
G02  22232543.813   116832852.176         304.701          41.000                                                                  
G07  22865248.705   120157700.281        1706.384          47.000                                                                  
G21  21639347.944   113715573.937        -469.794          47.000                                                                  
> 2023 10 05 14 59 16.0040000  0 14                     
G08  22314512.019   117263560.389       -2709.390          44.000    22314513.491    87566955.292       -2023.546          44.000  
G09  24250369.823   127436532.027       -2924.729          36.000    24250384.214    95163684.195       -2184.621          34.000  
G04                                                                  24750911.823                       -2753.208          24.000  
G27  24718615.649   129896985.926       -3948.239          34.000    24718615.936    97001156.019       -2948.451          41.000  
E07                                                                  27509024.208   107951276.068       -2295.936          33.000  
E15  25274999.928   132821055.656          97.969          47.000    25275007.950    99184601.424          73.306          41.000  
E18  26588868.433   139725480.218        2533.418          46.000    26588877.414   104340515.917        1891.974          40.000  
E27  26111427.486   137216484.602          20.969          44.000    26111428.000                          14.094          25.000  
E34  27424219.675   144115258.179       -2426.364          38.000    27424227.573   107618572.957       -1811.800          41.000  
E30  26628993.944   139936311.922       -1248.476          40.000    26629001.525   104497925.689        -932.005          41.000  
J03  39205814.007   206027960.052       -1477.733          44.000    39205818.487   153852072.134       -1103.419          42.000  
G02  22232485.870   116832547.593         304.196          42.000                                                                  
G07  22864923.962   120155994.018        1705.596          46.000                                                                  
G21  21639437.419   113716044.123        -470.968          47.000                                                                  
> 2023 10 05 14 59 17.0040000  0 14                     
G08  22315027.505   117266269.993       -2709.324          44.000    22315029.191    87568978.699       -2023.276          44.000  
G09  24250926.655   127439457.102       -2924.833          37.000    24250940.793    95165868.488       -2184.424          33.000  
G04                                                                  24751613.046                       -2746.676          25.000  
G27  24719367.210   129900934.467       -3947.981          34.000    24719367.567    97004104.600       -2948.130          41.000  
E07                                                                  27509609.167   107953571.874       -2295.559          33.000  
E15  25274981.182   132820957.875          97.966          47.000    25274989.147    99184528.437          73.151          41.000  
E18  26588386.604   139722946.799        2533.796          46.000    26588395.336   104338624.112        1891.939          40.000  
E27  26111423.162   137216463.557          21.148          44.000    26111424.854                          11.069          23.000  
E34  27424682.093   144117684.531       -2426.491          38.000    27424689.256   107620384.842       -1811.468          41.000  
E30  26629232.488   139937560.131       -1248.011          40.000    26629239.105   104498857.834        -932.173          41.000  
J03  39206095.131   206029437.789       -1477.247          44.000    39206099.678   153853175.679       -1103.540          42.000  
G02  22232428.098   116832243.936         303.574          42.000                                                                  
G07  22864599.326   120154288.427        1705.640          46.000                                                                  
G21  21639527.119   113716515.344        -471.406          47.000                                                                  
> 2023 10 05 14 59 18.0040000  0 14                     
G08  22315543.208   117268979.777       -2710.155          44.000    22315544.780    87571002.230       -2023.543          44.000  
G09  24251483.655   127442382.290       -2925.030          37.000    24251497.540    95168052.900       -2184.696          33.000  
G04                                                                  24752313.707                       -2742.780          25.000  
G27  24720118.872   129904882.896       -3948.677          34.000    24720118.884    97007053.078       -2948.232          41.000  
E07                                                                  27510194.192   107955867.604       -2295.653          32.000  
E15  25274962.722   132820860.452          97.200          47.000    25274970.676    99184455.708          72.641          41.000  
E18  26587904.704   139720413.187        2533.499          46.000    26587913.298   104336732.118        1892.070          40.000  
E27  26111418.984   137216442.329          21.354          43.000    26111421.370                           9.496          21.000  
E34  27425144.105   144120111.140       -2426.791          38.000    27425150.967   107622196.945       -1812.192          41.000  
E30  26629469.935   139938808.284       -1248.189          40.000    26629476.749   104499789.887        -931.976          41.000  
J03  39206376.352   206030915.493       -1478.144          44.000    39206380.904   153854279.151       -1103.562          42.000  
G02  22232370.344   116831940.772         302.817          42.000                                                                  
G07  22864274.844   120152583.093        1705.129          46.000                                                                  
G21  21639616.780   113716987.163        -472.050          47.000                                                                  
> 2023 10 05 14 59 19.0040000  0 14                     
G08  22316058.900   117271689.630       -2709.929          44.000    22316060.395    87573025.819       -2023.682          44.000  
G09  24252040.758   127445307.573       -2925.406          36.000    24252054.114    95170237.312       -2184.681          33.000  
G04  24753239.914                       -3801.234          25.000    24753013.359                       -2748.553          25.000  
G27  24720870.215   129908831.080       -3948.345          35.000    24720870.133    97010001.432       -2948.373          41.000  
E07                                                                  27510779.221   107958163.229       -2295.175          32.000  
E15  25274944.310   132820763.345          97.118          48.000    25274952.010    99184383.160          72.725          41.000  
E18  26587422.705   139717879.308        2534.059          47.000    26587431.158   104334839.926        1892.321          40.000  
E27  26111415.132   137216420.926          21.477          43.000    26111418.660                          17.634          21.000  
E34  27425606.729   144122538.041       -2426.869          38.000    27425612.735   107624009.188       -1812.395          41.000  
E30  26629707.389   139940056.295       -1247.851          40.000    26629714.211   104500721.863        -931.871          41.000  
J03  39206657.564   206032393.059       -1477.552          44.000    39206661.884   153855382.539       -1103.308          42.000  
G02  22232312.613   116831638.074         302.436          42.000                                                                  
G07  22863950.435   120150877.957        1705.061          46.000                                                                  
G21  21639706.809   113717459.559        -472.769          47.000                                                                  
> 2023 10 05 14 59 20.0040000  0 14                     
G08  22316574.744   117274399.598       -2709.796          44.000    22316576.080    87575049.502       -2023.651          44.000  
G09  24252597.732   127448232.903       -2924.840          36.000    24252610.678    95172421.801       -2184.900          33.000  
G04                                                                  24753714.553                       -2745.744          25.000  
G27  24721621.853   129912779.148       -3947.301          34.000    24721621.244    97012949.676       -2948.258          41.000  
E07                                                                  27511363.990   107960458.798       -2295.431          33.000  
E15  25274926.007   132820666.541          96.772          48.000    25274933.693    99184310.878          72.208          42.000  
E18  26586940.151   139715345.193        2534.442          47.000    26586948.896   104332947.579        1892.452          41.000  
E27  26111410.945   137216399.326          21.906          43.000    26111413.357                          16.879          22.000  
E34  27426069.272   144124965.150       -2426.990          39.000    27426074.594   107625821.631       -1812.443          40.000  
E30  26629944.259   139941304.253       -1247.859          40.000    26629951.601   104501653.764        -931.845          41.000  
J03  39206938.788   206033870.573       -1477.268          44.000    39206943.234   153856485.861       -1102.975          42.000  
G02  22232254.987   116831335.809         302.411          42.000                                                                  
G07  22863625.927   120149173.071        1704.950          46.000                                                                  
G21  21639796.797   113717932.511        -472.911          47.000                                                                  
> 2023 10 05 14 59 21.0040000  0 14                     
G08  22317090.537   117277109.782       -2710.851          44.000    22317091.823    87577073.359       -2024.440          43.000  
G09  24253154.811   127451158.423       -2926.074          36.000    24253167.403    95174606.458       -2184.937          33.000  
G04                                                                  24754415.667                       -2750.538          25.000  
G27  24722373.309   129916727.178       -3948.413          34.000    24722372.483    97015897.862       -2948.267          41.000  
E07                                                                  27511949.042   107962754.373       -2295.802          33.000  
E15  25274907.620   132820570.122          95.772          48.000    25274915.413    99184238.883          71.738          42.000  
E18  26586457.937   139712810.926        2533.912          47.000    26586466.712   104331055.117        1892.147          41.000  
E27  26111406.746   137216377.648          21.158          43.000    26111407.390                          12.668          22.000  
E34  27426531.372   144127392.617       -2428.172          39.000    27426536.572   107627634.354       -1813.137          40.000  
E30  26630181.910   139942552.161       -1248.381          40.000    26630188.949   104502585.662        -932.092          41.000  
J03  39207219.803   206035348.079       -1477.951          44.000    39207224.338   153857589.209       -1103.441          41.000  
G02  22232197.220   116831034.099         300.925          42.000                                                                  
G07  22863301.455   120147468.487        1703.937          46.000                                                                  
G21  21639886.978   113718406.126        -474.399          47.000                                                                  
> 2023 10 05 14 59 22.0040000  0 14                     
G08  22317606.367   117279820.443       -2710.878          44.000    22317607.571    87579097.545       -2024.092          43.000  
G09  24253711.941   127454084.366       -2925.748          36.000    24253724.044    95176791.414       -2184.769          33.000  
G04                                                                  24755116.213                       -2749.897          25.000  
G27  24723124.849   129920675.376       -3947.717          35.000    24723123.867    97018846.221       -2948.165          41.000  
E07                                                                  27512533.908   107965050.127       -2295.789          33.000  
E15  25274889.576   132820474.375          95.543          48.000    25274897.291    99184167.405          71.363          42.000  
E18  26585976.031   139710276.761        2534.206          47.000    26585984.549   104329162.730        1892.549          41.000  
E27  26111402.548   137216356.130          21.438          43.000    26111403.442                          17.977          23.000  
E34  27426993.710   144129820.678       -2428.453          39.000    27426998.393   107629447.521       -1813.392          40.000  
E30  26630419.252   139943800.339       -1248.218          40.000    26630426.556   104503517.749        -931.940          41.000  
J03  39207501.017   206036825.854       -1477.986          44.000    39207505.460   153858692.752       -1103.340          41.000  
G02  22232139.987   116830733.188         300.549          42.000                                                                  
G07  22862977.251   120145764.467        1703.945          46.000                                                                  
G21  21639977.360   113718880.661        -474.785          47.000                                                                  
> 2023 10 05 14 59 23.0040000  0 14                     
G08  22318122.403   117282531.374       -2710.947          44.000    22318123.465    87581121.940       -2024.469          43.000  
G09  24254269.006   127457010.572       -2926.086          36.000    24254280.800    95178976.542       -2185.583          33.000  
G04  24755512.781                       -3802.062          23.000    24755817.697                       -2749.643          25.000  
G27  24723876.458   129924623.626       -3948.476          35.000    24723875.130    97021794.558       -2948.613          41.000  
E07                                                                  27513118.824   107967345.922       -2296.359          33.000  
E15  25274871.360   132820379.111          95.070          48.000    25274879.213    99184096.257          70.949          42.000  
E18  26585493.805   139707742.520        2534.438          47.000    26585502.248   104327270.282        1892.445          41.000  
E27  26111398.801   137216334.582          21.620          43.000    26111398.329                          16.530          22.000  
E34  27427456.088   144132249.153       -2428.823          39.000    27427460.557   107631260.986       -1813.782          40.000  
E30  26630656.543   139945048.576       -1248.263          40.000    26630664.078   104504449.876        -932.350          41.000  
J03  39207782.132   206038303.690       -1477.785          44.000    39207786.882   153859796.339       -1103.710          42.000  
G02  22232082.790   116830432.904         300.060          42.000                                                                  
G07  22862653.046   120144060.840        1703.485          46.000                                                                  
G21  21640067.928   113719355.932        -475.710          47.000                                                                  
> 2023 10 05 14 59 24.0040000  0 14                     
G08  22318638.443   117285242.658       -2711.247          43.000    22318639.640    87583146.593       -2024.695          44.000  
G09  24254826.105   127459937.087       -2926.605          36.000    24254837.773    95181161.920       -2185.457          33.000  
G04                                                                  24756519.377                       -2748.126          25.000  
G27  24724627.817   129928571.940       -3947.792          35.000    24724626.441    97024742.929       -2948.120          41.000  
E07                                                                  27513703.938   107969641.781       -2295.479          33.000  
E15  25274852.939   132820284.366          94.669          47.000    25274860.993    99184025.505          70.506          41.000  
E18  26585011.625   139705208.261        2534.456          47.000    26585020.004   104325377.817        1892.438          41.000  
E27  26111394.754   137216313.097          21.485          43.000    26111393.238                          23.913          21.000  
E34  27427918.670   144134678.022       -2428.862          39.000    27427922.662   107633074.820       -1814.081          41.000  
E30  26630894.510   139946296.950       -1248.221          41.000    26630901.617   104505382.070        -932.422          41.000  
J03  39208063.675   206039781.681       -1477.829          44.000    39208068.095   153860900.011       -1103.700          41.000  
G02  22232025.881   116830133.284         299.358          42.000                                                                  
G07  22862328.973   120142357.652        1703.086          46.000                                                                  
G21  21640158.688   113719831.992        -476.221          47.000                                                                  
> 2023 10 05 14 59 25.0040000  0 14                     
G08  22319154.147   117287954.019       -2711.670          43.000    22319155.570    87585171.303       -2024.851          44.000  
G09  24255383.221   127462863.619       -2926.504          35.000    24255394.888    95183347.336       -2185.442          33.000  
G04                                                                  24757218.964                       -2749.399          25.000  
G27  24725378.915   129932520.029       -3948.024          34.000    24725377.904    97027691.217       -2948.427          41.000  
E07                                                                  27514288.924   107971937.599       -2295.708          33.000  
E15  25274835.153   132820189.942          93.944          47.000    25274843.018    99183954.981          70.654          41.000  
E18  26584529.169   139702673.745        2534.248          47.000    26584537.693   104323485.173        1892.718          41.000  
E27  26111391.065   137216291.403          21.493          44.000    26111390.434                           9.032          18.000  
E34  27428381.095   144137107.204       -2429.549          39.000    27428384.990   107634888.812       -1814.224          41.000  
E30  26631131.765   139947545.201       -1248.646          40.000    26631139.168   104506314.207        -932.193          41.000  
J03  39208344.965   206041259.554       -1478.111          44.000    39208349.344   153862003.635       -1103.743          41.000  
G02  22231968.953   116829834.131         298.349          42.000                                                                  
G07  22862004.740   120140654.667        1702.568          46.000                                                                  
G21  21640249.388   113720308.608        -477.336          48.000                                                                  
> 2023 10 05 14 59 26.0040000  0 14                     
G08  22319670.045   117290665.651       -2711.843          42.000    22319671.565    87587196.225       -2024.752          44.000  
G09  24255940.460   127465790.451       -2927.015          35.000    24255951.862    95185532.913       -2185.549          33.000  
G04                                                                  24757919.427                       -2750.057          24.000  
G27  24726130.209   129936468.201       -3948.200          34.000    24726129.216    97030639.503       -2948.051          41.000  
E07                                                                  27514873.945   107974233.483       -2296.001          33.000  
E15  25274817.190   132820095.988          93.799          48.000    25274825.197    99183884.850          70.243          41.000  
E18  26584047.029   139700139.164        2534.654          47.000    26584055.409   104321592.474        1892.924          41.000  
E27  26111386.700   137216269.692          21.703          44.000    26111388.469                          21.797          16.000  
E34  27428843.547   144139536.804       -2429.687          39.000    27428847.296   107636703.138       -1814.417          40.000  
E30  26631369.075   139948793.496       -1248.201          40.000    26631376.557   104507246.391        -931.800          40.000  
J03  39208626.227   206042737.535       -1478.009          44.000    39208630.455   153863107.319       -1103.463          41.000  
G02  22231912.048   116829535.592         298.298          42.000                                                                  
G07  22861680.589   120138952.072        1702.460          46.000                                                                  
G21  21640340.110   113720785.971        -477.717          48.000                                                                  
> 2023 10 05 14 59 27.0040000  0 14                     
G08  22320186.055   117293377.581       -2712.606          43.000    22320187.583    87589221.388       -2026.022          44.000  
G09  24256497.660   127468717.518       -2927.201          35.000    24256508.898    95187718.751       -2186.431          33.000  
G04  24759407.458                       -3807.602          24.000    24758620.104                       -2753.004          24.000  
G27  24726881.246   129940416.362       -3948.240          33.000    24726880.349    97033587.825       -2948.945          41.000  
E07                                                                  27515458.850   107976529.405       -2296.357          33.000  
E15  25274799.292   132820002.548          92.920          48.000    25274807.242    99183815.086          69.057          41.000  
E18  26583564.780   139697604.536        2534.349          47.000    26583572.928   104319699.747        1892.380          41.000  
E27  26111382.671   137216247.977          21.545          44.000    26111384.497                          21.797          12.000  
E34  27429306.280   144141966.860       -2430.531          39.000    27429309.781   107638517.782       -1815.443          40.000  
E30  26631606.461   139950041.918       -1248.822          40.000    26631614.080   104508178.663        -932.793          41.000  
J03  39208907.308   206044215.603       -1478.376          44.000    39208911.693   153864211.089       -1104.257          41.000  
G02  22231855.092   116829237.699         297.357          42.000                                                                  
G07  22861356.609   120137249.905        1701.609          45.000                                                                  
G21  21640431.309   113721264.105        -478.953          48.000                                                                  
