     3.04           OBSERVATION DATA    M: Mixed            RINEX VERSION / TYPE
RTKCONV demo5 b34h                      20231006 031807 UTC PGM / RUN BY / DATE 
format: u-blox UBX                                          COMMENT             
log: C:\Users\guoha\Dropbox\1_IPNL_Research\2023_Uris_LouiseCOMMENT             
                                                            MARKER NAME         
                                                            MARKER NUMBER       
                                                            MARKER TYPE         
                                                            OBSERVER / AGENCY   
                                                            REC # / TYPE / VERS 
                                                            ANT # / TYPE        
 -2418123.0832  5385866.8153  2405629.2503                  APPROX POSITION XYZ 
        0.0000        0.0000        0.0000                  ANTENNA: DELTA H/E/N
G    4 C1C L1C D1C S1C                                      SYS / # / OBS TYPES 
C    4 C2I L2I D2I S2I                                      SYS / # / OBS TYPES 
  2023    10    05    13    46   52.0020000     GPS         TIME OF FIRST OBS   
  2023    10    05    13    50   55.0030000     GPS         TIME OF LAST OBS    
G L1C                                                       SYS / PHASE SHIFT   
C L2I                                                       SYS / PHASE SHIFT   
  0                                                         GLONASS SLOT / FRQ #
 C1C    0.000 C1P    0.000 C2C    0.000 C2P    0.000        GLONASS COD/PHS/BIS 
                                                            END OF HEADER       
> 2023 10 05 13 46 52.0020000  0 17                     
G08  20842962.119   109530491.9171       -161.109          43.000  
G27  21733771.095   114211726.4571      -2532.070          46.000  
G04  22077962.575   116020484.5721      -1986.799          40.000  
G09  22587468.204   118697940.4411       -378.413          39.000  
G21  22458641.414   118020991.5431       2607.305          42.000  
G16  23641095.390   124234721.4791      -1970.171          45.000  
G31  24851603.907   130595978.7101      -2803.620          36.000  
C03  37261130.580   194028446.8381       -132.627          40.000  
C10  37763545.610   196644658.8061       -399.056          40.000  
C27  23161105.440   120605919.6991      -1276.652          43.000  
C01  37873579.930   197217631.8701       -133.283          39.000  
C02  38052326.611   198148420.6021       -153.423          42.000  
C16  36573111.422   190445758.0221       -244.403          40.000  
C30  22862479.253   119050898.6341       1603.844          45.000  
C09  36618712.314   190683215.4171        323.102          36.000  
C07  37094107.950   193158717.7071       -462.745          39.000  
C06  36400616.753   189547527.2411       -114.539          43.000  
> 2023 10 05 13 46 53.0020000  0 17                     
G08  20842992.936   109530653.585        -162.343          43.000  
G27  21734253.559   114214259.178       -2533.085          46.000  
G04  22078340.774   116022471.987       -1987.781          39.000  
G09  22587540.396   118698319.423        -379.569          39.000  
G21  22458145.600   118018384.859        2606.285          42.000  
G16  23641470.360   124236692.143       -1970.865          45.000  
G31  24852137.831   130598783.055       -2804.589          36.000  
C03  37261155.953   194028579.945        -133.196          40.000  
C10  37763622.443   196645058.392        -399.657          40.000  
C27  23161350.773   120607197.029       -1277.810          43.000  
C01  37873605.774   197217765.453        -133.196          39.000  
C02  38052356.119   198148574.418        -153.774          42.000  
C16  36573158.643   190446002.690        -244.836          40.000  
C30  22862171.396   119049295.401        1602.796          45.000  
C09  36618650.086   190682892.519         322.372          36.000  
C07  37094196.562   193159180.623        -463.220          39.000  
C06  36400638.810   189547642.239        -115.198          43.000  
> 2023 10 05 13 46 54.0020000  0 17                     
G08  20843023.561   109530815.856        -161.999          43.000  
G27  21734735.813   114216792.344       -2532.862          46.000  
G04  22078719.007   116024459.964       -1987.527          39.000  
G09  22587612.675   118698699.033        -379.372          39.000  
G21  22457649.700   118015778.551        2606.707          42.000  
G16  23641845.767   124238662.824       -1970.068          45.000  
G31  24852671.302   130601587.689       -2804.077          36.000  
C03  37261181.674   194028713.102        -132.364          40.000  
C10  37763698.998   196645458.074        -399.208          40.000  
C27  23161596.192   120608474.902       -1277.749          43.000  
C01  37873631.426   197217899.156        -133.261          39.000  
C02  38052385.663   198148728.319        -153.450          42.000  
C16  36573205.601   190446247.596        -244.489          40.000  
C30  22861863.557   119047692.673        1603.080          45.000  
C09  36618588.051   190682569.775         323.205          36.000  
C07  37094285.227   193159643.622        -462.614          39.000  
C06  36400660.797   189547757.438        -114.648          43.000  
> 2023 10 05 13 46 55.0020000  0 17                     
G08  20843054.291   109530977.937        -162.230          43.000  
G27  21735218.242   114219325.141       -2533.130          46.000  
G04  22079097.049   116026447.650       -1987.917          39.000  
G09  22587684.866   118699078.469        -379.472          39.000  
G21  22457153.957   118013171.814        2606.321          42.000  
G16  23642220.754   124240632.725       -1969.805          45.000  
G31  24853204.807   130604391.822       -2804.525          36.000  
C03  37261207.291   194028845.531        -132.667          40.000  
C10  37763775.447   196645857.017        -399.075          40.000  
C27  23161841.473   120609752.508       -1277.906          43.000  
C01  37873656.798   197218032.053        -132.910          39.000  
C02  38052415.188   198148881.465        -153.220          42.000  
C16  36573252.263   190446491.871        -244.373          40.000  
C30  22861555.683   119046089.657        1602.597          45.000  
C09  36618525.893   190682246.408         323.436          36.000  
C07  37094374.223   193160105.873        -462.402          39.000  
C06  36400682.819   189547872.021        -114.752          43.000  
> 2023 10 05 13 46 56.0020000  0 17                     
G08  20843085.440   109531141.217        -164.217          43.000  
G27  21735700.688   114221858.930       -2534.436          46.000  
G04  22079475.230   116028436.414       -1989.344          39.000  
G09  22587757.320   118699459.146        -381.683          39.000  
G21  22456658.179   118010565.975        2605.493          43.000  
G16  23642595.952   124242603.217       -1970.906          45.000  
G31  24853738.540   130607196.788       -2805.688          36.000  
C03  37261232.472   194028978.526        -133.588          40.000  
C10  37763852.210   196646256.608        -400.442          40.000  
C27  23162086.858   120611031.217       -1279.430          43.000  
C01  37873682.258   197218165.551        -134.033          39.000  
C02  38052444.662   198149035.204        -154.323          42.000  
C16  36573299.361   190446736.927        -245.599          40.000  
C30  22861247.809   119044487.674        1601.351          45.000  
C09  36618464.172   190681923.759         322.399          36.000  
C07  37094462.887   193160568.742        -463.253          39.000  
C06  36400705.068   189547987.355        -115.704          43.000  
> 2023 10 05 13 46 57.0020000  0 17                     
G08  20843116.589   109531305.485        -164.424          43.000  
G27  21736183.117   114224393.539       -2534.667          47.000  
G04  22079853.987   116030426.071       -1989.586          40.000  
G09  22587830.000   118699840.813        -381.843          39.000  
G21  22456162.401   118007960.921        2605.066          42.000  
G16  23642970.730   124244574.097       -1970.729          45.000  
G31  24854272.377   130610002.432       -2805.739          36.000  
C03  37261258.002   194029111.938        -133.302          40.000  
C10  37763929.044   196646656.622        -400.107          40.000  
C27  23162332.400   120612310.857       -1279.746          43.000  
C01  37873707.997   197218299.470        -133.756          39.000  
C02  38052474.188   198149189.330        -154.004          42.000  
C16  36573346.704   190446982.549        -245.746          40.000  
C30  22860940.109   119042886.585        1600.887          45.000  
C09  36618402.241   190681601.674         322.173          36.000  
C07  37094551.814   193161032.079        -463.289          39.000  
C06  36400726.864   189548103.269        -115.894          43.000  
> 2023 10 05 13 46 58.0020000  0 17                     
G08  20843147.877   109531469.798        -164.815          43.000  
G27  21736665.510   114226927.982       -2534.683          47.000  
G04  22080232.639   116032415.672       -1990.100          39.000  
G09  22587902.924   118700222.505        -382.034          38.000  
G21  22455666.518   118005355.624        2605.202          42.000  
G16  23643345.491   124246544.392       -1970.275          45.000  
G31  24854806.318   130612807.791       -2805.661          36.000  
C03  37261283.933   194029244.809        -132.974          40.000  
C10  37764005.947   196647056.133        -399.688          40.000  
C27  23162578.256   120613590.444       -1279.849          43.000  
C01  37873733.719   197218432.818        -133.115          39.000  
C02  38052503.835   198149342.950        -153.803          42.000  
C16  36573393.627   190447227.790        -245.563          40.000  
C30  22860632.531   119041285.375        1601.199          45.000  
C09  36618340.258   190681279.147         322.767          36.000  
C07  37094640.496   193161494.845        -462.451          39.000  
C06  36400749.130   189548218.754        -115.546          43.000  
> 2023 10 05 13 46 59.0020000  0 17                     
G08  20843179.287   109531634.907        -166.039          43.000  
G27  21737148.131   114229463.037       -2535.736          47.000  
G04  22080611.501   116034405.939       -1990.771          40.000  
G09  22587975.918   118700605.045        -383.526          39.000  
G21  22455170.722   118002750.869        2604.117          42.000  
G16  23643720.601   124248514.885       -1970.784          45.000  
G31  24855339.964   130615613.579       -2806.397          36.000  
C03  37261309.550   194029377.865        -133.311          40.000  
C10  37764082.798   196647455.894        -400.195          40.000  
C27  23162824.217   120614870.728       -1280.851          43.000  
C01  37873759.528   197218566.402        -134.209          39.000  
C02  38052533.396   198149496.771        -154.433          42.000  
C16  36573440.743   190447473.395        -246.130          40.000  
C30  22860325.355   119039684.849        1599.928          45.000  
C09  36618278.414   190680956.950         321.915          36.000  
C07  37094729.544   193161957.889        -463.456          39.000  
C06  36400771.414   189548334.621        -116.351          43.000  
> 2023 10 05 13 47 00.0020000  0 17                     
G08  20843210.959   109531800.921        -166.585          43.000  
G27  21737630.822   114231998.810       -2536.220          47.000  
G04  22080990.537   116036397.013       -1991.409          39.000  
G09  22588048.773   118700988.489        -384.173          39.000  
G21  22454675.223   118000146.771        2603.627          42.000  
G16  23644095.658   124250485.684       -1970.952          45.000  
G31  24855873.766   130618419.920       -2806.368          36.000  
C03  37261334.870   194029511.266        -133.692          40.000  
C10  37764159.387   196647856.007        -400.522          40.000  
C27  23163070.369   120616151.861       -1281.666          42.000  
C01  37873785.319   197218700.266        -133.784          39.000  
C02  38052563.219   198149650.890        -154.280          42.000  
C16  36573488.190   190447719.485        -246.594          40.000  
C30  22860018.162   119038085.097        1599.450          45.000  
C09  36618216.797   190680635.228         321.125          36.000  
C07  37094818.523   193162421.248        -463.558          39.000  
C06  36400793.698   189548450.948        -116.577          43.000  
> 2023 10 05 13 47 01.0020000  0 17                     
G08  20843242.649   109531967.495        -166.420          43.000  
G27  21738113.250   114234534.936       -2536.004          47.000  
G04  22081369.434   116038388.534       -1991.479          39.000  
G09  22588121.924   118701372.452        -383.807          39.000  
G21  22454179.655   117997542.962        2604.156          42.000  
G16  23644470.541   124252456.417       -1970.295          45.000  
G31  24856407.795   130621226.509       -2805.898          36.000  
C03  37261360.574   194029644.597        -132.650          40.000  
C10  37764236.133   196648256.096        -399.416          40.000  
C27  23163316.766   120617433.443       -1281.365          42.000  
C01  37873810.796   197218834.100        -132.934          39.000  
C02  38052592.675   198149804.958        -153.407          42.000  
C16  36573535.655   190447965.699        -246.045          40.000  
C30  22859711.003   119036485.767        1599.593          45.000  
C09  36618155.198   190680313.524         322.586          36.000  
C07  37094907.327   193162884.589        -462.637          38.000  
C06  36400816.418   189548567.405        -116.205          43.000  
> 2023 10 05 13 47 02.0020000  0 17                     
G08  20843274.461   109532134.072        -167.031          43.000  
G27  21738595.592   114237070.879       -2536.324          46.000  
G04  22081748.505   116040379.946       -1991.779          40.000  
G09  22588195.076   118701756.462        -384.409          39.000  
G21  22453683.964   117994938.908        2603.822          42.000  
G16  23644845.267   124254426.552       -1970.328          45.000  
G31  24856941.614   130624032.758       -2806.251          36.000  
C03  37261386.051   194029777.381        -132.560          40.000  
C10  37764312.949   196648655.696        -399.707          40.000  
C27  23163562.832   120618714.952       -1282.074          42.000  
C01  37873836.483   197218967.420        -133.610          39.000  
C02  38052621.956   198149958.506        -153.613          42.000  
C16  36573582.805   190448211.487        -245.966          40.000  
C30  22859403.687   119034886.310        1599.201          45.000  
C09  36618093.302   190679991.434         321.757          36.000  
C07  37094996.184   193163347.392        -462.684          38.000  
C06  36400838.475   189548683.422        -116.119          43.000  
> 2023 10 05 13 47 03.0020000  0 17                     
G08  20843306.395   109532302.052        -168.348          43.000  
G27  21739078.265   114239608.025       -2537.750          46.000  
G04  22082127.593   116042372.682       -1993.318          40.000  
G09  22588268.367   118702141.876        -386.269          38.000  
G21  22453188.535   117992335.969        2602.513          42.000  
G16  23645220.429   124256397.461       -1971.231          45.000  
G31  24857476.010   130626840.112       -2808.852          34.000  
C03  37261411.441   194029910.979        -134.085          40.000  
C10  37764389.991   196649056.098        -400.936          41.000  
C27  23163809.124   120619997.725       -1283.627          43.000  
C01  37873862.274   197219101.460        -134.428          39.000  
C02  38052651.447   198150112.820        -154.487          42.000  
C16  36573630.427   190448458.284        -247.339          41.000  
C30  22859096.895   119033288.087        1597.747          45.000  
C09  36618031.354   190679670.238         320.542          37.000  
C07  37095085.284   193163811.065        -464.397          38.000  
C06  36400861.161   189548800.402        -117.407          43.000  
> 2023 10 05 13 47 04.0020000  0 17                     
G08  20843338.538   109532471.043        -169.040          43.000  
G27  21739560.851   114242145.968       -2537.754          46.000  
G04  22082506.926   116044366.266       -1993.635          40.000  
G09  22588341.832   118702528.292        -386.295          37.000  
G21  22452693.524   117989733.835        2602.254          43.000  
G16  23645595.592   124258368.781       -1971.069          45.000  
G31  24858010.074   130629648.101       -2807.794          34.000  
C03  37261437.547   194030044.979        -133.845          40.000  
C10  37764467.121   196649456.947        -400.543          42.000  
C27  23164055.556   120621281.479       -1283.649          43.000  
C01  37873887.856   197219235.956        -133.996          39.000  
C02  38052681.042   198150267.567        -154.146          40.000  
C16  36573678.240   190448705.586        -247.107          42.000  
C30  22858789.719   119031690.798        1597.214          44.000  
C09  36617969.755   190679349.634         320.377          36.000  
C07  37095174.246   193164275.110        -463.586          38.000  
C06  36400883.619   189548917.928        -117.297          44.000  
> 2023 10 05 13 47 05.0020000  0 17                     
G08  20843370.629   109532639.870        -169.054          43.000  
G27  21740043.349   114244683.581       -2537.767          46.000  
G04  22082886.416   116046359.607       -1993.708          41.000  
G09  22588415.036   118702914.603        -387.071          37.000  
G21  22452198.601   117987131.256        2602.633          43.000  
G16  23645970.300   124260339.332       -1970.385          44.000  
G31  24858544.556   130632455.572       -2807.331          34.000  
C03  37261463.321   194030178.224        -133.250          41.000  
C10  37764544.269   196649857.097        -400.135          42.000  
C27  23164301.709   120622564.996       -1283.797          44.000  
C01  37873913.473   197219369.714        -133.921          39.000  
C02  38052710.638   198150421.558        -153.833          40.000  
C16  36573725.687   190448952.347        -246.722          42.000  
C30  22858482.944   119030093.202        1597.359          44.000  
C09  36617907.981   190679028.335         321.286          37.000  
C07  37095263.224   193164738.484        -463.016          38.000  
C06  36400905.990   189549034.888        -117.059          44.000  
> 2023 10 05 13 47 06.0020000  0 17                     
G08  20843402.982   109532809.737        -170.323          43.000  
G27  21740526.005   114247222.058       -2538.952          46.000  
G04  22083266.028   116048353.932       -1995.099          40.000  
G09  22588488.728   118703301.936        -387.325          37.000  
G21  22451703.713   117984529.482        2601.677          41.000  
G16  23646345.427   124262310.347       -1971.273          45.000  
G31  24859078.882   130635263.777       -2808.821          37.000  
C03  37261488.920   194030311.972        -134.170          41.000  
C10  37764621.189   196650257.737        -400.948          42.000  
C27  23164548.665   120623849.421       -1284.488          43.000  
C01  37873939.212   197219503.864        -134.349          39.000  
C02  38052740.425   198150575.993        -154.762          40.000  
C16  36573773.222   190449199.756        -247.742          42.000  
C30  22858175.977   119028496.506        1596.239          43.000  
C09  36617846.190   190678707.652         320.357          36.000  
C07  37095352.534   193165202.360        -464.054          38.000  
C06  36400928.972   189549152.458        -117.572          44.000  
> 2023 10 05 13 47 07.0020000  0 17                     
G08  20843435.561   109532980.511        -171.400          43.000  
G27  21741009.009   114249761.216       -2539.638          46.000  
G04  22083645.465   116050348.962       -1995.504          39.000  
G09  22588562.665   118703690.200        -388.833          38.000  
G21  22451208.755   117981928.343        2600.461          42.000  
G16  23646720.293   124264281.612       -1971.495          44.000  
G31  24859613.312   130638072.452       -2809.010          35.000  
C03  37261514.729   194030445.985        -134.490          39.000  
C10  37764698.005   196650658.706        -401.219          41.000  
C27  23164795.620   120625134.681       -1285.632          43.000  
C01  37873965.178   197219638.409        -134.681          40.000  
C02  38052769.951   198150730.771        -155.066          42.000  
C16  36573820.634   190449447.615        -248.450          41.000  
C30  22857869.220   119026900.561        1595.418          45.000  
C09  36617784.870   190678387.368         320.598          37.000  
C07  37095441.600   193165666.520        -464.296          39.000  
C06  36400951.553   189549270.473        -118.378          43.000  
> 2023 10 05 13 47 08.0020000  0 17                     
G08  20843468.577   109533151.708        -171.854          44.000  
G27  21741491.700   114252300.623       -2539.907          46.000  
G04  22084025.200   116052344.360       -1996.033          39.000  
G09  22588636.776   118704078.899        -389.060          38.000  
G21  22450713.657   117979327.367        2600.635          42.000  
G16  23647095.385   124266252.710       -1971.302          44.000  
G31  24860147.848   130640881.307       -2809.260          35.000  
C03  37261540.678   194030579.824        -134.017          39.000  
C10  37764774.716   196651059.575        -401.234          41.000  
C27  23165042.593   120626420.303       -1286.044          43.000  
C01  37873991.232   197219772.759        -134.529          39.000  
C02  38052799.739   198150885.373        -154.824          42.000  
C16  36573868.517   190449695.456        -248.181          42.000  
C30  22857563.056   119025304.927        1595.250          44.000  
C09  36617723.689   190678067.122         319.503          37.000  
C07  37095530.614   193166130.571        -464.310          39.000  
C06  36400974.186   189549388.486        -118.243          43.000  
> 2023 10 05 13 47 09.0020000  0 17                     
G08  20843501.628   109533323.601        -171.906          44.000  
G27  21741974.739   114254840.550       -2540.166          46.000  
G04  22084404.899   116054340.356       -1996.479          39.000  
G09  22588710.799   118704468.326        -389.862          39.000  
G21  22450218.717   117976726.853        2600.325          42.000  
G16  23647470.251   124268223.913       -1971.246          44.000  
G31  24860682.295   130643690.569       -2809.685          35.000  
C03  37261566.487   194030713.817        -133.727          39.000  
C10  37764851.724   196651460.587        -401.078          41.000  
C27  23165289.269   120627706.559       -1286.689          43.000  
C01  37874016.988   197219907.250        -134.472          39.000  
C02  38052829.317   198151040.089        -154.310          42.000  
C16  36573916.087   190449943.600        -248.181          42.000  
C30  22857256.874   119023709.887        1594.928          44.000  
C09  36617662.491   190677747.070         320.026          37.000  
C07  37095619.715   193166594.768        -463.925          39.000  
C06  36400996.976   189549506.781        -118.341          43.000  
> 2023 10 05 13 47 10.0020000  0 17                     
G08  20843534.364   109533495.737        -172.692          44.000  
G27  21742457.691   114257380.492       -2540.292          45.000  
G04  22084784.703   116056336.444       -1996.512          39.000  
G09  22588785.103   118704857.950        -389.928          39.000  
G21  22449723.951   117974126.280        2600.311          42.000  
G16  23647845.186   124270194.709       -1970.837          44.000  
G31  24861216.726   130646499.631       -2809.127          35.000  
C03  37261591.964   194030847.425        -133.454          39.000  
C10  37764928.662   196651861.301        -401.062          40.000  
C27  23165536.434   120628992.912       -1286.766          43.000  
C01  37874042.814   197220041.345        -134.171          39.000  
C02  38052859.035   198151194.465        -154.590          42.000  
C16  36573963.290   190450191.542        -248.236          42.000  
C30  22856950.413   119022114.928        1594.579          44.000  
C09  36617601.067   190677426.795         320.251          37.000  
C07  37095708.659   193167058.639        -464.282          39.000  
C06  36401019.452   189549624.845        -118.317          43.000  
> 2023 10 05 13 47 11.0020000  0 17                     
G08  20843567.188   109533668.770        -173.125          44.000  
G27  21742940.870   114259921.150       -2540.630          45.000  
G04  22085164.856   116058333.343       -1996.779          39.000  
G09  22588859.283   118705248.523        -390.805          39.000  
G21  22449229.167   117971526.360        2600.120          42.000  
G16  23648219.895   124272165.819       -1970.751          44.000  
G31  24861751.243   130649309.328       -2809.774          35.000  
C03  37261617.633   194030981.367        -133.708          39.000  
C10  37765005.426   196652262.351        -400.984          41.000  
C27  23165783.582   120630280.116       -1287.387          43.000  
C01  37874068.763   197220175.770        -134.248          40.000  
C02  38052888.752   198151349.155        -154.678          42.000  
C16  36574011.295   190450439.954        -248.450          42.000  
C30  22856643.970   119020520.749        1594.366          44.000  
C09  36617539.746   190677106.962         320.508          37.000  
C07  37095797.794   193167522.836        -464.078          39.000  
C06  36401042.416   189549743.383        -118.201          43.000  
> 2023 10 05 13 47 12.0020000  0 17                     
G08  20843600.431   109533842.428        -173.907          44.000  
G27  21743424.276   114262462.268       -2541.493          45.000  
G04  22085544.887   116060330.785       -1997.922          39.000  
G09  22588933.604   118705639.745        -391.687          39.000  
G21  22448734.628   117968926.841        2599.109          42.000  
G16  23648594.935   124274136.969       -1971.103          44.000  
G31  24862285.883   130652119.286       -2809.988          35.000  
C03  37261643.337   194031115.365        -134.072          39.000  
C10  37765082.555   196652663.488        -401.127          41.000  
C27  23166030.956   120631567.870       -1288.354          43.000  
C01  37874094.624   197220310.248        -134.699          40.000  
C02  38052918.697   198151503.911        -155.114          41.000  
C16  36574059.231   190450688.581        -248.969          41.000  
C30  22856337.911   119018927.093        1593.165          44.000  
C09  36617478.409   190676787.318         319.656          37.000  
C07  37095887.000   193167987.092        -464.280          39.000  
C06  36401064.979   189549862.144        -119.080          43.000  
> 2023 10 05 13 47 13.0020000  0 17                     
G08  20843633.534   109534017.038        -175.135          44.000  
G27  21743907.455   114265004.087       -2541.845          45.000  
G04  22085925.057   116062329.014       -1998.424          39.000  
G09  22589008.378   118706031.862        -392.211          39.000  
G21  22448240.246   117966327.970        2598.541          42.000  
G16  23648969.923   124276108.420       -1971.377          44.000  
G31  24862820.488   130654929.850       -2810.630          35.000  
C03  37261669.111   194031249.680        -134.309          39.000  
C10  37765159.651   196653064.979        -401.351          41.000  
C27  23166278.662   120632856.449       -1288.981          43.000  
C01  37874120.189   197220445.011        -134.561          40.000  
C02  38052948.450   198151658.927        -155.078          42.000  
C16  36574106.783   190450937.668        -248.926          41.000  
C30  22856031.782   119017334.206        1592.535          44.000  
C09  36617417.194   190676468.128         319.221          38.000  
C07  37095976.258   193168451.731        -464.790          39.000  
C06  36401087.909   189549981.359        -119.440          43.000  
> 2023 10 05 13 47 14.0020000  0 17                     
G08  20843666.934   109534192.348        -175.511          44.000  
G27  21744391.245   114267546.456       -2542.636          45.000  
G04  22086305.716   116064327.842       -1999.016          39.000  
G09  22589083.309   118706424.724        -393.273          39.000  
G21  22447745.986   117963729.544        2598.302          42.000  
G16  23649344.544   124278079.982       -1971.565          44.000  
G31  24863355.198   130657740.790       -2811.401          35.000  
C03  37261694.973   194031384.123        -134.678          39.000  
C10  37765236.780   196653466.640        -401.426          41.000  
C27  23166526.228   120634145.664       -1289.707          43.000  
C01  37874145.910   197220579.944        -134.869          40.000  
C02  38052978.499   198151814.119        -155.179          42.000  
C16  36574154.631   190451187.083        -249.567          41.000  
C30  22855726.001   119015741.905        1592.016          44.000  
C09  36617355.996   190676149.191         318.771          38.000  
C07  37096065.463   193168916.476        -464.575          39.000  
C06  36401111.275   189550100.850        -119.629          43.000  
> 2023 10 05 13 47 15.0020000  0 17                     
G08  20843700.333   109534368.025        -175.683          44.000  
G27  21744874.878   114270088.979       -2542.426          45.000  
G04  22086686.114   116066326.953       -1999.209          39.000  
G09  22589157.839   118706817.962        -393.017          39.000  
G21  22447251.709   117961131.235        2598.416          42.000  
G16  23649719.532   124280051.301       -1971.100          44.000  
G31  24863889.959   130660551.725       -2810.388          36.000  
C03  37261720.415   194031518.332        -134.049          39.000  
C10  37765313.945   196653868.128        -401.172          40.000  
C27  23166773.794   120635435.144       -1289.332          43.000  
C01  37874171.789   197220714.657        -134.464          40.000  
C02  38053008.199   198151969.097        -154.683          42.000  
C16  36574202.270   190451436.432        -249.072          41.000  
C30  22855420.361   119014149.836        1592.092          44.000  
C09  36617294.745   190675830.136         319.092          37.000  
C07  37096154.826   193169381.072        -463.868          38.000  
C06  36401133.890   189550220.276        -119.141          43.000  
> 2023 10 05 13 47 16.0020000  0 17                     
G08  20843733.750   109534543.688        -175.781          44.000  
G27  21745358.930   114272631.293       -2542.350          45.000  
G04  22087066.528   116068325.929       -1999.137          39.000  
G09  22589232.753   118707211.198        -393.342          39.000  
G21  22446757.257   117958532.649        2598.627          42.000  
G16  23650094.485   124282021.988       -1970.410          44.000  
G31  24864424.826   130663362.372       -2811.063          36.000  
C03  37261746.049   194031651.974        -133.587          39.000  
C10  37765390.953   196654269.053        -400.899          40.000  
C27  23167021.343   120636724.550       -1289.692          43.000  
C01  37874197.545   197220848.755        -133.889          40.000  
C02  38053037.533   198152123.484        -154.327          42.000  
C16  36574250.223   190451685.348        -248.871          41.000  
C30  22855114.493   119012557.636        1592.121          44.000  
C09  36617233.582   190675510.602         319.640          37.000  
C07  37096243.909   193169845.089        -463.849          38.000  
C06  36401156.907   189550339.260        -118.872          43.000  
> 2023 10 05 13 47 17.0020000  0 17                     
G08  20843767.115   109534720.091        -176.873          44.000  
G27  21745842.807   114275174.169       -2543.232          46.000  
G04  22087446.873   116070325.540       -1999.846          39.000  
G09  22589307.614   118707605.191        -394.353          39.000  
G21  22446263.049   117955934.574        2597.673          42.000  
G16  23650469.298   124283992.831       -1970.926          44.000  
G31  24864959.640   130666173.362       -2811.402          35.000  
C03  37261771.998   194031785.759        -134.282          39.000  
C10  37765468.170   196654670.185        -401.477          41.000  
C27  23167269.206   120638014.626       -1290.750          43.000  
C01  37874223.424   197220983.030        -134.432          40.000  
C02  38053067.094   198152278.019        -154.659          42.000  
C16  36574297.828   190451934.571        -249.414          41.000  
C30  22854808.678   119010966.061        1591.354          44.000  
C09  36617172.245   190675191.385         319.047          37.000  
C07  37096332.958   193170309.280        -464.244          38.000  
C06  36401179.400   189550458.556        -119.403          43.000  
> 2023 10 05 13 47 18.0020000  0 17                     
G08  20843800.637   109534897.111        -176.523          44.000  
G27  21746326.806   114277717.494       -2542.856          46.000  
G04  22087827.462   116072325.688       -1999.498          39.000  
G09  22589382.772   118707999.858        -394.548          39.000  
G21  22445768.737   117953336.882        2598.054          42.000  
G16  23650844.059   124285963.709       -1970.330          44.000  
G31  24865494.542   130668984.698       -2811.026          35.000  
C03  37261797.545   194031919.604        -133.259          39.000  
C10  37765545.370   196655071.395        -400.869          41.000  
C27  23167517.034   120639305.232       -1290.117          43.000  
C01  37874249.233   197221117.341        -133.861          40.000  
C02  38053096.846   198152432.610        -153.964          42.000  
C16  36574345.397   190452184.029        -248.944          41.000  
C30  22854503.265   119009374.992        1591.499          44.000  
C09  36617111.064   190674872.336         319.654          37.000  
C07  37096422.111   193170773.568        -463.632          39.000  
C06  36401202.347   189550578.067        -119.092          43.000  
> 2023 10 05 13 47 19.0020000  0 17                     
G08  20843834.578   109535073.894        -177.191          44.000  
G27  21746810.840   114280260.376       -2542.953          46.000  
G04  22088207.877   116074325.495       -2000.018          39.000  
G09  22589457.861   118708394.240        -394.483          39.000  
G21  22445274.442   117950738.668        2598.059          43.000  
G16  23651218.540   124287933.717       -1969.993          43.000  
G31  24866029.531   130671795.406       -2810.390          36.000  
C03  37261822.918   194032052.604        -133.031          39.000  
C10  37765622.308   196655471.807        -400.610          41.000  
C27  23167764.932   120640595.529       -1290.573          44.000  
C01  37874274.693   197221250.838        -133.634          40.000  
C02  38053126.494   198152586.378        -153.896          42.000  
C16  36574393.280   190452432.792        -248.383          41.000  
C30  22854197.537   119007783.561        1591.212          44.000  
C09  36617049.779   190674552.585         319.816          37.000  
C07  37096511.159   193171237.047        -463.605          39.000  
C06  36401225.224   189550696.880        -118.683          43.000  
> 2023 10 05 13 47 20.0020000  0 17                     
G08  20843868.641   109535251.851        -178.773          44.000  
G27  21747295.311   114282804.245       -2544.598          46.000  
G04  22088588.484   116076326.349       -2001.580          39.000  
G09  22589533.019   118708789.848        -396.308          39.000  
G21  22444780.095   117948141.389        2596.787          43.000  
G16  23651593.127   124289904.307       -1970.991          43.000  
G31  24866564.554   130674607.026       -2812.560          36.000  
C03  37261848.814   194032186.195        -133.710          39.000  
C10  37765699.490   196655872.830        -401.436          41.000  
C27  23168012.917   120641886.910       -1291.796          43.000  
C01  37874300.484   197221384.901        -134.486          40.000  
C02  38053155.985   198152740.723        -154.598          42.000  
C16  36574441.408   190452682.356        -250.244          41.000  
C30  22853892.175   119006193.168        1589.610          44.000  
C09  36616988.599   190674233.562         318.690          37.000  
C07  37096600.138   193171701.130        -464.412          38.000  
C06  36401248.014   189550816.449        -119.995          43.000  
> 2023 10 05 13 47 21.0020000  0 17                     
G08  20843902.285   109535430.751        -179.240          44.000  
G27  21747779.781   114285348.850       -2544.932          46.000  
G04  22088969.405   116078328.033       -2001.996          39.000  
G09  22589608.508   118709186.377        -396.746          39.000  
G21  22444286.062   117945544.790        2596.137          43.000  
G16  23651967.923   124291875.217       -1970.943          43.000  
G31  24867099.735   130677419.176       -2812.460          36.000  
C03  37261874.553   194032320.152        -134.042          39.000  
C10  37765776.446   196656274.248        -401.490          41.000  
C27  23168260.989   120643179.146       -1292.630          43.000  
C01  37874326.450   197221519.307        -134.639          40.000  
C02  38053185.668   198152895.421        -154.792          42.000  
C16  36574489.379   190452932.385        -250.354          41.000  
C30  22853586.832   119004603.575        1589.063          44.000  
C09  36616927.209   190673914.961         318.603          37.000  
C07  37096689.256   193172165.567        -464.685          38.000  
C06  36401271.433   189550936.514        -120.276          43.000  
> 2023 10 05 13 47 22.0020000  0 17                     
G08  20843936.504   109535610.035        -179.521          44.000  
G27  21748264.443   114287893.657       -2544.847          46.000  
G04  22089350.448   116080330.024       -2002.445          39.000  
G09  22589684.365   118709583.339        -397.662          39.000  
G21  22443791.680   117942948.328        2596.568          42.000  
G16  23652342.579   124293845.912       -1970.559          43.000  
G31  24867635.055   130680231.410       -2812.257          36.000  
C03  37261900.309   194032453.884        -133.237          39.000  
C10  37765853.611   196656675.512        -401.307          40.000  
C27  23168509.253   120644471.681       -1292.607          44.000  
C01  37874352.207   197221653.539        -134.017          40.000  
C02  38053215.386   198153049.913        -154.333          42.000  
C16  36574537.541   190453182.394        -250.049          41.000  
C30  22853281.680   119003014.242        1589.116          44.000  
C09  36616865.906   190673596.341         318.440          37.000  
C07  37096778.217   193172629.847        -464.014          38.000  
C06  36401294.275   189551056.547        -120.221          43.000  
> 2023 10 05 13 47 23.0020000  0 17                     
G08  20843970.655   109535790.098        -180.411          44.000  
G27  21748749.280   114290439.083       -2545.930          46.000  
G04  22089731.526   116082332.668       -2002.789          39.000  
G09  22589760.325   118709981.097        -398.239          39.000  
G21  22443297.454   117940352.427        2595.493          43.000  
G16  23652717.217   124295816.829       -1971.259          43.000  
G31  24868170.446   130683044.119       -2812.925          36.000  
C03  37261926.380   194032587.886        -134.332          39.000  
C10  37765930.723   196657077.010        -401.715          40.000  
C27  23168757.675   120645764.951       -1293.842          44.000  
C01  37874377.946   197221787.990        -134.598          40.000  
C02  38053245.156   198153204.652        -155.126          42.000  
C16  36574585.774   190453432.790        -250.818          41.000  
C30  22852976.754   119001425.599        1588.048          44.000  
C09  36616804.813   190673278.032         318.034          37.000  
C07  37096867.353   193173094.402        -464.915          38.000  
C06  36401317.397   189551176.937        -120.496          43.000  
> 2023 10 05 13 47 24.0020000  0 17                     
G08  20844005.154   109535971.054        -181.183          44.000  
G27  21749233.942   114292985.197       -2546.215          46.000  
G04  22090112.760   116084336.118       -2003.740          39.000  
G09  22589836.321   118710379.761        -398.893          39.000  
G21  22442803.509   117937757.157        2595.015          43.000  
G16  23653092.048   124297787.998       -1971.176          43.000  
G31  24868705.714   130685857.374       -2813.367          36.000  
C03  37261952.189   194032722.156        -134.316          39.000  
C10  37766007.836   196657478.865        -401.893          40.000  
C27  23169006.235   120647059.011       -1294.446          44.000  
C01  37874403.894   197221922.738        -135.169          40.000  
C02  38053275.100   198153359.685        -155.260          42.000  
C16  36574634.058   190453683.634        -251.178          41.000  
C30  22852671.829   118999837.698        1587.572          44.000  
C09  36616743.685   190672960.160         317.798          37.000  
C07  37096956.803   193173559.272        -465.458          38.000  
C06  36401340.850   189551297.778        -120.941          43.000  
> 2023 10 05 13 47 25.0020000  0 17                     
G08  20844039.653   109536152.632        -181.743          44.000  
G27  21749718.849   114295531.709       -2546.490          46.000  
G04  22090493.978   116086340.038       -2003.662          38.000  
G09  22589912.666   118710779.034        -399.514          39.000  
G21  22442309.615   117935162.208        2595.097          42.000  
G16  23653466.896   124299759.163       -1970.884          43.000  
G31  24869241.051   130688670.901       -2813.658          36.000  
C03  37261977.736   194032856.425        -134.096          39.000  
C10  37766084.966   196657880.751        -401.824          40.000  
C27  23169254.709   120648353.568       -1294.591          43.000  
C01  37874429.598   197222057.478        -134.659          40.000  
C02  38053304.643   198153514.704        -154.531          42.000  
C16  36574682.361   190453934.638        -250.659          41.000  
C30  22852367.044   118998250.265        1587.461          44.000  
C09  36616682.941   190672642.429         317.754          37.000  
C07  37097046.008   193174024.140        -464.686          38.000  
C06  36401364.128   189551418.788        -121.008          43.000  
> 2023 10 05 13 47 26.0020000  0 17                     
G08  20844074.082   109536334.390        -181.973          44.000  
G27  21750203.773   114298078.214       -2546.402          47.000  
G04  22090875.387   116088344.088       -2004.390          38.000  
G09  22589988.888   118711178.492        -399.633          39.000  
G21  22441815.861   117932567.226        2594.698          42.000  
G16  23653841.552   124301729.901       -1970.426          43.000  
G31  24869776.511   130691484.222       -2813.122          36.000  
C03  37262003.335   194032990.317        -133.960          39.000  
C10  37766162.061   196658282.279        -401.532          40.000  
C27  23169503.357   120649648.238       -1294.692          43.000  
C01  37874455.460   197222191.834        -134.244          40.000  
C02  38053334.413   198153669.377        -154.744          42.000  
C16  36574730.558   190454185.429        -250.515          41.000  
C30  22852061.997   118996662.912        1587.203          44.000  
C09  36616621.970   190672324.382         318.615          37.000  
C07  37097135.388   193174488.648        -464.165          38.000  
C06  36401387.459   189551539.540        -120.782          43.000  
> 2023 10 05 13 47 27.0020000  0 17                     
G08  20844108.703   109536516.692        -182.794          44.000  
G27  21750688.697   114300625.113       -2547.588          47.000  
G04  22091256.867   116090348.526       -2004.829          38.000  
G09  22590065.076   118711578.533        -400.356          40.000  
G21  22441322.003   117929972.527        2594.241          42.000  
G16  23654216.593   124303700.619       -1970.942          43.000  
G31  24870312.024   130694297.804       -2813.875          36.000  
C03  37262028.900   194033124.159        -133.862          39.000  
C10  37766239.278   196658683.831        -401.785          40.000  
C27  23169752.075   120650943.397       -1295.629          43.000  
C01  37874481.461   197222326.174        -134.985          40.000  
C02  38053364.009   198153823.975        -154.904          42.000  
C16  36574778.668   190454436.355        -251.211          41.000  
C30  22851757.420   118995075.977        1586.473          44.000  
C09  36616561.034   190672006.483         317.711          37.000  
C07  37097224.699   193174953.167        -464.661          38.000  
C06  36401410.284   189551660.421        -121.240          43.000  
> 2023 10 05 13 47 28.0020000  0 17                     
G08  20844143.673   109536699.572        -183.070          44.000  
G27  21751173.534   114303172.367       -2547.318          47.000  
G04  22091638.520   116092353.459       -2005.078          38.000  
G09  22590141.403   118711979.173        -401.268          40.000  
G21  22440828.161   117927378.145        2594.279          43.000  
G16  23654591.353   124305671.293       -1970.437          42.000  
G31  24870847.152   130697111.638       -2814.187          36.000  
C03  37262054.273   194033258.009        -133.774          39.000  
C10  37766316.408   196659085.396        -401.299          40.000  
C27  23170000.619   120652239.037       -1295.795          43.000  
C01  37874507.200   197222460.448        -134.082          40.000  
C02  38053393.831   198153978.581        -154.446          42.000  
C16  36574826.517   190454687.434        -251.093          41.000  
C30  22851452.618   118993489.499        1586.311          44.000  
C09  36616500.202   190671688.707         317.544          37.000  
C07  37097313.782   193175417.723        -464.421          38.000  
C06  36401433.615   189551781.449        -121.002          43.000  
> 2023 10 05 13 47 29.0020000  0 17                     
G08  20844178.731   109536882.610        -182.967          44.000  
G27  21751658.231   114305719.588       -2547.244          47.000  
G04  22092019.912   116094358.423       -2004.813          38.000  
G09  22590217.713   118712379.925        -400.651          40.000  
G21  22440334.093   117924783.677        2594.566          43.000  
G16  23654966.010   124307641.518       -1969.969          42.000  
G31  24871382.559   130699925.271       -2813.452          35.000  
C03  37262080.081   194033391.420        -133.085          39.000  
C10  37766393.329   196659486.580        -400.867          40.000  
C27  23170249.319   120653534.754       -1295.653          43.000  
C01  37874532.851   197222594.328        -133.473          40.000  
C02  38053423.636   198154132.735        -153.820          42.000  
C16  36574874.383   190454938.238        -250.598          41.000  
C30  22851148.024   118991903.030        1586.669          44.000  
C09  36616439.039   190671370.591         318.447          37.000  
C07  37097403.144   193175881.865        -464.078          38.000  
C06  36401457.138   189551902.178        -120.526          43.000  
> 2023 10 05 13 47 30.0020000  0 17                     
G08  20844213.666   109537066.145        -184.266          44.000  
G27  21752143.278   114308267.089       -2548.088          46.000  
G04  22092401.461   116096363.788       -2006.456          38.000  
G09  22590294.128   118712781.218        -402.098          40.000  
G21  22439840.549   117922189.441        2593.814          43.000  
G16  23655340.788   124309611.609       -1970.493          42.000  
G31  24871918.159   130702739.050       -2814.356          35.000  
C03  37262105.751   194033524.718        -133.439          39.000  
C10  37766470.319   196659887.687        -401.486          40.000  
C27  23170498.159   120654830.865       -1296.613          43.000  
C01  37874558.573   197222728.121        -134.043          40.000  
C02  38053453.057   198154286.811        -154.360          42.000  
C16  36574922.982   190455189.103        -251.441          41.000  
C30  22850843.657   118990316.940        1585.526          44.000  
C09  36616377.963   190671052.537         317.432          37.000  
C07  37097492.402   193176345.912        -464.215          38.000  
C06  36401480.172   189552022.966        -121.179          43.000  
> 2023 10 05 13 47 31.0020000  0 17                     
G08  20844248.863   109537251.077        -185.469          44.000  
G27  21752628.097   114310815.807       -2549.311          46.000  
G04  22092783.464   116098370.409       -2007.111          38.000  
G09  22590371.048   118713183.904        -403.501          40.000  
G21  22439347.266   117919596.356        2592.613          43.000  
G16  23655715.566   124311582.503       -1971.314          43.000  
G31  24872453.968   130705553.918       -2815.952          36.000  
C03  37262131.333   194033658.865        -134.541          39.000  
C10  37766547.414   196660289.596        -401.901          40.000  
C27  23170747.174   120656128.282       -1297.790          43.000  
C01  37874584.644   197222862.699        -134.980          40.000  
C02  38053482.740   198154441.697        -155.165          42.000  
C16  36574971.214   190455440.941        -252.323          41.000  
C30  22850539.273   118988732.097        1584.540          44.000  
C09  36616316.992   190670735.394         316.537          37.000  
C07  37097581.590   193176810.821        -465.383          38.000  
C06  36401503.433   189552144.726        -122.040          43.000  
> 2023 10 05 13 47 32.0020000  0 17                     
G08  20844284.392   109537436.879        -186.143          44.000  
G27  21753112.986   114313365.184       -2549.756          46.000  
G04  22093165.624   116100377.798       -2007.966          38.000  
G09  22590448.178   118713587.463        -403.852          40.000  
G21  22438853.477   117917003.871        2592.001          43.000  
G16  23656090.414   124313553.639       -1971.317          43.000  
G31  24872989.899   130708369.252       -2815.680          36.000  
C03  37262157.019   194033793.243        -134.565          39.000  
C10  37766624.474   196660691.861        -402.501          40.000  
C27  23170996.380   120657426.491       -1298.662          43.000  
C01  37874610.662   197222997.576        -135.109          40.000  
C02  38053512.458   198154596.866        -155.515          42.000  
C16  36575019.673   190455693.217        -252.610          41.000  
C30  22850235.011   118987148.001        1583.725          44.000  
C09  36616256.143   190670418.624         316.687          37.000  
C07  37097671.023   193177276.010        -465.535          38.000  
C06  36401526.939   189552266.921        -122.632          43.000  
> 2023 10 05 13 47 33.0020000  0 17                     
G08  20844319.973   109537623.235        -186.392          44.000  
G27  21753598.277   114315914.934       -2549.762          46.000  
G04  22093547.696   116102385.621       -2007.695          38.000  
G09  22590525.448   118713991.583        -404.078          40.000  
G21  22438360.142   117914411.708        2592.127          43.000  
G16  23656465.420   124315524.738       -1970.904          43.000  
G31  24873525.673   130711184.851       -2815.769          36.000  
C03  37262182.689   194033927.604        -133.821          39.000  
C10  37766701.726   196661094.135        -402.189          40.000  
C27  23171245.692   120658725.159       -1298.516          43.000  
C01  37874636.750   197223132.373        -134.367          40.000  
C02  38053542.490   198154751.998        -154.656          42.000  
C16  36575068.045   190455945.602        -252.178          41.000  
C30  22849931.290   118985564.336        1583.665          44.000  
C09  36616195.486   190670101.990         316.829          37.000  
C07  37097760.158   193177741.191        -465.057          38.000  
C06  36401550.514   189552389.226        -122.278          43.000  
> 2023 10 05 13 47 34.0020000  0 17                     
G08  20844355.589   109537810.022        -187.429          45.000  
G27  21754083.358   114318464.948       -2550.438          46.000  
G04  22093929.804   116104393.834       -2008.896          39.000  
G09  22590602.717   118714396.217        -405.456          40.000  
G21  22437866.702   117911819.719        2591.808          43.000  
G16  23656840.774   124317495.684       -1971.181          42.000  
G31  24874061.465   130714000.557       -2816.178          36.000  
C03  37262208.410   194034061.859        -134.810          39.000  
C10  37766778.839   196661496.329        -402.387          40.000  
C27  23171495.265   120660024.219       -1299.718          43.000  
C01  37874662.733   197223267.112        -135.365          40.000  
C02  38053572.051   198154906.990        -154.995          42.000  
C16  36575116.540   190456198.059        -252.676          41.000  
C30  22849627.395   118983981.002        1582.804          45.000  
C09  36616134.498   190669785.339         316.077          37.000  
C07  37097849.329   193178206.278        -465.408          38.000  
C06  36401574.019   189552511.577        -122.736          43.000  
> 2023 10 05 13 47 35.0020000  0 17                     
G08  20844391.379   109537997.171        -187.663          45.000  
G27  21754568.561   114321015.115       -2550.672          46.000  
G04  22094312.173   116106402.234       -2008.701          39.000  
G09  22590680.022   118714801.147        -405.634          41.000  
G21  22437373.699   117909227.858        2591.561          43.000  
G16  23657215.604   124319466.357       -1970.794          42.000  
G31  24874597.431   130716816.273       -2816.305          36.000  
C03  37262234.045   194034195.862        -134.212          39.000  
C10  37766856.213   196661898.292        -402.240          40.000  
C27  23171744.768   120661323.518       -1299.648          43.000  
C01  37874688.438   197223401.545        -134.545          40.000  
C02  38053601.890   198155061.768        -155.138          42.000  
C16  36575164.720   190456450.415        -252.624          41.000  
C30  22849323.604   118982397.886        1582.719          45.000  
C09  36616073.701   190669468.573         316.514          37.000  
C07  37097938.290   193178671.158        -465.358          38.000  
C06  36401597.403   189552633.802        -122.400          43.000  
> 2023 10 05 13 47 36.0020000  0 17                     
G08  20844427.065   109538184.920        -188.004          44.000  
G27  21755054.009   114323565.666       -2550.419          46.000  
G04  22094694.437   116108411.151       -2009.049          39.000  
G09  22590757.204   118715206.699        -405.551          40.000  
G21  22436880.626   117906636.317        2591.567          43.000  
G16  23657590.575   124321437.028       -1970.274          42.000  
G31  24875133.082   130719632.279       -2816.355          36.000  
C03  37262260.046   194034329.874        -134.080          39.000  
C10  37766933.308   196662300.283        -401.814          40.000  
C27  23171994.620   120662623.340       -1299.705          43.000  
C01  37874713.950   197223536.036        -134.563          40.000  
C02  38053631.521   198155216.553        -154.513          42.000  
C16  36575213.353   190456702.953        -252.486          41.000  
C30  22849019.813   118980815.237        1582.560          45.000  
C09  36616012.765   190669151.941         316.683          37.000  
C07  37098027.618   193179136.043        -464.645          38.000  
C06  36401620.821   189552756.203        -122.125          43.000  
> 2023 10 05 13 47 37.0020000  0 17                     
G08  20844462.768   109538373.111        -188.856          44.000  
G27  21755539.334   114326116.483       -2551.350          46.000  
G04  22095076.876   116110420.383       -2009.672          39.000  
G09  22590834.456   118715612.691        -406.264          40.000  
G21  22436387.570   117904044.978        2590.897          43.000  
G16  23657965.440   124323407.539       -1970.895          42.000  
G31  24875668.734   130722448.338       -2816.387          36.000  
C03  37262285.593   194034463.716        -134.081          39.000  
C10  37767010.316   196662702.190        -402.080          40.000  
C27  23172244.036   120663923.522       -1300.657          43.000  
C01  37874739.811   197223670.341        -134.517          40.000  
C02  38053661.064   198155371.167        -154.578          42.000  
C16  36575261.690   190456955.507        -252.810          41.000  
C30  22848716.005   118979232.905        1581.785          45.000  
C09  36615951.969   190668835.308         316.258          37.000  
C07  37098116.858   193179600.836        -464.932          38.000  
C06  36401644.431   189552878.616        -122.766          43.000  
> 2023 10 05 13 47 38.0020000  0 17                     
G08  20844498.768   109538562.369        -189.779          44.000  
G27  21756024.869   114328668.166       -2552.191          46.000  
G04  22095459.368   116112430.586       -2011.002          39.000  
G09  22590911.883   118716019.800        -407.963          40.000  
G21  22435894.880   117901454.444        2590.171          43.000  
G16  23658340.463   124325378.518       -1971.292          42.000  
G31  24876204.770   130725265.130       -2817.042          36.000  
C03  37262311.436   194034598.057        -134.580          39.000  
C10  37767087.428   196663104.641        -402.778          40.000  
C27  23172493.958   120665224.685       -1301.780          43.000  
C01  37874765.533   197223805.158        -135.381          40.000  
C02  38053690.590   198155526.287        -155.351          42.000  
C16  36575310.307   190457208.705        -253.642          41.000  
C30  22848412.423   118977651.504        1580.882          45.000  
C09  36615891.050   190668519.265         315.794          37.000  
C07  37098206.430   193180066.136        -465.892          38.000  
C06  36401667.797   189553001.664        -123.322          43.000  
> 2023 10 05 13 47 39.0020000  0 17                     
G08  20844534.855   109538752.122        -189.463          44.000  
G27  21756510.369   114331220.133       -2551.819          46.000  
G04  22095842.016   116114441.137       -2010.139          39.000  
G09  22590989.484   118716427.353        -406.931          40.000  
G21  22435401.981   117898864.138        2590.780          43.000  
G16  23658715.416   124327349.340       -1970.102          42.000  
G31  24876740.719   130728082.090       -2816.571          36.000  
C03  37262337.333   194034732.289        -133.726          39.000  
C10  37767164.925   196663506.994        -402.126          40.000  
C27  23172743.810   120666526.239       -1301.395          43.000  
C01  37874791.568   197223939.859        -134.319          40.000  
C02  38053720.342   198155681.289        -154.580          42.000  
C16  36575359.045   190457461.951        -252.590          41.000  
C30  22848108.999   118976070.452        1581.460          45.000  
C09  36615830.184   190668203.245         316.475          37.000  
C07  37098295.967   193180531.307        -464.458          38.000  
C06  36401691.512   189553124.736        -122.705          43.000  
> 2023 10 05 13 47 40.0020000  0 17                     
G08  20844571.099   109538941.716        -190.043          44.000  
G27  21756995.921   114333771.733       -2551.966          46.000  
G04  22096224.385   116116451.405       -2010.128          39.000  
G09  22591067.155   118716834.788        -407.839          40.000  
G21  22434908.943   117896273.407        2590.600          43.000  
G16  23659090.386   124329319.409       -1970.087          42.000  
G31  24877276.528   130730898.531       -2816.360          36.000  
C03  37262362.880   194034865.775        -133.273          39.000  
C10  37767241.898   196663908.613        -401.658          40.000  
C27  23172993.506   120667827.544       -1301.766          43.000  
C01  37874817.517   197224073.770        -133.846          40.000  
C02  38053750.147   198155835.540        -154.266          41.000  
C16  36575407.313   190457714.607        -252.640          41.000  
C30  22847805.365   118974489.114        1581.261          45.000  
C09  36615769.125   190667886.601         316.238          37.000  
C07  37098385.295   193180995.787        -464.580          38.000  
C06  36401715.349   189553247.210        -122.595          43.000  
> 2023 10 05 13 47 41.0020000  0 17                     
G08  20844607.657   109539132.593        -191.682          44.000  
G27  21757481.753   114336324.431       -2553.558          46.000  
G04  22096607.156   116118462.867       -2011.989          39.000  
G09  22591144.808   118717243.501        -409.272          40.000  
G21  22434416.306   117893683.729        2588.925          44.000  
G16  23659465.513   124331290.163       -1971.394          43.000  
G31  24877812.685   130733715.959       -2818.225          36.000  
C03  37262388.601   194034999.972        -134.653          40.000  
C10  37767319.132   196664310.976        -402.879          40.000  
C27  23173243.742   120669130.030       -1302.977          43.000  
C01  37874843.744   197224208.428        -135.165          40.000  
C02  38053779.848   198155990.514        -155.444          42.000  
C16  36575456.051   190457968.138        -254.115          41.000  
C30  22847502.080   118972908.940        1579.362          45.000  
C09  36615708.625   190667570.748         315.524          37.000  
C07  37098474.309   193181460.979        -465.591          38.000  
C06  36401738.959   189553370.543        -123.993          43.000  
> 2023 10 05 13 47 42.0020000  0 17                     
G08  20844644.285   109539324.611        -192.419          44.000  
G27  21757967.776   114338878.034       -2553.704          47.000  
G04  22096990.188   116120475.343       -2012.643          39.000  
G09  22591222.601   118717653.343        -409.981          40.000  
G21  22433923.704   117891094.893        2588.729          44.000  
G16  23659840.536   124333261.408       -1970.970          43.000  
G31  24878349.140   130736534.121       -2818.331          36.000  
C03  37262414.567   194035134.670        -134.413          40.000  
C10  37767396.507   196664713.900        -403.091          40.000  
C27  23173493.856   120670433.560       -1303.698          43.000  
C01  37874869.728   197224343.567        -134.886          40.000  
C02  38053809.688   198156145.984        -155.346          42.000  
C16  36575505.104   190458222.323        -253.793          41.000  
C30  22847198.743   118971329.735        1579.128          45.000  
C09  36615648.248   190667255.596         314.903          37.000  
C07  37098563.514   193181926.753        -466.019          38.000  
C06  36401762.813   189553494.552        -124.030          43.000  
> 2023 10 05 13 47 43.0020000  0 17                     
G08  20844680.721   109539516.923        -192.451          44.000  
G27  21758453.870   114341431.760       -2553.839          47.000  
G04  22097373.115   116122487.989       -2012.632          39.000  
G09  22591300.691   118718063.500        -410.317          40.000  
G21  22433431.171   117888506.121        2588.452          44.000  
G16  23660215.663   124335232.366       -1970.832          43.000  
G31  24878885.473   130739352.254       -2817.997          36.000  
C03  37262440.516   194035269.113        -134.527          39.000  
C10  37767473.776   196665116.543        -402.596          40.000  
C27  23173744.511   120671737.316       -1303.967          43.000  
C01  37874895.449   197224478.465        -134.959          40.000  
C02  38053839.667   198156301.183        -155.264          42.000  
C16  36575553.964   190458476.427        -254.356          41.000  
C30  22846895.598   118969750.718        1578.845          45.000  
C09  36615587.660   190666940.265         314.770          37.000  
C07  37098652.842   193182392.245        -465.374          38.000  
C06  36401786.877   189553618.439        -123.950          43.000  
> 2023 10 05 13 47 44.0020000  0 17                     
G08  20844717.332   109539710.035        -193.292          44.000  
G27  21758940.155   114343986.080       -2554.591          47.000  
G04  22097756.235   116124501.344       -2013.585          38.000  
G09  22591378.798   118718474.467        -411.122          40.000  
G21  22432938.813   117885917.879        2588.186          44.000  
G16  23660590.878   124337203.503       -1971.256          43.000  
G31  24879421.997   130742170.868       -2818.956          36.000  
C03  37262466.185   194035403.743        -134.581          40.000  
C10  37767551.133   196665519.465        -403.059          40.000  
C27  23173995.096   120673041.772       -1304.661          43.000  
C01  37874921.520   197224613.536        -135.085          40.000  
C02  38053869.489   198156456.608        -155.747          41.000  
C16  36575602.790   190458730.862        -254.121          41.000  
C30  22846592.505   118968172.362        1578.091          45.000  
C09  36615527.248   190666625.252         314.970          37.000  
C07  37098742.466   193182857.987        -465.875          38.000  
C06  36401810.836   189553742.668        -124.255          43.000  
> 2023 10 05 13 47 45.0020000  0 17                     
G08  20844753.995   109539903.855        -194.213          44.000  
G27  21759426.562   114346540.922       -2555.108          47.000  
G04  22098139.721   116126515.278       -2013.993          38.000  
G09  22591456.905   118718886.137        -411.856          40.000  
G21  22432446.420   117883330.122        2587.640          44.000  
G16  23660966.127   124339174.742       -1971.357          43.000  
G31  24879958.452   130744989.837       -2819.113          37.000  
C03  37262492.133   194035538.495        -134.653          40.000  
C10  37767628.455   196665922.525        -402.848          40.000  
C27  23174245.716   120674346.862       -1305.374          43.000  
C01  37874947.120   197224748.748        -135.290          40.000  
C02  38053899.434   198156612.118        -155.542          42.000  
C16  36575651.738   190458985.618        -254.698          41.000  
C30  22846289.482   118966594.582        1577.659          45.000  
C09  36615466.783   190666310.507         314.618          37.000  
C07  37098831.689   193183323.865        -465.809          38.000  
C06  36401835.005   189553867.184        -124.536          43.000  
> 2023 10 05 13 47 46.0020000  0 17                     
G08  20844791.164   109540098.143        -194.354          44.000  
G27  21759912.743   114349096.060       -2555.115          47.000  
G04  22098523.067   116128529.616       -2014.156          38.000  
G09  22591535.204   118719298.353        -412.524          40.000  
G21  22431954.045   117880742.608        2587.662          44.000  
G16  23661341.464   124341145.871       -1970.934          43.000  
G31  24880495.081   130747808.964       -2819.019          37.000  
C03  37262517.977   194035673.166        -134.565          39.000  
C10  37767705.899   196666325.582        -402.891          40.000  
C27  23174496.440   120675652.355       -1305.463          44.000  
C01  37874973.260   197224883.867        -134.996          40.000  
C02  38053929.344   198156767.547        -155.193          42.000  
C16  36575700.563   190459240.457        -254.862          41.000  
C30  22845986.651   118965017.194        1577.418          45.000  
C09  36615406.318   190665995.808         314.719          37.000  
C07  37098921.174   193183789.685        -465.735          38.000  
C06  36401858.755   189553991.774        -124.396          43.000  
> 2023 10 05 13 47 47.0020000  0 17                     
G08  20844828.211   109540292.638        -194.922          44.000  
G27  21760398.854   114351651.198       -2555.268          47.000  
G04  22098906.169   116130544.031       -2014.423          38.000  
G09  22591613.521   118719710.750        -412.605          40.000  
G21  22431461.373   117878155.050        2587.313          44.000  
G16  23661716.853   124343116.594       -1970.662          43.000  
G31  24881031.588   130750627.958       -2819.062          37.000  
C03  37262543.594   194035807.456        -134.391          39.000  
C10  37767783.116   196666728.254        -402.730          40.000  
C27  23174747.462   120676957.965       -1305.694          44.000  
C01  37874999.017   197225018.608        -134.889          40.000  
C02  38053959.236   198156922.617        -155.055          42.000  
C16  36575749.668   190459495.068        -254.900          41.000  
C30  22845683.994   118963439.871        1577.093          45.000  
C09  36615345.940   190665680.805         315.092          37.000  
C07  37099010.205   193184255.143        -465.630          38.000  
C06  36401882.260   189554116.120        -124.402          43.000  
> 2023 10 05 13 47 48.0020000  0 17                     
G08  20844865.310   109540487.975        -195.990          44.000  
G27  21760885.418   114354206.984       -2556.425          47.000  
G04  22099289.708   116132559.188       -2015.736          38.000  
G09  22591692.064   118720123.987        -413.662          40.000  
G21  22430969.050   117875568.068        2586.387          44.000  
G16  23662092.242   124345087.546       -1971.347          43.000  
G31  24881568.060   130753447.460       -2820.078          36.000  
C03  37262569.612   194035941.989        -134.881          39.000  
C10  37767860.543   196667131.208        -403.547          40.000  
C27  23174998.431   120678264.320       -1306.796          44.000  
C01  37875025.070   197225153.581        -135.336          40.000  
C02  38053989.041   198157077.943        -155.591          41.000  
C16  36575798.529   190459750.060        -255.433          41.000  
C30  22845381.181   118961863.259        1575.929          45.000  
C09  36615285.719   190665366.237         314.113          37.000  
C07  37099099.602   193184720.873        -466.107          38.000  
C06  36401906.062   189554240.880        -125.391          43.000  
> 2023 10 05 13 47 49.0020000  0 17                     
G08  20844902.409   109540684.054        -195.968          44.000  
G27  21761371.878   114356763.330       -2556.161          47.000  
G04  22099673.438   116134574.959       -2015.500          38.000  
G09  22591770.713   118720538.006        -413.968          39.000  
G21  22430476.919   117872981.586        2586.585          44.000  
G16  23662467.335   124347058.644       -1970.703          43.000  
G31  24882104.654   130756267.362       -2819.971          36.000  
C03  37262595.474   194036076.707        -134.606          39.000  
C10  37767938.074   196667534.385        -402.920          40.000  
C27  23175249.766   120679571.355       -1306.888          44.000  
C01  37875050.774   197225288.740        -134.986          40.000  
C02  38054018.898   198157233.438        -154.860          42.000  
C16  36575847.494   190460005.385        -254.730          41.000  
C30  22845078.594   118960287.269        1576.111          45.000  
C09  36615225.150   190665051.908         314.770          37.000  
C07  37099189.104   193185186.802        -465.598          38.000  
C06  36401930.283   189554365.934        -124.689          43.000  
> 2023 10 05 13 47 50.0020000  0 17                     
G08  20844939.840   109540880.115        -196.073          44.000  
G27  21761858.215   114359319.439       -2556.104          47.000  
G04  22100057.343   116136590.579       -2015.214          38.000  
G09  22591849.151   118720952.000        -414.209          40.000  
G21  22429984.718   117870394.819        2586.750          44.000  
G16  23662842.497   124349029.091       -1970.024          43.000  
G31  24882640.882   130759086.886       -2819.652          36.000  
C03  37262621.283   194036210.758        -133.768          39.000  
C10  37768015.274   196667936.986        -402.417          40.000  
C27  23175500.718   120680878.265       -1306.831          44.000  
C01  37875076.618   197225423.257        -134.200          40.000  
C02  38054048.476   198157388.269        -154.257          42.000  
C16  36575896.337   190460260.271        -254.639          41.000  
C30  22844775.885   118958711.123        1576.139          45.000  
C09  36615164.981   190664737.129         315.060          37.000  
C07  37099278.659   193185652.110        -465.021          38.000  
C06  36401954.033   189554490.535        -124.359          43.000  
> 2023 10 05 13 47 51.0020000  0 17                     
G08  20844977.445   109541077.129        -197.512          44.000  
G27  21762344.780   114361876.319       -2557.369          47.000  
G04  22100440.811   116138607.105       -2017.424          38.000  
G09  22591927.782   118721366.939        -415.400          39.000  
G21  22429492.517   117867808.755        2585.676          44.000  
G16  23663217.624   124350999.901       -1971.092          43.000  
G31  24883177.563   130761907.040       -2820.603          36.000  
C03  37262647.231   194036345.225        -134.512          39.000  
C10  37768092.805   196668339.965        -403.236          40.000  
C27  23175752.123   120682186.054       -1308.170          44.000  
C01  37875102.758   197225558.179        -135.470          40.000  
C02  38054078.438   198157543.502        -155.280          42.000  
C16  36575945.355   190460515.700        -255.551          41.000  
C30  22844473.263   118957135.811        1574.958          45.000  
C09  36615104.586   190664422.814         314.299          37.000  
C07  37099367.987   193186117.846        -465.951          38.000  
C06  36401978.533   189554615.652        -125.269          43.000  
> 2023 10 05 13 47 52.0020000  0 17                     
G08  20845015.033   109541275.088        -198.279          44.000  
G27  21762831.379   114364433.946       -2558.006          47.000  
G04  22100824.734   116140624.410       -2017.906          38.000  
G09  22592006.552   118721782.861        -416.265          39.000  
G21  22429000.090   117865223.406        2584.979          44.000  
G16  23663592.752   124352971.039       -1971.320          43.000  
G31  24883714.454   130764727.792       -2820.991          36.000  
C03  37262673.354   194036480.045        -134.751          39.000  
C10  37768170.040   196668743.336        -403.541          40.000  
C27  23176003.406   120683494.714       -1309.094          44.000  
C01  37875128.549   197225693.428        -135.754          40.000  
C02  38054108.505   198157699.119        -155.808          42.000  
C16  36575994.355   190460771.630        -256.240          41.000  
C30  22844170.816   118955561.318        1574.090          45.000  
C09  36615044.313   190664109.004         313.676          37.000  
C07  37099457.559   193186583.975        -466.381          39.000  
C06  36402002.213   189554741.299        -125.903          43.000  
> 2023 10 05 13 47 53.0020000  0 17                     
G08  20845052.935   109541473.240        -198.052          44.000  
G27  21763317.978   114366991.555       -2557.352          47.000  
G04  22101208.569   116142641.814       -2017.192          38.000  
G09  22592085.654   118722198.990        -415.976          39.000  
G21  22428507.889   117862637.974        2585.903          44.000  
G16  23663968.298   124354941.762       -1970.187          44.000  
G31  24884251.257   130767548.409       -2820.248          37.000  
C03  37262698.901   194036614.478        -134.208          39.000  
C10  37768247.554   196669146.360        -402.892          40.000  
C27  23176254.951   120684803.459       -1308.522          44.000  
C01  37875154.725   197225828.283        -134.227          40.000  
C02  38054138.345   198157854.316        -154.510          42.000  
C16  36576043.635   190461027.345        -255.438          41.000  
C30  22843868.247   118953986.881        1574.743          45.000  
C09  36614984.162   190663794.941         314.562          37.000  
C07  37099547.008   193187049.727        -465.449          39.000  
C06  36402026.242   189554866.682        -125.165          43.000  
> 2023 10 05 13 47 54.0020000  0 17                     
G08  20845090.470   109541671.854        -199.767          44.000  
G27  21763804.717   114369549.434       -2558.767          47.000  
G04  22101592.299   116144659.547       -2018.531          38.000  
G09  22592164.983   118722615.545        -417.616          39.000  
G21  22428015.897   117860052.766        2584.429          44.000  
G16  23664343.565   124356912.336       -1971.168          44.000  
G31  24884788.061   130770369.134       -2821.609          37.000  
C03  37262724.570   194036748.751        -135.051          39.000  
C10  37768324.841   196669549.270        -403.592          40.000  
C27  23176506.165   120686112.571       -1310.122          44.000  
C01  37875180.603   197225963.008        -135.424          40.000  
C02  38054167.941   198158009.388        -155.762          42.000  
C16  36576092.635   190461283.061        -256.375          41.000  
C30  22843565.904   118952412.771        1573.164          45.000  
C09  36614923.889   190663480.850         313.220          37.000  
C07  37099636.388   193187515.356        -466.475          39.000  
C06  36402050.515   189554992.095        -126.221          43.000  
> 2023 10 05 13 47 55.0020000  0 17                     
G08  20845128.616   109541871.568        -200.417          44.000  
G27  21764291.648   114372108.220       -2559.273          47.000  
G04  22101976.500   116146678.284       -2019.110          38.000  
G09  22592244.434   118723033.221        -418.057          39.000  
G21  22427524.098   117857468.425        2583.792          44.000  
G16  23664718.814   124358883.413       -1971.363          44.000  
G31  24885325.074   130773190.629       -2821.603          37.000  
C03  37262750.571   194036883.548        -135.135          39.000  
C10  37768402.302   196669952.760        -404.139          40.000  
C27  23176757.709   120687422.716       -1310.713          44.000  
C01  37875206.430   197226098.256        -135.397          40.000  
C02  38054197.955   198158164.982        -155.821          42.000  
C16  36576141.967   190461539.493        -256.992          41.000  
C30  22843263.544   118950839.646        1572.621          45.000  
C09  36614863.721   190663167.409         312.520          37.000  
C07  37099726.187   193187981.520        -466.228          39.000  
C06  36402074.439   189555118.179        -126.257          43.000  
> 2023 10 05 13 47 56.0020000  0 17                     
G08  20845166.710   109542072.126        -200.609          44.000  
G27  21764778.422   114374667.674       -2559.366          47.000  
G04  22102360.789   116148697.794       -2019.569          38.000  
G09  22592324.234   118723451.810        -418.819          39.000  
G21  22427032.141   117854884.701        2583.724          44.000  
G16  23665094.011   124360854.763       -1971.258          44.000  
G31  24885862.384   130776012.661       -2821.859          37.000  
C03  37262776.537   194037018.623        -134.632          39.000  
C10  37768479.781   196670356.546        -403.713          40.000  
C27  23177009.324   120688733.637       -1311.133          44.000  
C01  37875232.413   197226233.781        -135.412          39.000  
C02  38054227.638   198158320.868        -155.737          42.000  
C16  36576191.421   190461796.339        -256.731          41.000  
C30  22842961.760   118949267.270        1572.278          45.000  
C09  36614803.692   190662854.336         313.662          37.000  
C07  37099815.829   193188447.992        -466.140          39.000  
C06  36402098.817   189555244.699        -126.373          43.000  
> 2023 10 05 13 47 57.0020000  0 17                     
G08  20845205.013   109542272.876        -201.098          44.000  
G27  21765265.091   114377227.123       -2559.559          47.000  
G04  22102745.060   116150717.371       -2019.817          38.000  
G09  22592404.173   118723870.585        -419.085          39.000  
G21  22426540.342   117852300.927        2583.526          44.000  
G16  23665469.016   124362825.680       -1970.833          44.000  
G31  24886399.397   130778834.553       -2821.858          37.000  
C03  37262802.416   194037153.320        -134.344          39.000  
C10  37768556.946   196670759.961        -403.370          40.000  
C27  23177261.358   120690044.671       -1311.245          44.000  
C01  37875258.431   197226368.925        -135.421          40.000  
C02  38054257.582   198158476.358        -155.723          42.000  
C16  36576240.508   190462052.971        -256.938          41.000  
C30  22842659.627   118947694.955        1572.059          45.000  
C09  36614743.628   190662541.063         313.126          37.000  
C07  37099905.558   193188914.128        -466.610          39.000  
C06  36402123.265   189555370.968        -126.324          43.000  
> 2023 10 05 13 47 58.0020000  0 17                     
G08  20845243.351   109542474.636        -202.445          44.000  
G27  21765752.231   114379787.412       -2560.962          47.000  
G04  22103129.628   116152737.835       -2021.039          38.000  
G09  22592484.165   118724290.423        -421.255          39.000  
G21  22426048.560   117849717.931        2582.399          44.000  
G16  23665844.405   124364797.015       -1971.785          44.000  
G31  24886936.497   130781657.125       -2823.337          37.000  
C03  37262828.678   194037288.474        -135.639          39.000  
C10  37768634.739   196671163.863        -404.445          40.000  
C27  23177513.391   120691356.629       -1312.683          44.000  
C01  37875284.293   197226504.486        -136.184          40.000  
C02  38054287.352   198158632.242        -156.304          42.000  
C16  36576289.857   190462310.204        -258.014          41.000  
C30  22842357.965   118946123.527        1570.681          45.000  
C09  36614683.669   190662228.305         312.390          37.000  
C07  37099995.165   193189380.685        -467.039          39.000  
C06  36402147.660   189555497.821        -127.246          43.000  
> 2023 10 05 13 47 59.0020000  0 17                     
G08  20845281.777   109542677.422        -202.766          44.000  
G27  21766239.441   114382348.510       -2561.503          46.000  
G04  22103513.865   116154759.182       -2021.217          38.000  
G09  22592564.261   118724711.210        -421.108          40.000  
G21  22425556.935   117847135.717        2582.035          44.000  
G16  23666219.760   124366768.752       -1971.708          44.000  
G31  24887473.911   130784480.386       -2823.628          37.000  
C03  37262854.732   194037423.990        -135.333          39.000  
C10  37768712.777   196671568.231        -404.079          40.000  
C27  23177765.582   120692669.516       -1313.290          44.000  
C01  37875310.468   197226640.447        -136.283          40.000  
C02  38054317.227   198158788.587        -156.220          42.000  
C16  36576339.486   190462567.996        -257.859          41.000  
C30  22842056.199   118944552.976        1570.389          45.000  
C09  36614623.553   190661916.125         311.910          37.000  
C07  37100084.789   193189847.694        -466.903          39.000  
C06  36402172.108   189555625.249        -127.655          43.000  
> 2023 10 05 13 48 00.0020000  0 17                     
G08  20845320.708   109542880.995        -203.750          44.000  
G27  21766726.948   114384910.153       -2561.784          46.000  
G04  22103898.485   116156781.258       -2021.989          37.000  
G09  22592644.358   118725132.800        -421.830          40.000  
G21  22425065.903   117844554.021        2581.580          44.000  
G16  23666595.341   124368740.640       -1971.487          44.000  
G31  24888011.867   130787304.021       -2823.990          39.000  
C03  37262880.628   194037559.722        -135.770          39.000  
C10  37768790.360   196671972.816        -404.365          40.000  
C27  23178017.842   120693983.067       -1313.685          44.000  
C01  37875336.312   197226776.600        -136.129          40.000  
C02  38054347.224   198158945.072        -156.655          41.000  
C16  36576389.009   190462826.115        -258.078          41.000  
C30  22841754.694   118942983.063        1569.755          45.000  
C09  36614563.629   190661604.194         312.214          37.000  
C07  37100174.396   193190314.905        -467.144          38.000  
C06  36402196.556   189555752.988        -127.734          44.000  
> 2023 10 05 13 48 01.0020000  0 17                     
G08  20845359.570   109543085.150        -204.330          44.000  
G27  21767214.036   114387472.228       -2562.233          47.000  
G04  22104283.175   116158803.826       -2022.878          37.000  
G09  22592724.943   118725555.034        -422.827          40.000  
G21  22424574.662   117841972.680        2581.246          44.000  
G16  23666970.695   124370712.556       -1971.947          44.000  
G31  24888549.613   130790127.975       -2824.086          39.000  
C03  37262906.611   194037695.430        -135.096          39.000  
C10  37768867.979   196672377.452        -404.852          40.000  
C27  23178270.050   120695297.155       -1314.271          44.000  
C01  37875362.138   197226912.795        -136.395          40.000  
C02  38054377.081   198159101.606        -156.465          41.000  
C16  36576438.516   190463084.467        -258.449          41.000  
C30  22841453.276   118941413.643        1569.121          45.000  
C09  36614503.461   190661292.447         311.773          37.000  
C07  37100263.951   193190782.183        -467.410          38.000  
C06  36402221.039   189555880.928        -127.887          44.000  
> 2023 10 05 13 48 02.0020000  0 17                     
G08  20845398.745   109543289.839        -205.056          44.000  
G27  21767701.490   114390034.625       -2562.628          47.000  
G04  22104668.162   116160826.782       -2023.489          37.000  
G09  22592805.266   118725977.751        -422.777          40.000  
G21  22424083.578   117839391.628        2580.584          44.000  
G16  23667346.049   124372684.370       -1971.890          44.000  
G31  24889087.324   130792952.093       -2824.391          39.000  
C03  37262932.629   194037831.170        -136.031          40.000  
C10  37768945.632   196672782.028        -404.413          40.000  
C27  23178522.537   120696611.682       -1314.829          44.000  
C01  37875388.226   197227048.879        -135.951          40.000  
C02  38054407.270   198159258.079        -156.507          41.000  
C16  36576488.493   190463342.894        -258.643          41.000  
C30  22841152.120   118939844.623        1568.539          45.000  
C09  36614443.729   190660980.778         311.512          37.000  
C07  37100353.540   193191249.408        -467.075          38.000  
C06  36402245.800   189556008.964        -128.314          44.000  
> 2023 10 05 13 48 03.0020000  0 17                     
G08  20845437.764   109543495.234        -205.670          44.000  
G27  21768189.311   114392597.526       -2563.046          47.000  
G04  22105052.956   116162850.290       -2023.567          37.000  
G09  22592886.148   118726401.248        -423.914          40.000  
G21  22423592.913   117836810.973        2580.954          44.000  
G16  23667721.107   124374656.281       -1971.830          44.000  
G31  24889625.331   130795776.576       -2824.646          39.000  
C03  37262958.787   194037966.928        -135.420          40.000  
C10  37769023.303   196673186.791        -404.519          40.000  
C27  23178775.059   120697926.813       -1315.291          44.000  
C01  37875414.419   197227185.127        -136.053          40.000  
C02  38054437.389   198159414.675        -156.657          41.000  
C16  36576538.104   190463601.599        -258.614          41.000  
C30  22840850.930   118938276.169        1568.277          45.000  
C09  36614384.154   190660669.336         311.658          37.000  
C07  37100443.339   193191716.794        -467.657          38.000  
C06  36402270.405   189556137.252        -128.217          44.000  
> 2023 10 05 13 48 04.0020000  0 17                     
G08  20845476.853   109543700.855        -205.289          44.000  
G27  21768676.905   114395160.470       -2562.592          47.000  
G04  22105437.716   116164873.918       -2022.936          37.000  
G09  22592966.733   118726824.946        -423.683          40.000  
G21  22423101.934   117834230.361        2580.846          44.000  
G16  23668096.426   124376627.813       -1970.862          44.000  
G31  24890162.798   130798600.988       -2824.304          38.000  
C03  37262984.840   194038102.404        -135.031          39.000  
C10  37769101.114   196673591.239        -404.151          40.000  
C27  23179027.651   120699242.094       -1314.991          44.000  
C01  37875440.612   197227321.046        -135.262          40.000  
C02  38054467.526   198159570.944        -156.020          41.000  
C16  36576587.506   190463860.131        -258.088          41.000  
C30  22840549.896   118936707.833        1568.542          45.000  
C09  36614324.369   190660357.681         311.694          37.000  
C07  37100532.876   193192183.824        -466.788          38.000  
C06  36402294.923   189556265.356        -127.887          43.000  
> 2023 10 05 13 48 05.0020000  0 17                     
G08  20845515.871   109543906.376        -206.079          44.000  
G27  21769164.866   114397723.089       -2562.952          47.000  
G04  22105822.825   116166897.367       -2023.994          37.000  
G09  22593047.440   118727248.547        -424.298          40.000  
G21  22422610.972   117831649.342        2580.621          44.000  
G16  23668471.693   124378598.633       -1971.039          44.000  
G31  24890699.671   130801424.895       -2824.204          37.000  
C03  37263010.894   194038237.159        -134.985          39.000  
C10  37769178.767   196673994.997        -403.899          40.000  
C27  23179280.313   120700557.193       -1315.625          44.000  
C01  37875466.613   197227456.206        -135.229          40.000  
C02  38054497.401   198159726.472        -155.631          41.000  
C16  36576637.047   190464118.116        -258.200          41.000  
C30  22840248.426   118935139.247        1568.128          45.000  
C09  36614264.201   190660045.412         311.836          37.000  
C07  37100622.657   193192650.180        -466.807          39.000  
C06  36402319.388   189556392.898        -127.875          43.000  
> 2023 10 05 13 48 06.0020000  0 17                     
G08  20845555.152   109544113.080        -207.485          44.000  
G27  21769652.687   114400286.713       -2564.139          47.000  
G04  22106208.004   116168921.874       -2025.343          37.000  
G09  22593128.270   118727673.339        -425.659          40.000  
G21  22422120.010   117829069.277        2579.303          44.000  
G16  23668846.838   124380570.027       -1971.791          44.000  
G31  24891236.737   130804249.672       -2825.398          37.000  
C03  37263036.790   194038372.506        -135.788          39.000  
C10  37769256.473   196674399.421        -404.501          40.000  
C27  23179533.010   120701873.380       -1316.782          44.000  
C01  37875492.962   197227591.996        -136.194          40.000  
C02  38054527.293   198159882.605        -156.377          41.000  
C16  36576686.693   190464376.875        -259.251          41.000  
C30  22839947.584   118933571.739        1566.738          45.000  
C09  36614204.347   190659733.878         311.053          37.000  
C07  37100712.439   193193117.186        -467.383          39.000  
C06  36402343.958   189556521.202        -128.918          43.000  
> 2023 10 05 13 48 07.0020000  0 17                     
G08  20845595.060   109544320.767        -207.883          44.000  
G27  21770140.804   114402851.127       -2564.364          47.000  
G04  22106593.322   116170947.262       -2025.544          37.000  
G09  22593209.448   118728099.145        -426.163          40.000  
G21  22421629.310   117826489.948        2579.307          44.000  
G16  23669222.192   124382541.809       -1971.539          44.000  
G31  24891774.378   130807075.116       -2825.238          37.000  
C03  37263062.703   194038508.265        -135.610          39.000  
C10  37769334.318   196674804.288        -404.996          40.000  
C27  23179785.916   120703190.481       -1317.235          44.000  
C01  37875519.330   197227728.186        -136.219          40.000  
C02  38054557.517   198160039.169        -156.609          41.000  
C16  36576736.600   190464636.190        -259.253          41.000  
C30  22839646.481   118932005.099        1566.344          45.000  
C09  36614144.510   190659422.898         311.154          37.000  
C07  37100802.552   193193584.619        -467.297          39.000  
C06  36402368.563   189556650.062        -128.900          43.000  
> 2023 10 05 13 48 08.0020000  0 17                     
G08  20845634.603   109544528.668        -208.107          44.000  
G27  21770628.764   114405415.577       -2564.721          47.000  
G04  22106978.535   116172972.763       -2025.996          37.000  
G09  22593290.958   118728525.177        -426.250          40.000  
G21  22421138.645   117823910.581        2579.409          44.000  
G16  23669597.651   124384513.213       -1971.398          44.000  
G31  24892311.757   130809900.445       -2825.353          37.000  
C03  37263089.123   194038643.669        -135.075          40.000  
C10  37769411.972   196675208.820        -404.418          40.000  
C27  23180038.665   120704507.715       -1317.468          44.000  
C01  37875545.348   197227864.016        -135.646          40.000  
C02  38054587.688   198160195.375        -156.247          41.000  
C16  36576786.421   190464895.322        -259.289          41.000  
C30  22839345.639   118930438.535        1566.487          45.000  
C09  36614085.040   190659111.660         311.302          37.000  
C07  37100892.507   193194051.712        -467.145          39.000  
C06  36402393.674   189556778.708        -128.766          43.000  
> 2023 10 05 13 48 09.0020000  0 17                     
G08  20845674.110   109544737.308        -209.164          44.000  
G27  21771117.022   114407980.576       -2565.515          47.000  
G04  22107364.098   116174998.898       -2026.622          37.000  
G09  22593372.328   118728951.981        -427.400          40.000  
G21  22420648.363   117821331.745        2578.309          45.000  
G16  23669972.918   124386484.768       -1971.809          44.000  
G31  24892849.276   130812726.203       -2826.450          37.000  
C03  37263115.002   194038779.246        -135.701          39.000  
C10  37769489.817   196675613.567        -405.107          40.000  
C27  23180291.675   120705825.621       -1318.317          44.000  
C01  37875571.366   197228000.021        -136.179          40.000  
C02  38054617.685   198160351.746        -156.570          41.000  
C16  36576836.398   190465154.773        -259.951          41.000  
C30  22839044.762   118928872.619        1565.541          45.000  
C09  36614025.342   190658800.755         310.589          37.000  
C07  37100982.236   193194519.017        -467.954          39.000  
C06  36402418.156   189556907.680        -129.260          43.000  
> 2023 10 05 13 48 10.0020000  0 17                     
G08  20845713.949   109544946.790        -209.865          44.000  
G27  21771605.750   114410546.217       -2566.007          47.000  
G04  22107749.608   116177025.788       -2027.495          37.000  
G09  22593453.856   118729379.635        -428.276          40.000  
G21  22420157.803   117818753.491        2578.041          45.000  
G16  23670348.185   124388456.562       -1972.019          45.000  
G31  24893387.057   130815552.438       -2826.609          37.000  
C03  37263140.967   194038915.085        -136.204          39.000  
C10  37769567.453   196676018.580        -404.992          40.000  
C27  23180544.860   120707144.283       -1318.855          44.000  
C01  37875597.559   197228136.280        -136.418          40.000  
C02  38054647.734   198160508.358        -156.374          41.000  
C16  36576886.358   190465414.650        -260.069          41.000  
C30  22838744.235   118927307.426        1564.823          45.000  
C09  36613965.628   190658490.224         310.342          37.000  
C07  37101072.053   193194986.580        -467.584          39.000  
C06  36402443.005   189557037.074        -129.578          43.000  
> 2023 10 05 13 48 11.0020000  0 17                     
G08  20845753.892   109545157.059        -210.744          44.000  
G27  21772094.356   114413112.481       -2566.647          47.000  
G04  22108135.415   116179053.328       -2027.964          37.000  
G09  22593535.523   118729808.075        -428.344          40.000  
G21  22419667.574   117816175.791        2577.288          45.000  
G16  23670723.417   124390428.537       -1972.041          45.000  
G31  24893924.995   130818379.156       -2827.098          37.000  
C03  37263166.933   194039051.107        -136.051          39.000  
C10  37769645.386   196676423.852        -405.020          40.000  
C27  23180798.220   120708463.656       -1319.639          44.000  
C01  37875623.595   197228272.742        -136.574          40.000  
C02  38054677.993   198160665.197        -156.716          41.000  
C16  36576936.475   190465674.884        -260.228          41.000  
C30  22838443.742   118925742.890        1564.347          45.000  
C09  36613905.965   190658180.026         310.138          37.000  
C07  37101161.747   193195454.363        -467.712          39.000  
C06  36402468.099   189557166.819        -129.895          43.000  
> 2023 10 05 13 48 12.0020000  0 17                     
G08  20845794.272   109545368.006        -211.209          44.000  
G27  21772582.945   114415679.161       -2566.865          47.000  
G04  22108521.100   116181081.416       -2028.464          37.000  
G09  22593617.504   118730237.212        -429.515          40.000  
G21  22419177.327   117813598.464        2577.335          45.000  
G16  23671098.701   124392400.551       -1971.783          45.000  
G31  24894462.846   130821206.164       -2826.904          37.000  
C03  37263193.004   194039187.186        -135.643          39.000  
C10  37769723.319   196676829.224        -405.141          40.000  
C27  23181051.667   120709783.580       -1319.974          44.000  
C01  37875649.718   197228409.249        -136.173          40.000  
C02  38054708.182   198160822.093        -156.711          41.000  
C16  36576986.400   190465935.338        -260.386          41.000  
C30  22838143.511   118924178.877        1563.794          45.000  
C09  36613846.600   190657870.025         309.978          37.000  
C07  37101251.546   193195922.240        -467.787          39.000  
C06  36402492.965   189557296.760        -129.803          43.000  
> 2023 10 05 13 48 13.0020000  0 17                     
G08  20845834.652   109545579.221        -211.829          44.000  
G27  21773071.673   114418245.913       -2567.159          47.000  
G04  22108907.500   116183109.645       -2028.920          37.000  
G09  22593699.258   118730666.575        -429.799          40.000  
G21  22418687.203   117811021.167        2576.826          45.000  
G16  23671474.212   124394372.230       -1972.000          45.000  
G31  24895000.766   130824033.102       -2827.042          37.000  
C03  37263219.162   194039322.985        -136.231          39.000  
C10  37769801.251   196677234.296        -405.131          40.000  
C27  23181304.992   120711103.695       -1320.578          44.000  
C01  37875675.980   197228545.450        -136.457          40.000  
C02  38054738.283   198160978.655        -156.750          41.000  
C16  36577036.116   190466195.653        -260.836          41.000  
C30  22837843.158   118922615.005        1563.447          45.000  
C09  36613787.199   190657559.813         309.329          37.000  
C07  37101341.257   193196389.838        -467.859          39.000  
C06  36402517.675   189557426.549        -130.347          43.000  
> 2023 10 05 13 48 14.0020000  0 17                     
G08  20845874.927   109545791.375        -212.328          44.000  
G27  21773560.541   114420813.433       -2567.416          47.000  
G04  22109293.586   116185138.728       -2029.198          37.000  
G09  22593781.152   118731096.932        -430.269          40.000  
G21  22418197.131   117808444.576        2576.551          45.000  
G16  23671849.619   124396344.256       -1971.860          45.000  
G31  24895538.844   130826860.664       -2827.676          37.000  
C03  37263245.337   194039459.114        -135.971          39.000  
C10  37769878.905   196677639.770        -404.916          40.000  
C27  23181558.893   120712424.678       -1320.986          44.000  
C01  37875702.051   197228682.004        -136.511          40.000  
C02  38054768.263   198161135.589        -156.697          41.000  
C16  36577086.303   190466456.482        -260.616          41.000  
C30  22837543.119   118921051.963        1562.919          45.000  
C09  36613728.043   190657250.070         309.626          37.000  
C07  37101431.231   193196857.831        -468.146          39.000  
C06  36402542.978   189557556.844        -130.096          43.000  
> 2023 10 05 13 48 15.0020000  0 17                     
G08  20845915.324   109546003.893        -213.170          44.000  
G27  21774049.251   114423381.114       -2568.127          47.000  
G04  22109679.812   116187168.037       -2029.235          37.000  
G09  22593863.133   118731527.642        -430.865          40.000  
G21  22417706.780   117805868.087        2576.242          45.000  
G16  23672224.990   124398316.035       -1971.972          45.000  
G31  24896077.235   130829688.211       -2827.509          38.000  
C03  37263271.652   194039595.026        -136.121          39.000  
C10  37769956.715   196678045.056        -405.421          40.000  
C27  23181812.409   120713745.929       -1321.632          44.000  
C01  37875728.331   197228818.341        -136.142          40.000  
C02  38054798.469   198161292.319        -156.899          41.000  
C16  36577136.402   190466717.262        -261.048          41.000  
C30  22837242.870   118919489.145        1562.624          45.000  
C09  36613668.224   190656940.234         309.979          37.000  
C07  37101521.012   193197325.581        -467.760          39.000  
C06  36402568.001   189557687.078        -130.457          43.000  
> 2023 10 05 13 48 16.0020000  0 17                     
G08  20845955.983   109546217.659        -214.395          44.000  
G27  21774538.154   114425949.845       -2569.449          47.000  
G04  22110066.142   116189198.525       -2031.345          37.000  
G09  22593945.394   118731959.638        -432.984          40.000  
G21  22417216.656   117803292.614        2574.916          45.000  
G16  23672600.048   124400288.448       -1972.794          45.000  
G31  24896615.592   130832516.721       -2829.186          38.000  
C03  37263297.618   194039731.591        -136.852          39.000  
C10  37770034.770   196678451.047        -406.335          40.000  
C27  23182066.397   120715068.337       -1322.893          44.000  
C01  37875754.681   197228955.342        -137.468          40.000  
C02  38054828.204   198161449.696        -157.776          41.000  
C16  36577186.449   190466978.856        -262.149          41.000  
C30  22836943.180   118917927.458        1561.080          45.000  
C09  36613608.701   190656631.226         308.724          37.000  
C07  37101611.195   193197794.057        -469.086          39.000  
C06  36402592.868   189557818.110        -131.525          43.000  
> 2023 10 05 13 48 17.0020000  0 17                     
G08  20845996.695   109546432.448        -214.607          44.000  
G27  21775027.179   114428519.353       -2569.287          47.000  
G04  22110452.856   116191229.850       -2031.453          37.000  
G09  22594027.706   118732392.574        -432.302          40.000  
G21  22416726.619   117800717.879        2574.687          45.000  
G16  23672975.577   124402261.251       -1972.365          45.000  
G31  24897154.385   130835345.843       -2829.045          38.000  
C03  37263323.933   194039868.581        -136.825          39.000  
C10  37770112.790   196678857.452        -405.963          40.000  
C27  23182320.699   120716391.632       -1323.054          45.000  
C01  37875781.135   197229092.735        -136.955          40.000  
C02  38054858.533   198161607.470        -157.337          41.000  
C16  36577236.828   190467241.001        -261.711          41.000  
C30  22836643.316   118916366.624        1560.929          45.000  
C09  36613549.649   190656322.721         308.919          37.000  
C07  37101701.482   193198262.935        -468.550          39.000  
C06  36402618.258   189557949.695        -131.427          43.000  
> 2023 10 05 13 48 18.0020000  0 17                     
G08  20846037.493   109546647.146        -214.770          44.000  
G27  21775515.960   114431088.603       -2569.323          47.000  
G04  22110839.553   116193260.990       -2031.537          37.000  
G09  22594110.455   118732825.501        -433.175          40.000  
G21  22416236.878   117798142.800        2575.086          45.000  
G16  23673350.861   124404233.369       -1972.009          45.000  
G31  24897692.776   130838174.557       -2828.810          38.000  
C03  37263350.283   194040004.884        -136.214          39.000  
C10  37770190.636   196679263.222        -405.471          40.000  
C27  23182574.879   120717714.798       -1323.495          45.000  
C01  37875807.660   197229229.468        -136.717          40.000  
C02  38054888.722   198161764.582        -156.864          41.000  
C16  36577287.050   190467502.664        -261.734          41.000  
C30  22836343.521   118914805.597        1560.949          45.000  
C09  36613490.284   190656013.687         309.134          37.000  
C07  37101791.281   193198731.170        -467.964          39.000  
C06  36402643.194   189558080.776        -130.804          43.000  
> 2023 10 05 13 48 19.0020000  0 17                     
G08  20846078.711   109546862.841        -216.163          44.000  
G27  21776005.177   114433658.680       -2570.521          47.000  
G04  22111226.302   116195293.041       -2032.253          37.000  
G09  22594192.785   118733259.441        -434.008          40.000  
G21  22415746.876   117795568.527        2573.888          45.000  
G16  23673726.250   124406205.913       -1972.672          45.000  
G31  24898231.342   130841003.958       -2829.552          38.000  
C03  37263376.458   194040141.645        -136.796          39.000  
C10  37770268.760   196679669.526        -406.410          40.000  
C27  23182829.443   120719038.884       -1324.460          45.000  
C01  37875833.905   197229366.647        -137.168          40.000  
C02  38054919.068   198161922.167        -157.837          41.000  
C16  36577337.237   190467764.929        -262.251          41.000  
C30  22836044.023   118913245.475        1559.749          45.000  
C09  36613431.023   190655705.213         308.447          37.000  
C07  37101881.202   193199199.909        -468.771          39.000  
C06  36402668.637   189558212.465        -131.891          43.000  
> 2023 10 05 13 48 20.0020000  0 17                     
G08  20846119.806   109547079.431        -217.028          44.000  
G27  21776494.254   114436229.478       -2571.188          47.000  
G04  22111613.121   116197325.917       -2033.037          37.000  
G09  22594275.447   118733694.331        -435.265          40.000  
G21  22415257.101   117792994.917        2573.107          45.000  
G16  23674101.709   124408178.772       -1973.044          45.000  
G31  24898769.926   130843833.957       -2830.181          38.000  
C03  37263402.354   194040278.717        -137.195          39.000  
C10  37770346.885   196680076.162        -406.713          40.000  
C27  23183084.042   120720363.804       -1325.383          45.000  
C01  37875860.324   197229504.151        -137.560          40.000  
C02  38054949.361   198162080.063        -158.232          41.000  
C16  36577387.703   190468027.693        -263.189          41.000  
C30  22835744.333   118911686.154        1558.563          45.000  
C09  36613372.111   190655397.211         308.033          37.000  
C07  37101971.454   193199668.989        -469.462          39.000  
C06  36402694.062   189558344.634        -132.434          43.000  
> 2023 10 05 13 48 21.0020000  0 17                     
G08  20846160.831   109547296.359        -217.011          44.000  
G27  21776983.540   114438800.417       -2570.879          47.000  
G04  22112000.097   116199359.024       -2033.258          37.000  
G09  22594358.144   118734129.563        -435.285          40.000  
G21  22414767.221   117790421.409        2573.531          45.000  
G16  23674476.993   124410151.358       -1972.307          44.000  
G31  24899308.335   130846663.959       -2830.101          38.000  
C03  37263428.565   194040415.571        -136.467          39.000  
C10  37770424.992   196680482.576        -406.262          40.000  
C27  23183338.466   120721688.987       -1325.161          45.000  
C01  37875886.604   197229641.398        -137.045          40.000  
C02  38054979.620   198162237.714        -157.109          41.000  
C16  36577438.274   190468290.401        -262.810          41.000  
C30  22835444.974   118910127.031        1559.140          45.000  
C09  36613313.042   190655089.102         308.206          38.000  
C07  37102061.515   193200137.843        -468.955          39.000  
C06  36402719.260   189558476.708        -132.019          43.000  
> 2023 10 05 13 48 22.0020000  0 17                     
G08  20846202.084   109547513.973        -217.617          44.000  
G27  21777472.862   114441371.842       -2571.387          47.000  
G04  22112387.091   116201392.694       -2033.759          37.000  
G09  22594440.893   118734565.472        -435.736          40.000  
G21  22414277.271   117787848.344        2572.993          45.000  
G16  23674852.225   124412124.040       -1972.415          44.000  
G31  24899846.988   130849494.297       -2830.552          38.000  
C03  37263454.949   194040552.539        -137.021          39.000  
C10  37770502.925   196680889.132        -406.423          40.000  
C27  23183593.169   120723014.772       -1325.924          45.000  
C01  37875912.902   197229778.797        -137.716          40.000  
C02  38055009.826   198162395.483        -157.521          41.000  
C16  36577488.775   190468553.310        -262.703          41.000  
C30  22835145.598   118908568.476        1558.511          45.000  
C09  36613254.287   190654781.218         307.869          38.000  
C07  37102151.523   193200606.820        -468.879          39.000  
C06  36402744.563   189558609.024        -132.373          43.000  
> 2023 10 05 13 48 23.0020000  0 17                     
G08  20846243.371   109547731.965        -218.492          44.000  
G27  21777962.131   114443943.432       -2571.842          47.000  
G04  22112774.259   116203426.612       -2034.380          37.000  
G09  22594523.816   118735001.769        -436.728          40.000  
G21  22413787.269   117785275.377        2572.727          45.000  
G16  23675227.370   124414096.458       -1972.430          44.000  
G31  24900385.397   130852324.661       -2830.490          38.000  
C03  37263481.177   194040689.226        -136.399          39.000  
C10  37770580.910   196681295.508        -406.499          40.000  
C27  23183847.785   120724340.819       -1326.487          45.000  
C01  37875939.269   197229915.911        -137.426          40.000  
C02  38055040.155   198162553.044        -158.073          41.000  
C16  36577539.415   190468816.202        -263.397          41.000  
C30  22834846.572   118907010.160        1558.024          45.000  
C09  36613195.236   190654473.182         308.067          38.000  
C07  37102241.497   193201075.598        -468.706          39.000  
C06  36402770.319   189558741.285        -132.416          43.000  
> 2023 10 05 13 48 24.0020000  0 17                     
G08  20846285.182   109547950.794        -218.938          44.000  
G27  21778451.540   114446515.654       -2572.088          47.000  
G04  22113161.235   116205461.251       -2034.519          37.000  
G09  22594606.600   118735438.900        -436.904          40.000  
G21  22413297.599   117782703.013        2572.584          45.000  
G16  23675602.794   124416069.117       -1972.265          44.000  
G31  24900924.033   130855155.517       -2830.571          38.000  
C03  37263507.422   194040826.213        -136.875          39.000  
C10  37770659.122   196681702.164        -406.362          40.000  
C27  23184102.768   120725667.622       -1326.646          45.000  
C01  37875965.392   197230053.295        -136.940          40.000  
C02  38055070.431   198162710.824        -157.613          41.000  
C16  36577589.968   190469079.479        -262.849          41.000  
C30  22834547.440   118905452.562        1557.705          45.000  
C09  36613136.062   190654165.580         307.888          38.000  
C07  37102331.697   193201544.664        -468.739          39.000  
C06  36402795.971   189558873.935        -132.330          43.000  
> 2023 10 05 13 48 25.0020000  0 17                     
G08  20846326.888   109548169.740        -219.218          44.000  
G27  21778940.548   114449087.804       -2572.252          47.000  
G04  22113548.525   116207495.897       -2034.985          37.000  
G09  22594689.506   118735876.184        -437.570          40.000  
G21  22412807.963   117780130.532        2572.194          44.000  
G16  23675978.166   124418041.298       -1972.163          44.000  
G31  24901462.739   130857986.154       -2830.829          38.000  
C03  37263533.842   194040962.733        -136.704          39.000  
C10  37770737.299   196682108.425        -406.075          40.000  
C27  23184357.541   120726994.461       -1327.029          45.000  
C01  37875991.899   197230190.202        -136.693          40.000  
C02  38055100.567   198162868.119        -157.133          41.000  
C16  36577640.295   190469342.481        -263.017          40.000  
C30  22834248.483   118903894.960        1557.339          45.000  
C09  36613076.941   190653857.633         307.774          38.000  
C07  37102421.949   193202013.264        -468.282          39.000  
C06  36402821.221   189559006.283        -132.312          43.000  
> 2023 10 05 13 48 26.0020000  0 17                     
G08  20846368.698   109548389.918        -221.005          44.000  
G27  21779429.921   114451661.000       -2573.813          47.000  
G04  22113936.339   116209531.681       -2036.759          37.000  
G09  22594772.708   118736314.697        -439.314          40.000  
G21  22412318.589   117777559.031        2570.852          44.000  
G16  23676353.502   124420014.103       -1973.244          44.000  
G31  24902001.514   130860817.686       -2831.902          38.000  
C03  37263560.261   194041099.896        -137.845          39.000  
C10  37770815.266   196682515.347        -407.439          40.000  
C27  23184612.471   120728322.457       -1328.746          45.000  
C01  37876018.284   197230327.770        -137.654          40.000  
C02  38055130.878   198163026.079        -158.328          41.000  
C16  36577690.953   190469606.293        -264.409          40.000  
C30  22833949.334   118902338.468        1555.534          45.000  
C09  36613018.098   190653550.407         306.936          38.000  
C07  37102512.202   193202482.551        -469.514          39.000  
C06  36402847.013   189559139.421        -133.649          43.000  
> 2023 10 05 13 48 27.0020000  0 17                     
G08  20846410.771   109548611.032        -221.431          44.000  
G27  21779919.540   114454234.953       -2574.176          47.000  
G04  22114324.117   116211568.300       -2036.847          37.000  
G09  22594855.876   118736754.171        -439.678          40.000  
G21  22411829.093   117774988.259        2570.438          44.000  
G16  23676728.961   124421987.261       -1973.072          44.000  
G31  24902540.412   130863649.862       -2832.266          38.000  
C03  37263586.751   194041237.426        -137.795          39.000  
C10  37770893.234   196682922.658        -407.506          40.000  
C27  23184867.716   120729651.326       -1329.245          45.000  
C01  37876044.686   197230465.726        -138.021          40.000  
C02  38055161.067   198163184.412        -158.403          41.000  
C16  36577741.733   190469870.641        -265.030          40.000  
C30  22833650.516   118900782.802        1555.365          45.000  
C09  36612959.466   190653243.761         306.177          38.000  
C07  37102602.245   193202952.255        -470.045          39.000  
C06  36402872.560   189559273.094        -133.905          43.000  
> 2023 10 05 13 48 28.0020000  0 17                     
G08  20846452.808   109548832.333        -221.487          44.000  
G27  21780409.001   114456808.858       -2574.229          47.000  
G04  22114711.809   116213604.945       -2036.918          37.000  
G09  22594939.288   118737193.812        -440.017          40.000  
G21  22411339.702   117772417.378        2570.532          44.000  
G16  23677104.333   124423959.963       -1972.625          44.000  
G31  24903079.152   130866481.837       -2831.909          38.000  
C03  37263613.275   194041374.519        -137.344          39.000  
C10  37770971.358   196683329.582        -407.101          40.000  
C27  23185122.785   120730980.249       -1329.305          45.000  
C01  37876071.053   197230603.230        -137.533          40.000  
C02  38055191.309   198163342.348        -158.240          41.000  
C16  36577792.373   190470134.683        -264.175          40.000  
C30  22833351.925   118899227.171        1555.321          45.000  
C09  36612900.606   190652936.753         306.875          38.000  
C07  37102692.620   193203421.538        -469.480          39.000  
C06  36402898.247   189559406.491        -133.435          43.000  
> 2023 10 05 13 48 29.0020000  0 17                     
G08  20846495.300   109549054.322        -222.464          44.000  
G27  21780898.584   114459383.238       -2574.778          46.000  
G04  22115099.623   116215642.149       -2037.538          37.000  
G09  22595022.508   118737634.155        -440.804          40.000  
G21  22410850.380   117769846.924        2570.258          44.000  
G16  23677479.635   124425932.748       -1972.936          44.000  
G31  24903617.980   130869314.139       -2832.405          38.000  
C03  37263639.468   194041511.696        -137.336          39.000  
C10  37771049.675   196683736.631        -406.963          40.000  
C27  23185378.152   120732309.764       -1329.734          45.000  
C01  37876097.403   197230740.841        -137.821          40.000  
C02  38055221.829   198163500.334        -157.968          41.000  
C16  36577843.276   190470399.009        -264.343          40.000  
C30  22833053.073   118897672.102        1554.623          45.000  
C09  36612841.624   190652629.964         306.928          38.000  
C07  37102783.012   193203890.907        -469.437          39.000  
C06  36402923.881   189559540.128        -133.813          43.000  
> 2023 10 05 13 48 30.0020000  0 17                     
G08  20846537.564   109549276.991        -223.287          44.000  
G27  21781388.464   114461958.115       -2575.389          46.000  
G04  22115487.489   116217679.956       -2038.237          37.000  
G09  22595106.200   118738075.183        -441.340          40.000  
G21  22410361.181   117767276.935        2569.672          44.000  
G16  23677854.815   124427905.617       -1973.199          44.000  
G31  24904157.157   130872146.838       -2833.138          38.000  
C03  37263665.783   194041649.006        -137.500          39.000  
C10  37771127.695   196684143.845        -407.696          40.000  
C27  23185633.466   120733639.892       -1330.404          45.000  
C01  37876123.892   197230878.548        -138.107          40.000  
C02  38055252.018   198163658.448        -158.050          41.000  
C16  36577893.916   190470663.617        -264.854          40.000  
C30  22832754.709   118896117.598        1554.054          45.000  
C09  36612782.800   190652323.463         305.851          37.000  
C07  37102872.968   193204360.474        -470.037          39.000  
C06  36402949.760   189559674.048        -134.296          43.000  
> 2023 10 05 13 48 31.0020000  0 17                     
G08  20846580.090   109549500.331        -223.165          44.000  
G27  21781878.309   114464533.464       -2575.086          46.000  
G04  22115875.354   116219718.319       -2038.136          37.000  
G09  22595190.065   118738516.927        -441.916          39.000  
G21  22409872.156   117764707.380        2569.569          44.000  
G16  23678230.064   124429878.548       -1972.630          44.000  
G31  24904696.212   130874979.848       -2832.789          38.000  
C03  37263692.325   194041786.395        -137.118          39.000  
C10  37771205.837   196684551.161        -407.094          40.000  
C27  23185889.059   120734970.620       -1330.651          45.000  
C01  37876150.138   197231016.345        -137.562          40.000  
C02  38055282.503   198163816.692        -158.096          41.000  
C16  36577944.749   190470928.477        -264.485          40.000  
C30  22832456.258   118894563.650        1553.976          45.000  
C09  36612724.097   190652017.132         306.551          37.000  
C07  37102963.133   193204830.090        -469.329          39.000  
C06  36402975.150   189559808.192        -133.948          43.000  
> 2023 10 05 13 48 32.0020000  0 17                     
G08  20846622.774   109549724.273        -224.189          44.000  
G27  21782368.154   114467109.211       -2575.852          46.000  
G04  22116263.255   116221757.168       -2039.285          37.000  
G09  22595274.193   118738959.254        -442.620          39.000  
G21  22409383.236   117762138.164        2569.073          44.000  
G16  23678605.418   124431851.465       -1972.981          44.000  
G31  24905235.476   130877813.114       -2833.663          38.000  
C03  37263718.762   194041923.808        -137.453          39.000  
C10  37771283.961   196684958.513        -407.381          40.000  
C27  23186144.565   120736301.849       -1331.540          45.000  
C01  37876176.400   197231154.176        -138.075          40.000  
C02  38055312.745   198163974.865        -157.942          41.000  
C16  36577995.546   190471193.493        -264.940          40.000  
C30  22832158.051   118893010.166        1553.344          45.000  
C09  36612665.272   190651710.960         306.068          37.000  
C07  37103053.316   193205299.774        -469.734          39.000  
C06  36403000.906   189559942.487        -134.271          43.000  
> 2023 10 05 13 48 33.0020000  0 17                     
G08  20846665.474   109549948.517        -224.596          44.000  
G27  21782858.121   114469685.068       -2576.124          46.000  
G04  22116651.418   116223796.194       -2039.221          37.000  
G09  22595358.390   118739401.891        -442.995          40.000  
G21  22408894.437   117759569.009        2568.977          44.000  
G16  23678980.563   124433824.082       -1972.757          44.000  
G31  24905774.827   130880646.349       -2833.661          38.000  
C03  37263744.710   194042060.921        -137.057          39.000  
C10  37771361.999   196685365.600        -406.988          40.000  
C27  23186400.368   120737633.294       -1331.760          45.000  
C01  37876202.837   197231291.681        -137.615          40.000  
C02  38055343.021   198164132.820        -157.854          41.000  
C16  36578046.710   190471458.405        -264.925          40.000  
C30  22831859.984   118891456.862        1553.099          45.000  
C09  36612606.448   190651404.627         305.981          37.000  
C07  37103143.795   193205769.208        -469.408          39.000  
C06  36403026.977   189560076.684        -134.570          43.000  
> 2023 10 05 13 48 34.0020000  0 17                     
G08  20846708.629   109550173.506        -225.199          44.000  
G27  21783348.176   114472261.478       -2576.624          46.000  
G04  22117039.528   116225835.862       -2040.087          37.000  
G09  22595442.657   118739845.316        -443.673          39.000  
G21  22408405.570   117757000.375        2568.498          44.000  
G16  23679355.795   124435796.847       -1972.906          44.000  
G31  24906314.091   130883479.988       -2833.565          38.000  
C03  37263771.130   194042198.205        -137.267          39.000  
C10  37771440.525   196685772.938        -407.300          40.000  
C27  23186655.996   120738965.405       -1332.290          45.000  
C01  37876229.571   197231429.374        -137.562          40.000  
C02  38055373.524   198164290.918        -157.991          41.000  
C16  36578097.682   190471723.649        -265.368          40.000  
C30  22831561.795   118889904.200        1552.267          45.000  
C09  36612547.536   190651098.573         306.023          37.000  
C07  37103233.960   193206238.821        -469.511          39.000  
C06  36403052.524   189560211.171        -134.583          43.000  
> 2023 10 05 13 48 35.0020000  0 17                     
G08  20846751.835   109550398.751        -225.929          44.000  
G27  21783838.300   114474837.922       -2576.844          46.000  
G04  22117427.569   116227875.632       -2040.058          37.000  
G09  22595526.924   118740288.980        -444.379          39.000  
G21  22407916.737   117754431.734        2568.052          45.000  
G16  23679730.887   124437769.256       -1972.899          44.000  
G31  24906853.128   130886313.557       -2833.932          38.000  
C03  37263797.462   194042335.159        -137.224          39.000  
C10  37771519.068   196686179.967        -407.220          40.000  
C27  23186911.764   120740297.683       -1332.810          45.000  
C01  37876256.060   197231566.729        -137.525          40.000  
C02  38055404.044   198164448.708        -158.332          41.000  
C16  36578148.812   190471988.699        -265.128          40.000  
C30  22831263.431   118888351.652        1551.982          45.000  
C09  36612488.711   190650792.326         305.673          37.000  
C07  37103324.038   193206708.118        -469.518          39.000  
C06  36403078.246   189560345.491        -134.766          43.000  
> 2023 10 05 13 48 36.0020000  0 17                     
G08  20846794.885   109550625.343        -227.192          44.000  
G27  21784328.878   114477415.561       -2578.229          46.000  
G04  22117816.115   116229916.723       -2041.862          37.000  
G09  22595611.663   118740734.021        -445.804          39.000  
G21  22407428.235   117751864.218        2566.958          45.000  
G16  23680106.381   124439742.429       -1973.529          44.000  
G31  24907392.742   130889148.151       -2834.999          38.000  
C03  37263823.742   194042472.889        -137.881          39.000  
C10  37771597.245   196686587.788        -408.116          40.000  
C27  23187167.899   120741631.245       -1334.237          45.000  
C01  37876282.689   197231704.871        -138.510          40.000  
C02  38055434.600   198164607.252        -158.807          41.000  
C16  36578199.871   190472254.710        -266.432          40.000  
C30  22830965.573   118886800.359        1550.722          45.000  
C09  36612430.166   190650486.987         304.783          37.000  
C07  37103414.326   193207178.228        -470.353          39.000  
C06  36403104.212   189560480.733        -135.809          43.000  
> 2023 10 05 13 48 37.0020000  0 17                     
G08  20846838.423   109550852.779        -227.318          44.000  
G27  21784819.404   114479993.815       -2578.169          46.000  
G04  22118204.330   116231958.520       -2042.323          37.000  
G09  22595696.610   118741179.917        -446.342          39.000  
G21  22406939.908   117749297.288        2566.942          45.000  
G16  23680481.666   124441715.835       -1973.315          44.000  
G31  24907932.267   130891983.219       -2834.713          38.000  
C03  37263850.109   194042610.880        -137.968          39.000  
C10  37771675.806   196686995.907        -407.879          40.000  
C27  23187424.347   120742965.557       -1334.495          45.000  
C01  37876309.423   197231843.260        -138.049          40.000  
C02  38055465.242   198164766.048        -158.761          41.000  
C16  36578251.140   190472521.129        -266.381          40.000  
C30  22830667.803   118885249.756        1550.556          45.000  
C09  36612371.568   190650182.024         304.983          37.000  
C07  37103504.823   193207648.592        -469.995          39.000  
C06  36403129.951   189560616.385        -135.687          43.000  
> 2023 10 05 13 48 38.0020000  0 17                     
G08  20846881.892   109551080.170        -227.960          44.000  
G27  21785309.860   114482571.835       -2578.604          46.000  
G04  22118592.685   116234000.107       -2041.924          37.000  
G09  22595781.523   118741625.747        -446.481          40.000  
G21  22406451.477   117746730.079        2566.750          45.000  
G16  23680856.967   124443688.580       -1972.977          44.000  
G31  24908471.671   130894817.942       -2835.295          38.000  
C03  37263876.756   194042748.247        -137.709          39.000  
C10  37771754.018   196687403.438        -407.678          40.000  
C27  23187680.673   120744299.720       -1334.674          45.000  
C01  37876335.790   197231981.007        -138.133          40.000  
C02  38055495.518   198164924.224        -158.354          41.000  
C16  36578302.147   190472787.104        -266.468          40.000  
C30  22830370.050   118883699.018        1549.906          45.000  
C09  36612312.848   190649876.547         305.450          37.000  
C07  37103595.075   193208118.381        -469.896          39.000  
C06  36403155.760   189560751.564        -135.498          43.000  
> 2023 10 05 13 48 39.0020000  0 17                     
G08  20846925.291   109551308.552        -228.780          44.000  
G27  21785800.769   114485150.624       -2579.050          46.000  
G04  22118981.249   116236042.579       -2042.842          37.000  
G09  22595866.471   118742072.595        -447.636          39.000  
G21  22405963.028   117744163.610        2566.257          45.000  
G16  23681232.252   124445661.714       -1973.200          44.000  
G31  24909011.267   130897653.289       -2835.647          38.000  
C03  37263903.088   194042885.986        -137.720          39.000  
C10  37771832.178   196687811.389        -408.066          40.000  
C27  23187937.261   120745634.785       -1335.338          45.000  
C01  37876362.367   197232119.171        -138.577          40.000  
C02  38055526.004   198165082.827        -158.962          41.000  
C16  36578352.909   190473053.613        -266.914          40.000  
C30  22830072.628   118882149.101        1549.698          45.000  
C09  36612254.058   190649571.598         304.856          37.000  
C07  37103685.397   193208588.590        -470.170          39.000  
C06  36403182.127   189560887.272        -135.858          43.000  
> 2023 10 05 13 48 40.0020000  0 17                     
G08  20846968.934   109551537.815        -229.554          44.000  
G27  21786291.818   114487730.112       -2579.946          46.000  
G04  22119369.900   116238085.840       -2043.546          37.000  
G09  22595951.802   118742520.319        -448.407          39.000  
G21  22405474.806   117741597.783        2565.481          45.000  
G16  23681607.536   124447635.129       -1973.575          44.000  
G31  24909550.862   130900489.187       -2836.284          38.000  
C03  37263929.595   194043024.060        -138.673          39.000  
C10  37771910.581   196688219.695        -408.611          40.000  
C27  23188193.849   120746970.653       -1336.145          45.000  
C01  37876388.874   197232257.584        -138.255          40.000  
C02  38055556.507   198165241.683        -158.994          41.000  
C16  36578403.969   190473320.564        -266.928          40.000  
C30  22829775.399   118880599.959        1548.712          46.000  
C09  36612195.443   190649267.059         304.508          37.000  
C07  37103775.667   193209059.078        -470.358          39.000  
C06  36403208.372   189561023.440        -136.353          43.000  
> 2023 10 05 13 48 41.0020000  0 17                     
G08  20847012.838   109551767.550        -230.268          44.000  
G27  21786782.710   114490309.828       -2580.007          46.000  
G04  22119758.499   116240129.415       -2043.690          37.000  
G09  22596037.169   118742968.520        -448.789          39.000  
G21  22404986.583   117739032.154        2565.262          45.000  
G16  23681982.821   124449608.377       -1973.321          44.000  
G31  24910090.301   130903325.176       -2836.143          38.000  
C03  37263956.172   194043161.948        -137.979          39.000  
C10  37771989.107   196688627.872        -408.318          40.000  
C27  23188450.420   120748306.887       -1336.654          45.000  
C01  37876415.416   197232395.910        -138.271          40.000  
C02  38055587.062   198165400.417        -158.808          41.000  
C16  36578455.220   190473587.562        -267.172          40.000  
C30  22829478.012   118879051.154        1548.402          46.000  
C09  36612136.758   190648962.526         304.491          37.000  
C07  37103866.147   193209529.506        -470.659          39.000  
C06  36403234.547   189561159.632        -136.438          43.000  
> 2023 10 05 13 48 42.0020000  0 17                     
G08  20847056.603   109551997.870        -230.497          44.000  
G27  21787273.899   114492889.964       -2580.197          46.000  
G04  22120147.377   116242173.493       -2043.983          37.000  
G09  22596122.937   118743417.305        -449.056          40.000  
G21  22404498.605   117736466.890        2565.277          45.000  
G16  23682358.384   124451581.634       -1973.041          44.000  
G31  24910629.984   130906161.454       -2836.400          38.000  
C03  37263982.714   194043299.859        -137.476          39.000  
C10  37772067.703   196689036.106        -408.113          40.000  
C27  23188707.130   120749643.615       -1336.780          45.000  
C01  37876442.080   197232534.240        -138.268          40.000  
C02  38055617.495   198165559.162        -158.417          41.000  
C16  36578506.367   190473854.746        -267.065          40.000  
C30  22829180.695   118877502.821        1548.139          45.000  
C09  36612078.125   190648658.140         304.460          37.000  
C07  37103956.556   193209999.966        -470.837          39.000  
C06  36403260.915   189561295.978        -136.151          43.000  
> 2023 10 05 13 48 43.0020000  0 17                     
G08  20847100.561   109552228.768        -231.470          44.000  
G27  21787765.297   114495470.466       -2580.723          46.000  
G04  22120536.133   116244218.020       -2044.691          36.000  
G09  22596208.757   118743866.701        -450.254          40.000  
G21  22404010.453   117733901.950        2564.631          45.000  
G16  23682733.843   124453554.864       -1973.492          44.000  
G31  24911169.667   130908997.946       -2836.532          38.000  
C03  37264009.343   194043437.783        -138.021          39.000  
C10  37772146.212   196689444.383        -408.381          40.000  
C27  23188964.050   120750980.848       -1337.616          45.000  
C01  37876468.517   197232672.560        -138.627          40.000  
C02  38055647.894   198165717.939        -159.354          41.000  
C16  36578557.914   190474122.072        -267.286          40.000  
C30  22828883.431   118875954.940        1547.456          45.000  
C09  36612019.457   190648353.888         303.435          37.000  
C07  37104046.914   193210470.396        -470.286          39.000  
C06  36403287.003   189561432.484        -136.877          43.000  
> 2023 10 05 13 48 44.0020000  0 17                     
G08  20847144.762   109552460.487        -232.132          45.000  
G27  21788256.521   114498051.606       -2581.340          46.000  
G04  22120925.168   116246263.279       -2045.494          36.000  
G09  22596294.682   118744316.913        -450.576          40.000  
G21  22403522.388   117731337.601        2564.176          45.000  
G16  23683109.250   124455528.300       -1973.381          44.000  
G31  24911709.175   130911834.972       -2837.494          38.000  
C03  37264035.797   194043575.951        -138.375          39.000  
C10  37772224.406   196689852.942        -408.754          40.000  
C27  23189221.004   120752318.826       -1338.286          45.000  
C01  37876495.093   197232811.106        -138.674          40.000  
C02  38055678.327   198165876.904        -158.849          41.000  
C16  36578609.288   190474389.816        -267.611          40.000  
C30  22828586.463   118874407.762        1546.987          46.000  
C09  36611961.121   190648049.963         303.887          37.000  
C07  37104137.288   193210941.159        -470.840          39.000  
C06  36403313.230   189561569.380        -137.134          43.000  
> 2023 10 05 13 48 45.0020000  0 17                     
G08  20847189.190   109552692.795        -232.427          44.000  
G27  21788747.797   114500633.138       -2581.772          47.000  
G04  22121314.500   116248308.996       -2046.273          36.000  
G09  22596380.589   118744767.747        -451.266          40.000  
G21  22403034.358   117728773.609        2563.879          45.000  
G16  23683484.778   124457501.733       -1973.450          44.000  
G31  24912248.980   130914672.192       -2837.079          37.000  
C03  37264062.653   194043714.121        -137.911          39.000  
C10  37772302.932   196690261.512        -408.582          40.000  
C27  23189477.889   120753657.304       -1338.743          45.000  
C01  37876521.583   197232949.665        -138.426          40.000  
C02  38055708.847   198166035.909        -158.880          41.000  
C16  36578660.714   190474657.729        -267.822          40.000  
C30  22828289.164   118872861.059        1546.611          45.000  
C09  36611902.680   190647746.181         304.270          37.000  
C07  37104227.471   193211411.893        -470.636          39.000  
C06  36403339.650   189561706.420        -137.012          43.000  
> 2023 10 05 13 48 46.0020000  0 17                     
G08  20847233.496   109552925.271        -232.700          44.000  
G27  21789239.387   114503214.660       -2581.869          47.000  
G04  22121703.762   116250354.783       -2045.781          37.000  
G09  22596466.409   118745218.775        -451.543          40.000  
G21  22402546.467   117726209.558        2563.947          45.000  
G16  23683860.237   124459474.764       -1973.112          43.000  
G31  24912789.117   130917509.300       -2837.014          37.000  
C03  37264088.898   194043851.899        -137.850          39.000  
C10  37772381.406   196690669.742        -408.248          40.000  
C27  23189734.930   120754995.884       -1338.796          45.000  
C01  37876548.177   197233087.831        -138.027          40.000  
C02  38055738.984   198166194.517        -158.780          41.000  
C16  36578712.122   190474925.402        -267.759          40.000  
C30  22827991.969   118871314.429        1546.334          45.000  
C09  36611844.083   190647442.180         303.616          37.000  
C07  37104317.915   193211882.295        -470.496          39.000  
C06  36403366.104   189561843.242        -136.963          43.000  
> 2023 10 05 13 48 47.0020000  0 17                     
G08  20847277.942   109553158.324        -232.816          44.000  
G27  21789730.925   114505796.535       -2581.687          47.000  
G04  22122093.111   116252401.064       -2046.871          37.000  
G09  22596552.317   118745670.364        -451.410          40.000  
G21  22402058.280   117723645.848        2563.946          45.000  
G16  23684235.591   124461447.741       -1972.638          44.000  
G31  24913328.974   130920346.637       -2836.721          38.000  
C03  37264115.388   194043989.663        -137.313          39.000  
C10  37772459.844   196691077.980        -407.677          40.000  
C27  23189992.286   120756334.966       -1339.001          45.000  
C01  37876574.911   197233225.997        -137.600          40.000  
C02  38055769.801   198166353.114        -158.222          41.000  
C16  36578763.548   190475193.229        -267.241          40.000  
C30  22827694.896   118869768.240        1546.467          45.000  
C09  36611785.816   190647138.258         303.948          37.000  
C07  37104408.465   193212352.682        -469.639          39.000  
C06  36403392.123   189561980.207        -136.945          43.000  
> 2023 10 05 13 48 48.0020000  0 17                     
G08  20847322.510   109553391.539        -233.936          45.000  
G27  21790222.724   114508378.378       -2582.261          47.000  
G04  22122482.391   116254447.313       -2046.586          37.000  
G09  22596638.364   118746122.129        -452.380          40.000  
G21  22401570.546   117721082.033        2563.241          45.000  
G16  23684610.893   124463420.259       -1972.774          44.000  
G31  24913868.797   130923183.794       -2837.432          38.000  
C03  37264141.720   194044127.003        -137.671          39.000  
C10  37772538.021   196691485.831        -408.379          40.000  
C27  23190249.363   120757674.087       -1339.810          45.000  
C01  37876601.226   197233363.711        -138.071          40.000  
C02  38055800.059   198166511.283        -158.393          41.000  
C16  36578815.043   190475460.803        -267.841          40.000  
C30  22827398.086   118868222.077        1545.690          45.000  
C09  36611727.445   190646834.028         303.628          37.000  
C07  37104498.525   193212822.702        -470.734          39.000  
C06  36403418.281   189562116.874        -137.292          43.000  
> 2023 10 05 13 48 49.0020000  0 17                     
G08  20847367.165   109553626.197        -235.734          44.000  
G27  21790714.401   114510961.456       -2583.794          47.000  
G04  22122871.984   116256494.949       -2048.247          37.000  
G09  22596724.882   118746575.342        -454.055          40.000  
G21  22401082.725   117718519.423        2561.750          45.000  
G16  23684986.649   124465393.619       -1973.906          44.000  
G31  24914409.509   130926022.062       -2839.041          38.000  
C03  37264168.175   194044265.192        -138.889          39.000  
C10  37772616.547   196691894.549        -409.112          40.000  
C27  23190506.945   120759014.578       -1341.257          45.000  
C01  37876627.715   197233502.303        -139.409          40.000  
C02  38055830.650   198166670.305        -159.674          41.000  
C16  36578866.434   190475729.377        -269.336          40.000  
C30  22827101.310   118866677.230        1544.089          45.000  
C09  36611668.987   190646530.766         302.815          37.000  
C07  37104588.935   193213293.535        -471.138          39.000  
C06  36403444.700   189562254.557        -138.354          43.000  
> 2023 10 05 13 48 50.0020000  0 17                     
G08  20847411.768   109553861.811        -235.983          44.000  
G27  21791206.306   114513545.319       -2584.226          47.000  
G04  22123261.543   116258543.431       -2048.501          36.000  
G09  22596811.557   118747029.526        -454.311          40.000  
G21  22400595.411   117715957.535        2561.642          45.000  
G16  23685362.212   124467367.335       -1973.643          44.000  
G31  24914949.960   130928860.952       -2839.418          38.000  
C03  37264194.594   194044403.735        -138.207          39.000  
C10  37772695.178   196692303.713        -409.181          40.000  
C27  23190764.528   120760355.955       -1341.761          45.000  
C01  37876654.431   197233641.251        -139.038          40.000  
C02  38055861.432   198166829.707        -159.859          41.000  
C16  36578918.227   190475998.502        -269.277          40.000  
C30  22826804.900   118865133.242        1543.710          45.000  
C09  36611610.738   190646228.037         302.567          37.000  
C07  37104679.100   193213764.821        -471.090          39.000  
C06  36403471.033   189562392.782        -138.635          43.000  
> 2023 10 05 13 48 51.0020000  0 17                     
G08  20847456.719   109554098.118        -236.384          45.000  
G27  21791698.192   114516129.643       -2584.273          47.000  
G04  22123651.154   116260592.451       -2048.995          36.000  
G09  22596898.285   118747484.408        -454.770          41.000  
G21  22400107.782   117713396.093        2561.530          45.000  
G16  23685737.601   124469341.129       -1973.229          44.000  
G31  24915490.341   130931700.179       -2839.241          38.000  
C03  37264221.223   194044542.415        -138.308          39.000  
C10  37772773.704   196692713.005        -408.918          40.000  
C27  23191022.233   120761697.904       -1341.906          45.000  
C01  37876680.991   197233780.297        -138.841          40.000  
C02  38055891.987   198166989.198        -159.139          41.000  
C16  36578969.984   190476267.908        -269.612          40.000  
C30  22826508.700   118863589.803        1543.378          45.000  
C09  36611552.734   190645925.526         302.548          37.000  
C07  37104769.859   193214236.231        -470.901          39.000  
C06  36403497.295   189562531.242        -138.330          43.000  
> 2023 10 05 13 48 52.0020000  0 17                     
G08  20847501.811   109554334.592        -236.621          45.000  
G27  21792190.096   114518713.957       -2584.521          47.000  
G04  22124040.852   116262641.551       -2048.972          36.000  
G09  22596984.960   118747939.492        -455.103          41.000  
G21  22399620.292   117710834.589        2561.450          45.000  
G16  23686113.497   124471314.522       -1973.384          44.000  
G31  24916030.617   130934539.239       -2838.833          37.000  
C03  37264247.817   194044680.683        -138.407          39.000  
C10  37772852.370   196693121.927        -408.820          40.000  
C27  23191280.008   120763039.967       -1342.129          45.000  
C01  37876707.742   197233918.945        -138.345          40.000  
C02  38055922.333   198167148.288        -158.832          41.000  
C16  36579021.445   190476537.037        -269.427          40.000  
C30  22826212.029   118862046.430        1543.256          45.000  
C09  36611494.345   190645622.746         302.753          37.000  
C07  37104860.129   193214707.262        -470.913          39.000  
C06  36403523.837   189562669.464        -138.312          43.000  
> 2023 10 05 13 48 53.0020000  0 17                     
G08  20847547.007   109554571.535        -236.960          45.000  
G27  21792681.721   114521298.522       -2584.497          47.000  
G04  22124430.777   116264691.028       -2049.539          36.000  
G09  22597071.792   118748395.029        -455.473          41.000  
G21  22399132.559   117708273.308        2561.505          45.000  
G16  23686488.763   124473287.756       -1973.076          44.000  
G31  24916570.806   130937378.435       -2839.017          38.000  
C03  37264274.220   194044818.823        -138.198          39.000  
C10  37772930.931   196693530.737        -408.471          40.000  
C27  23191537.904   120764382.401       -1342.460          45.000  
C01  37876734.196   197234057.481        -138.571          40.000  
C02  38055952.731   198167307.263        -158.664          42.000  
C16  36579073.254   190476806.202        -269.067          40.000  
C30  22825915.602   118860503.386        1543.128          45.000  
C09  36611436.271   190645319.949         303.136          37.000  
C07  37104950.556   193215178.197        -470.724          39.000  
C06  36403550.606   189562807.715        -138.269          43.000  
> 2023 10 05 13 48 54.0020000  0 18                     
G08  20847592.430   109554808.689        -237.415          45.000  
G27  21793173.608   114523883.122       -2584.833          47.000  
G04  22124820.999   116266740.580       -2049.729          36.000  
G09  22597158.380   118748850.830        -456.102          41.000  
G21  22398645.070   117705712.018        2561.134          45.000  
G16  23686864.170   124475260.621       -1972.807          44.000  
G31  24917111.326   130940217.535       -2839.261          38.000  
C03  37264300.814   194044956.611        -137.719          39.000  
C10  37773009.422   196693939.249        -408.677          40.000  
C27  23191795.696   120765724.987       -1342.815          45.000  
C01  37876760.633   197234195.649        -138.215          40.000  
C02  38055983.252   198167465.871        -158.646          41.000  
C16  36579124.855   190477075.194        -268.848          40.000  
C30  22825619.437   118858960.480        1542.582          45.000  
C09  36611377.848   190645016.956         302.831          37.000  
C07  37105040.930   193215648.789        -470.624          39.000  
C06  36403577.025   189562945.763        -138.141          43.000  
G02  23373860.766                        2711.155          24.000  
> 2023 10 05 13 48 55.0020000  0 18                     
G08  20847637.556   109555046.892        -238.511          45.000  
G27  21793665.600   114526468.563       -2585.667          47.000  
G04  22125211.064   116268791.058       -2050.647          36.000  
G09  22597245.143   118749307.642        -457.000          41.000  
G21  22398157.528   117703151.527        2560.298          45.000  
G16  23687239.821   124477233.909       -1973.321          44.000  
G31  24917651.585   130943057.317       -2839.805          37.000  
C03  37264327.303   194045094.848        -138.155          39.000  
C10  37773087.791   196694348.241        -408.904          40.000  
C27  23192053.715   120767068.515       -1343.923          45.000  
C01  37876787.071   197234334.256        -138.553          40.000  
C02  38056013.999   198167624.956        -159.264          41.000  
C16  36579176.560   190477344.791        -269.782          40.000  
C30  22825323.168   118857418.458        1541.604          45.000  
C09  36611319.494   190644714.521         302.569          37.000  
C07  37105131.410   193216119.863        -471.283          39.000  
C06  36403603.707   189563084.394        -138.446          43.000  
G02  23373346.944                        2713.065          25.000  
> 2023 10 05 13 48 56.0020000  0 18                     
G08  20847682.927   109555285.888        -239.739          45.000  
G27  21794157.818   114529054.603       -2586.674          47.000  
G04  22125601.251   116270842.235       -2052.056          36.000  
G09  22597332.010   118749765.300        -458.371          41.000  
G21  22397670.283   117700591.604        2559.205          45.000  
G16  23687615.594   124479207.416       -1974.142          44.000  
G31  24918191.966   130945897.563       -2840.878          37.000  
C03  37264353.740   194045233.311        -138.918          39.000  
C10  37773166.613   196694757.476        -409.541          40.000  
C27  23192311.682   120768412.759       -1345.094          45.000  
C01  37876813.874   197234473.100        -139.276          40.000  
C02  38056044.886   198167784.235        -159.887          41.000  
C16  36579228.299   190477614.796        -270.759          40.000  
C30  22825027.351   118855877.128        1540.543          45.000  
C09  36611261.559   190644412.457         301.246          37.000  
C07  37105221.697   193216591.173        -471.575          39.000  
C06  36403630.562   189563223.422        -139.600          43.000  
G02  23372832.058                        2713.461          25.000  
> 2023 10 05 13 48 57.0020000  0 18                     
G08  20847728.437   109555525.787        -240.090          45.000  
G27  21794649.844   114531641.351       -2586.926          47.000  
G04  22125991.699   116272894.195       -2052.302          36.000  
G09  22597419.261   118750223.857        -458.511          40.000  
G21  22397183.352   117698032.334        2559.176          45.000  
G16  23687991.227   124481181.197       -1973.682          44.000  
G31  24918732.608   130948738.391       -2841.066          38.000  
C03  37264380.212   194045372.084        -138.719          39.000  
C10  37773245.453   196695167.060        -409.475          40.000  
C27  23192569.875   120769757.819       -1345.231          45.000  
C01  37876840.695   197234612.263        -139.092          39.000  
C02  38056075.633   198167943.842        -159.534          41.000  
C16  36579280.162   190477885.260        -270.260          40.000  
C30  22824731.500   118854336.573        1540.466          45.000  
C09  36611203.834   190644110.802         301.627          37.000  
C07  37105312.456   193217062.842        -472.122          39.000  
C06  36403657.087   189563362.907        -139.368          43.000  
G02  23372317.923                        2713.102          25.000  
> 2023 10 05 13 48 58.0020000  0 18                     
G08  20847774.628   109555766.306        -240.834          45.000  
G27  21795142.150   114534228.495       -2587.187          47.000  
G04  22126382.165   116274946.632       -2052.528          36.000  
G09  22597506.599   118750683.024        -459.245          41.000  
G21  22396696.543   117695473.439        2558.867          45.000  
G16  23688366.738   124483154.990       -1973.631          44.000  
G31  24919273.321   130951579.465       -2841.098          38.000  
C03  37264406.876   194045510.901        -139.016          39.000  
C10  37773323.927   196695576.730        -409.559          40.000  
C27  23192828.121   120771103.408       -1345.706          45.000  
C01  37876867.446   197234751.433        -139.103          40.000  
C02  38056106.206   198168103.495        -159.546          41.000  
C16  36579331.901   190478155.914        -270.746          40.000  
C30  22824435.562   118852796.520        1539.774          45.000  
C09  36611146.231   190643809.318         301.291          37.000  
C07  37105403.092   193217534.518        -471.542          39.000  
C06  36403683.995   189563502.588        -139.642          43.000  
G02  23371803.246                        2713.107          26.000  
> 2023 10 05 13 48 59.0020000  0 18                     
G08  20847820.452   109556006.734        -240.802          45.000  
G27  21795634.351   114536815.386       -2587.242          46.000  
G04  22126772.719   116276998.932       -2052.686          36.000  
G09  22597594.112   118751142.154        -459.438          41.000  
G21  22396209.700   117692914.256        2558.797          45.000  
G16  23688742.128   124485128.133       -1973.082          44.000  
G31  24919813.423   130954420.196       -2841.377          37.000  
C03  37264433.540   194045649.063        -138.129          39.000  
C10  37773402.418   196695985.782        -409.188          41.000  
C27  23193086.594   120772448.853       -1345.704          45.000  
C01  37876894.040   197234889.987        -138.718          40.000  
C02  38056136.692   198168262.529        -159.211          41.000  
C16  36579384.043   190478426.109        -270.467          40.000  
C30  22824139.781   118851256.289        1539.751          45.000  
C09  36611088.209   190643507.343         301.336          37.000  
C07  37105493.729   193218005.611        -471.199          39.000  
C06  36403710.956   189563641.773        -139.368          43.000  
G02  23371285.428                        2713.187          26.000  
> 2023 10 05 13 49 00.0020000  0 18                     
G08  20847866.590   109556248.205        -242.128          45.000  
G27  21796126.551   114539403.115       -2588.268          46.000  
G04  22127163.377   116279052.122       -2053.719          36.000  
G09  22597681.555   118751602.325        -460.837          41.000  
G21  22395722.786   117690355.867        2557.731          45.000  
G16  23689117.569   124487101.693       -1973.867          44.000  
G31  24920353.769   130957261.565       -2841.597          36.000  
C03  37264460.099   194045787.659        -138.885          39.000  
C10  37773480.944   196696395.317        -410.219          40.000  
C27  23193344.962   120773795.243       -1347.009          45.000  
C01  37876920.809   197235028.989        -139.414          40.000  
C02  38056167.195   198168421.958        -159.896          41.000  
C16  36579435.765   190478696.895        -271.372          40.000  
C30  22823844.157   118849716.966        1538.564          45.000  
C09  36611030.274   190643205.900         300.535          37.000  
C07  37105584.121   193218477.216        -472.560          39.000  
C06  36403738.003   189563781.550        -139.893          43.000  
G02  23370770.804                        2711.536          26.000  
> 2023 10 05 13 49 01.0020000  0 18                     
G08  20847912.816   109556490.650        -242.701          45.000  
G27  21796619.014   114541991.636       -2588.719          46.000  
G04  22127554.262   116281106.194       -2054.131          36.000  
G09  22597769.295   118752063.506        -461.635          41.000  
G21  22395236.065   117687798.199        2557.827          45.000  
G16  23689493.726   124489075.638       -1973.757          44.000  
G31  24920894.289   130960103.592       -2841.853          36.000  
C03  37264486.746   194045926.699        -139.173          39.000  
C10  37773559.801   196696805.290        -409.855          41.000  
C27  23193603.487   120775142.533       -1347.417          45.000  
C01  37876947.613   197235168.359        -139.059          40.000  
C02  38056197.715   198168581.798        -159.662          41.000  
C16  36579487.994   190478968.242        -271.431          40.000  
C30  22823548.533   118848178.491        1538.358          45.000  
C09  36610972.287   190642905.005         300.755          37.000  
C07  37105674.530   193218949.164        -471.962          39.000  
C06  36403764.441   189563921.895        -140.186          43.000  
G02  23370254.260                        2711.368          26.000  
> 2023 10 05 13 49 02.0020000  0 18                     
G08  20847959.198   109556733.324        -242.975          45.000  
G27  21797111.250   114544580.166       -2588.853          46.000  
G04  22127944.990   116283160.360       -2053.907          36.000  
G09  22597857.087   118752524.896        -461.827          40.000  
G21  22394749.657   117685240.543        2557.385          45.000  
G16  23689869.464   124491049.191       -1973.596          44.000  
G31  24921435.159   130962945.522       -2842.175          36.000  
C03  37264513.305   194046065.339        -138.849          39.000  
C10  37773638.345   196697214.926        -409.671          41.000  
C27  23193861.994   120776489.962       -1347.682          44.000  
C01  37876973.927   197235307.386        -139.010          40.000  
C02  38056228.061   198168741.305        -159.939          41.000  
C16  36579540.048   190479239.411        -271.311          40.000  
C30  22823253.013   118846640.136        1538.073          45.000  
C09  36610914.492   190642603.840         301.628          37.000  
C07  37105765.149   193219420.811        -471.763          39.000  
C06  36403791.419   189564062.021        -140.326          43.000  
G02  23369737.541   122808801.9743       2711.613          27.000  
> 2023 10 05 13 49 03.0020000  0 18                     
G08  20848005.407   109556976.535        -243.460          45.000  
G27  21797603.520   114547169.030       -2588.916          46.000  
G04  22128335.997   116285214.982       -2054.865          36.000  
G09  22597944.896   118752986.859        -462.384          41.000  
G21  22394263.093   117682683.174        2557.200          46.000  
G16  23690245.307   124493022.681       -1973.445          44.000  
G31  24921975.871   130965787.660       -2842.529          36.000  
C03  37264540.074   194046203.924        -138.396          39.000  
C10  37773717.307   196697624.581        -409.803          41.000  
C27  23194120.816   120777837.850       -1348.093          45.000  
C01  37877000.312   197235446.370        -138.805          40.000  
C02  38056258.861   198168900.764        -159.143          41.000  
C16  36579592.084   190479510.685        -271.277          40.000  
C30  22822957.546   118845102.210        1537.534          45.000  
C09  36610856.592   190642302.825         300.859          37.000  
C07  37105855.506   193219892.442        -471.664          38.000  
C06  36403818.798   189564202.279        -140.302          43.000  
G02  23369220.840   122806089.9682       2712.045          27.000  
> 2023 10 05 13 49 04.0020000  0 18                     
G08  20848051.807   109557220.134        -244.050          45.000  
G27  21798095.896   114549758.096       -2589.542          46.000  
G04  22128727.091   116287269.868       -2055.262          36.000  
G09  22598032.915   118753449.196        -462.944          41.000  
G21  22393776.441   117680125.963        2556.803          46.000  
G16  23690620.731   124494995.952       -1973.558          44.000  
G31  24922516.618   130968629.847       -2842.894          36.000  
C03  37264566.476   194046342.379        -138.847          39.000  
C10  37773795.885   196698034.043        -409.689          41.000  
C27  23194379.707   120779186.042       -1348.840          45.000  
C01  37877026.889   197235585.186        -139.424          40.000  
C02  38056289.555   198169060.032        -159.654          42.000  
C16  36579644.156   190479781.941        -271.357          40.000  
C30  22822662.289   118843564.546        1537.220          45.000  
C09  36610799.024   190642001.715         300.643          37.000  
C07  37105946.213   193220363.905        -471.890          39.000  
C06  36403845.497   189564342.480        -140.656          43.000  
G02  23368705.309   122803377.9772       2711.634          27.000  
> 2023 10 05 13 49 05.0030000  0 18                     
G08  20848098.451   109557464.732        -244.616          45.000  
G27  21798588.864   114552350.299       -2589.795          46.000  
G04  22129118.778   116289327.446       -2055.740          36.000  
G09  22598121.161   118753912.785        -463.323          41.000  
G21  22393289.598   117677566.716        2556.660          46.000  
G16  23690996.469   124496971.355       -1973.437          44.000  
G31  24923057.942   130971475.259       -2842.832          36.000  
C03  37264593.524   194046481.079        -138.390          39.000  
C10  37773874.708   196698444.136        -409.616          41.000  
C27  23194639.244   120780536.240       -1349.071          45.000  
C01  37877053.692   197235724.293        -139.082          40.000  
C02  38056320.128   198169219.625        -159.421          41.000  
C16  36579696.157   190480053.798        -271.796          40.000  
C30  22822366.647   118842025.977        1536.930          45.000  
C09  36610741.368   190641700.614         300.732          37.000  
C07  37106036.884   193220836.057        -471.743          38.000  
C06  36403872.318   189564483.136        -140.616          43.000  
G02  23368190.004   122800663.6652       2711.468          27.000  
> 2023 10 05 13 49 06.0030000  0 18                     
G08  20848144.939   109557709.780        -245.737          45.000  
G27  21799081.536   114554940.408       -2590.637          46.000  
G04  22129510.012   116291383.531       -2056.308          36.000  
G09  22598209.389   118754376.607        -464.351          40.000  
G21  22392803.400   117675010.483        2555.741          46.000  
G16  23691372.259   124498944.866       -1973.733          44.000  
G31  24923598.968   130974318.222       -2843.512          36.000  
C03  37264620.222   194046619.786        -138.704          39.000  
C10  37773953.653   196698853.961        -410.157          41.000  
C27  23194898.450   120781885.703       -1349.979          45.000  
C01  37877080.531   197235863.346        -139.157          40.000  
C02  38056350.893   198169379.165        -160.013          41.000  
C16  36579748.421   190480325.654        -272.064          40.000  
C30  22822071.494   118840489.533        1535.865          45.000  
C09  36610683.521   190641400.011         300.592          37.000  
C07  37106127.677   193221307.842        -471.982          39.000  
C06  36403899.453   189564623.922        -141.115          43.000  
G02  23367676.077   122797952.3872       2710.659          27.000  
> 2023 10 05 13 49 07.0030000  0 18                     
G08  20848191.758   109557955.809        -246.270          45.000  
G27  21799574.313   114557531.277       -2590.839          46.000  
G04  22129901.525   116293440.478       -2056.912          36.000  
G09  22598297.530   118754841.407        -465.034          41.000  
G21  22392317.272   117672454.974        2555.511          46.000  
G16  23691747.980   124500918.757       -1973.693          44.000  
G31  24924139.907   130977161.811       -2843.172          36.000  
C03  37264646.747   194046758.881        -138.961          39.000  
C10  37774032.458   196699264.198        -410.306          41.000  
C27  23195157.690   120783236.049       -1350.392          45.000  
C01  37877107.230   197236002.799        -139.318          40.000  
C02  38056381.693   198169539.084        -159.708          41.000  
C16  36579800.771   190480598.073        -272.455          40.000  
C30  22821776.498   118838953.908        1535.702          45.000  
C09  36610625.865   190641099.979         300.122          37.000  
C07  37106218.488   193221780.049        -471.712          39.000  
C06  36403926.588   189564765.254        -141.319          43.000  
G02  23367158.958   122795241.6252       2710.913          27.000  
> 2023 10 05 13 49 08.0030000  0 18                     
G08  20848239.013   109558202.517        -247.378          45.000  
G27  21800067.352   114560122.629       -2591.870          46.000  
G04  22130293.038   116295497.961       -2057.731          36.000  
G09  22598385.951   118755306.889        -466.313          41.000  
G21  22391831.143   117669899.905        2554.586          46.000  
G16  23692123.613   124502892.700       -1974.153          44.000  
G31  24924680.812   130980005.757       -2844.548          36.000  
C03  37264673.341   194046898.029        -139.241          39.000  
C10  37774111.438   196699674.579        -410.958          41.000  
C27  23195417.192   120784586.977       -1351.557          45.000  
C01  37877133.929   197236142.342        -139.458          40.000  
C02  38056412.161   198169699.099        -160.029          42.000  
C16  36579853.244   190480870.735        -273.236          40.000  
C30  22821481.554   118837418.857        1534.518          45.000  
C09  36610568.489   190640800.134         299.261          37.000  
C07  37106308.898   193222252.341        -472.401          38.000  
C06  36403953.723   189564906.819        -141.978          43.000  
G02  23366643.042   122792531.1722       2710.625          27.000  
> 2023 10 05 13 49 09.0030000  0 18                     
G08  20848286.320   109558449.770        -247.456          45.000  
G27  21800560.477   114562714.320       -2591.956          46.000  
G04  22130684.639   116297555.925       -2058.671          36.000  
G09  22598474.790   118755772.902        -466.227          41.000  
G21  22391345.277   117667345.139        2554.552          46.000  
G16  23692499.491   124504866.599       -1973.948          44.000  
G31  24925221.978   130982849.874       -2844.029          36.000  
C03  37264700.232   194047037.163        -138.988          39.000  
C10  37774190.295   196700084.944        -410.311          41.000  
C27  23195676.834   120785938.362       -1351.634          45.000  
C01  37877161.046   197236281.834        -139.514          40.000  
C02  38056442.716   198169859.074        -159.860          41.000  
C16  36579905.508   190481143.494        -272.961          40.000  
C30  22821186.593   118835884.209        1534.647          45.000  
C09  36610510.903   190640500.363         299.921          37.000  
C07  37106399.412   193222724.636        -472.088          38.000  
C06  36403981.015   189565048.504        -141.687          43.000  
G02  23366130.267   122789820.9452       2710.311          28.000  
> 2023 10 05 13 49 10.0030000  0 18                     
G08  20848333.575   109558697.598        -248.083          45.000  
G27  21801053.708   114565306.357       -2592.120          46.000  
G04  22131076.483   116299614.323       -2058.948          36.000  
G09  22598563.873   118756239.519        -467.035          41.000  
G21  22390859.358   117664790.704        2554.218          46.000  
G16  23692875.107   124506840.457       -1974.113          44.000  
G31  24925763.057   130985694.232       -2844.369          36.000  
C03  37264726.983   194047176.305        -139.275          39.000  
C10  37774269.223   196700495.324        -410.586          41.000  
C27  23195936.511   120787290.225       -1352.092          45.000  
C01  37877187.972   197236421.343        -139.812          40.000  
C02  38056473.533   198170019.052        -159.946          41.000  
C16  36579957.945   190481416.405        -272.589          40.000  
C30  22820892.104   118834350.030        1534.057          45.000  
C09  36610453.213   190640200.708         299.756          37.000  
C07  37106489.996   193223196.950        -472.654          38.000  
C06  36404008.255   189565190.322        -141.969          43.000  
G02  23365615.783   122787110.8522       2709.871          28.000  
> 2023 10 05 13 49 11.0030000  0 18                     
G08  20848380.883   109558945.873        -248.409          45.000  
G27  21801546.833   114567898.669       -2592.340          46.000  
G04  22131468.485   116301673.016       -2058.962          36.000  
G09  22598652.782   118756706.570        -466.852          41.000  
G21  22390373.666   117662236.494        2554.160          46.000  
G16  23693250.618   124508814.156       -1973.564          44.000  
G31  24926304.415   130988538.712       -2844.672          36.000  
C03  37264753.437   194047315.282        -138.796          39.000  
C10  37774348.063   196700905.570        -409.707          41.000  
C27  23196196.310   120788642.460       -1352.224          45.000  
C01  37877214.828   197236560.675        -138.983          40.000  
C02  38056504.141   198170178.864        -159.297          41.000  
C16  36580010.418   190481689.368        -272.601          40.000  
C30  22820597.369   118832816.171        1533.862          45.000  
C09  36610395.645   190639901.076         299.713          37.000  
C07  37106580.912   193223669.126        -471.909          38.000  
C06  36404035.495   189565332.152        -141.587          43.000  
G02  23365100.861   122784400.7932       2710.196          27.000  
> 2023 10 05 13 49 12.0030000  0 18                     
G08  20848427.999   109559194.018        -247.887          45.000  
G27  21802040.116   114570490.645       -2591.602          46.000  
G04  22131860.347   116303731.501       -2058.247          36.000  
G09  22598741.673   118757173.525        -466.603          41.000  
G21  22389887.643   117659681.917        2554.817          46.000  
G16  23693626.234   124510787.126       -1972.483          44.000  
G31  24926845.808   130991382.736       -2843.776          36.000  
C03  37264780.101   194047453.557        -137.581          39.000  
C10  37774426.798   196701315.203        -408.916          41.000  
C27  23196455.829   120789994.481       -1351.676          45.000  
C01  37877241.230   197236699.323        -138.097          40.000  
C02  38056534.661   198170338.013        -158.713          41.000  
C16  36580062.664   190481961.811        -272.247          40.000  
C30  22820302.583   118831282.091        1534.348          45.000  
C09  36610337.815   190639600.830         300.891          37.000  
C07  37106671.409   193224140.659        -471.104          38.000  
C06  36404062.455   189565473.456        -140.992          43.000  
G02  23364589.971   122781690.2952       2710.768          28.000  
> 2023 10 05 13 49 13.0030000  0 18                     
G08  20848475.184   109559442.503        -249.228          45.000  
G27  21802533.469   114573082.774       -2592.834          46.000  
G04  22132252.436   116305790.200       -2059.461          36.000  
G09  22598831.001   118757640.864        -468.079          41.000  
G21  22389401.445   117657127.449        2553.600          46.000  
G16  23694001.693   124512759.863       -1973.253          44.000  
G31  24927386.782   130994226.768       -2844.737          35.000  
C03  37264807.097   194047591.621        -138.438          39.000  
C10  37774505.411   196701724.654        -410.052          41.000  
C27  23196715.715   120791346.792       -1352.951          45.000  
C01  37877267.702   197236837.757        -138.974          40.000  
C02  38056565.234   198170496.921        -159.444          42.000  
C16  36580114.788   190482234.162        -273.041          40.000  
C30  22820007.884   118829748.237        1533.208          44.000  
C09  36610280.107   190639300.527         299.603          37.000  
C07  37106761.801   193224611.995        -472.016          38.000  
C06  36404089.643   189565614.673        -141.817          43.000  
G02  23364076.185   122778979.720        2709.530          27.000  
> 2023 10 05 13 49 14.0030000  0 17                     
G08  20848522.701   109559692.379        -250.396          45.000  
G27  21803027.135   114575676.088       -2593.793          46.000  
G04  22132644.647   116307850.195       -2060.623          36.000  
G09  22598920.416   118758109.596        -469.567          41.000  
G21  22388916.067   117654574.121        2553.086          46.000  
G16  23694377.222   124514733.371       -1973.803          44.000  
G31  24927928.071   130997071.820       -2845.362          36.000  
C03  37264833.394   194047730.490        -139.478          39.000  
C10  37774584.007   196702134.891        -410.361          41.000  
C27  23196975.602   120792700.391       -1354.099          45.000  
C01  37877294.610   197236976.978        -139.680          40.000  
C02  38056595.946   198170656.634        -159.897          41.000  
C16  36580167.575   190482507.464        -273.645          40.000  
C30  22819713.568   118828215.638        1532.201          44.000  
C09  36610222.678   190639001.119         299.097          37.000  
C07  37106852.368   193225084.119        -472.306          38.000  
C06  36404116.952   189565756.830        -142.322          43.000  
> 2023 10 05 13 49 15.0030000  0 18                     
G08  20848570.549   109559943.088        -251.053          45.000  
G27  21803520.924   114578270.051       -2594.159          46.000  
G04  22133036.789   116309910.911       -2060.920          36.000  
G09  22599009.988   118758579.167        -470.019          41.000  
G21  22388430.096   117652021.434        2552.460          46.000  
G16  23694752.960   124516707.122       -1973.863          44.000  
G31  24928469.359   130999917.437       -2845.809          35.000  
C03  37264859.901   194047869.591        -139.108          39.000  
C10  37774662.952   196702545.434        -410.710          41.000  
C27  23197235.610   120794054.746       -1354.554          45.000  
C01  37877321.710   197237116.443        -139.265          40.000  
C02  38056626.624   198170816.622        -160.010          41.000  
C16  36580220.292   190482781.217        -273.779          40.000  
C30  22819419.462   118826683.783        1531.558          44.000  
C09  36610165.040   190638702.118         298.816          37.000  
C07  37106942.917   193225556.536        -472.526          38.000  
C06  36404144.314   189565899.418        -142.634          43.000  
G02  23363048.105   122773646.0281       2709.010          27.000  
> 2023 10 05 13 49 16.0030000  0 18                     
G08  20848618.241   109560194.358        -251.506          45.000  
G27  21804014.730   114580864.360       -2594.342          46.000  
G04  22133428.860   116311972.037       -2060.512          36.000  
G09  22599099.839   118759049.283        -470.163          41.000  
G21  22387944.317   117649469.047        2552.479          46.000  
G16  23695128.663   124518680.816       -1973.552          43.000  
G31  24929011.014   131002763.268       -2846.073          35.000  
C03  37264886.722   194048008.683        -138.834          39.000  
C10  37774742.141   196702955.957        -410.097          41.000  
C27  23197495.915   120795409.570       -1354.953          45.000  
C01  37877348.374   197237255.896        -139.189          40.000  
C02  38056657.214   198170976.571        -159.950          41.000  
C16  36580273.114   190483055.075        -273.505          40.000  
C30  22819125.461   118825152.342        1531.282          44.000  
C09  36610107.507   190638403.176         299.548          37.000  
C07  37107033.623   193226028.926        -471.997          38.000  
C06  36404171.502   189566042.121        -142.375          43.000  
G02  23362534.196   122770937.089        2708.945          27.000  
> 2023 10 05 13 49 17.0030000  0 18                     
G08  20848666.054   109560445.682        -251.731          45.000  
G27  21804508.833   114583458.552       -2594.617          46.000  
G04  22133821.054   116314033.187       -2061.600          36.000  
G09  22599189.393   118759519.511        -470.807          42.000  
G21  22387458.485   117646916.507        2551.995          46.000  
G16  23695504.035   124520653.999       -1973.509          43.000  
G31  24929552.494   131005608.782       -2845.348          35.000  
C03  37264913.648   194048147.266        -138.794          39.000  
C10  37774821.138   196703366.076        -410.174          41.000  
C27  23197755.853   120796764.385       -1355.226          45.000  
C01  37877374.846   197237394.852        -139.030          40.000  
C02  38056687.927   198171135.998        -159.899          41.000  
C16  36580325.883   190483328.619        -273.871          40.000  
C30  22818831.198   118823620.866        1531.057          44.000  
C09  36610049.938   190638103.929         298.456          37.000  
C07  37107124.364   193226500.876        -472.380          38.000  
C06  36404199.073   189566184.500        -142.727          43.000  
G02  23362016.256   122768227.822        2709.147          27.000  
> 2023 10 05 13 49 18.0030000  0 18                     
G08  20848713.816   109560697.859        -252.739          45.000  
G27  21805002.797   114586053.382       -2595.190          46.000  
G04  22134213.614   116316095.014       -2062.104          36.000  
G09  22599279.349   118759990.580        -471.331          42.000  
G21  22386972.567   117644364.563        2551.687          46.000  
G16  23695879.773   124522627.395       -1973.364          43.000  
G31  24930093.852   131008454.863       -2846.595          35.000  
C03  37264939.963   194048286.108        -139.053          39.000  
C10  37774899.961   196703776.467        -410.488          41.000  
C27  23198016.350   120798119.966       -1356.091          45.000  
C01  37877401.423   197237534.058        -139.201          40.000  
C02  38056718.778   198171295.686        -159.855          42.000  
C16  36580378.374   190483602.580        -273.895          40.000  
C30  22818537.214   118822090.120        1530.355          44.000  
C09  36609992.667   190637805.002         298.724          37.000  
C07  37107214.878   193226973.073        -472.177          38.000  
C06  36404226.784   189566327.265        -143.005          43.000  
G02  23361502.260   122765519.040        2708.949          28.000  
> 2023 10 05 13 49 19.0030000  0 18                     
G08  20848761.891   109560950.775        -253.326          45.000  
G27  21805496.917   114588648.743       -2595.520          46.000  
G04  22134606.052   116318157.474       -2062.496          36.000  
G09  22599369.445   118760462.401        -472.055          42.000  
G21  22386487.067   117641813.126        2551.254          46.000  
G16  23696255.109   124524600.945       -1973.450          43.000  
G31  24930635.437   131011301.297       -2846.456          35.000  
C03  37264966.679   194048425.101        -138.890          39.000  
C10  37774978.731   196704187.010        -410.792          41.000  
C27  23198277.021   120799476.188       -1356.684          45.000  
C01  37877428.575   197237673.429        -139.869          40.000  
C02  38056749.264   198171455.531        -159.908          42.000  
C16  36580431.317   190483876.866        -274.579          40.000  
C30  22818243.195   118820559.991        1529.810          44.000  
C09  36609935.168   190637506.393         298.376          37.000  
C07  37107305.724   193227445.449        -472.202          38.000  
C06  36404254.129   189566470.343        -143.133          43.000  
G02  23360984.407   122762810.629        2708.509          28.000  
> 2023 10 05 13 49 20.0030000  0 18                     
G08  20848809.792   109561204.192        -253.376          45.000  
G27  21805991.247   114591244.416       -2595.703          46.000  
G04  22134998.751   116320220.313       -2062.427          36.000  
G09  22599459.558   118760934.755        -472.718          42.000  
G21  22386001.392   117639261.961        2551.222          46.000  
G16  23696630.725   124526574.394       -1973.227          43.000  
G31  24931177.004   131014147.933       -2846.998          35.000  
C03  37264993.203   194048564.025        -138.743          39.000  
C10  37775057.658   196704597.541        -410.457          41.000  
C27  23198537.518   120800832.837       -1356.816          45.000  
C01  37877455.187   197237812.710        -139.190          40.000  
C02  38056779.907   198171615.317        -159.678          41.000  
C16  36580483.912   190484151.240        -274.200          40.000  
C30  22817949.369   118819030.253        1529.550          44.000  
C09  36609877.844   190637207.837         298.633          37.000  
C07  37107396.465   193227917.817        -472.244          38.000  
C06  36404281.456   189566613.489        -142.894          43.000  
G02  23360466.904   122760102.327        2708.890          28.000  
> 2023 10 05 13 49 21.0030000  0 18                     
G08  20848857.920   109561457.793        -253.978          45.000  
G27  21806485.472   114593840.032       -2595.679          46.000  
G04  22135391.312   116322283.207       -2063.298          36.000  
G09  22599549.496   118761407.243        -472.873          42.000  
G21  22385515.840   117636710.725        2551.005          46.000  
G16  23697006.079   124528547.399       -1973.036          43.000  
G31  24931718.397   131016994.363       -2847.022          35.000  
C03  37265019.728   194048702.526        -138.752          39.000  
C10  37775136.516   196705007.652        -409.875          41.000  
C27  23198797.858   120802189.543       -1356.764          45.000  
C01  37877481.834   197237951.552        -138.727          40.000  
C02  38056810.532   198171774.675        -159.298          41.000  
C16  36580536.891   190484425.328        -273.987          40.000  
C30  22817655.594   118817500.546        1529.504          45.000  
C09  36609820.346   190636908.962         298.541          37.000  
C07  37107487.032   193228389.752        -471.834          38.000  
C06  36404308.730   189566756.380        -143.027          43.000  
G02  23359952.367   122757393.800        2708.239          29.000  
> 2023 10 05 13 49 22.0030000  0 18                     
G08  20848906.431   109561711.985        -254.443          45.000  
G27  21806979.383   114596436.066       -2596.112          46.000  
G04  22135783.976   116324346.623       -2063.863          36.000  
G09  22599639.818   118761880.367        -473.357          42.000  
G21  22385030.497   117634159.862        2550.703          46.000  
G16  23697381.521   124530520.395       -1972.773          43.000  
G31  24932260.122   131019841.067       -2846.782          35.000  
C03  37265046.322   194048841.034        -138.496          39.000  
C10  37775214.937   196705417.855        -410.458          41.000  
C27  23199058.756   120803546.794       -1357.372          45.000  
C01  37877508.515   197238090.438        -138.806          40.000  
C02  38056841.192   198171934.070        -159.452          41.000  
C16  36580589.504   190484699.617        -274.176          40.000  
C30  22817361.942   118815971.331        1529.107          45.000  
C09  36609763.057   190636610.223         298.608          37.000  
C07  37107577.703   193228861.734        -471.308          38.000  
C06  36404336.075   189566899.445        -143.178          43.000  
G02  23359434.828   122754685.429        2708.999          29.000  
> 2023 10 05 13 49 23.0030000  0 18                     
G08  20848954.803   109561966.704        -255.301          45.000  
G27  21807473.643   114599032.430       -2596.899          46.000  
G04  22136177.008   116326410.378       -2064.202          37.000  
G09  22599730.001   118762354.019        -474.350          42.000  
G21  22384544.979   117631609.266        2550.154          46.000  
G16  23697756.910   124532493.330       -1973.191          43.000  
G31  24932801.585   131022687.944       -2846.922          34.000  
C03  37265073.090   194048979.502        -139.044          39.000  
C10  37775293.969   196705828.007        -410.720          41.000  
C27  23199319.462   120804904.465       -1358.245          45.000  
C01  37877535.231   197238229.249        -139.136          40.000  
C02  38056871.747   198172093.398        -159.733          41.000  
C16  36580642.151   190484974.012        -274.884          40.000  
C30  22817068.325   118814442.524        1528.410          45.000  
C09  36609705.873   190636311.587         298.175          37.000  
C07  37107668.497   193229333.710        -472.308          38.000  
C06  36404363.751   189567042.589        -143.334          43.000  
G02  23358918.354   122751977.230        2708.849          29.000  
> 2023 10 05 13 49 24.0030000  0 18                     
G08  20849003.228   109562222.353        -255.655          45.000  
G27  21807967.746   114601629.487       -2596.893          46.000  
G04  22136569.952   116328474.998       -2064.896          37.000  
G09  22599820.358   118762828.605        -474.874          42.000  
G21  22384059.619   117629059.379        2549.851          46.000  
G16  23698132.421   124534466.575       -1973.114          43.000  
G31  24933343.536   131025535.425       -2847.549          35.000  
C03  37265099.877   194049118.300        -138.745          39.000  
C10  37775372.757   196706238.545        -410.491          41.000  
C27  23199580.430   120806262.976       -1358.656          45.000  
C01  37877561.878   197238368.401        -139.080          39.000  
C02  38056902.302   198172253.047        -159.477          41.000  
C16  36580694.973   190485248.912        -274.634          40.000  
C30  22816774.864   118812914.522        1527.976          45.000  
C09  36609648.636   190636013.404         298.706          38.000  
C07  37107759.220   193229806.031        -472.270          39.000  
C06  36404391.322   189567186.240        -143.437          43.000  
G02  23358402.246   122749269.644        2707.561          30.000  
> 2023 10 05 13 49 25.0030000  0 18                     
G08  20849052.123   109562478.669        -256.419          45.000  
G27  21808462.180   114604227.035       -2597.565          46.000  
G04  22136963.262   116330540.129       -2065.266          37.000  
G09  22599910.890   118763303.861        -475.385          42.000  
G21  22383574.259   117626509.927        2549.395          46.000  
G16  23698507.845   124536439.895       -1973.141          43.000  
G31  24933885.435   131028383.259       -2847.805          35.000  
C03  37265126.436   194049257.188        -138.804          39.000  
C10  37775451.597   196706649.209        -410.855          41.000  
C27  23199841.521   120807622.080       -1359.365          45.000  
C01  37877588.559   197238507.661        -139.018          39.000  
C02  38056933.242   198172412.798        -159.678          41.000  
C16  36580747.830   190485524.055        -275.067          40.000  
C30  22816481.613   118811387.073        1527.461          45.000  
C09  36609591.469   190635715.462         297.778          38.000  
C07  37107849.944   193230278.466        -472.282          39.000  
C06  36404419.277   189567330.121        -143.701          43.000  
G02  23357894.689   122746562.326        2706.609          30.000  
> 2023 10 05 13 49 26.0030000  0 18                     
G08  20849100.931   109562735.484        -257.091          45.000  
G27  21808956.615   114606824.897       -2598.206          46.000  
G04  22137356.555   116332605.678       -2065.710          37.000  
G09  22600001.422   118763779.669        -476.233          42.000  
G21  22383089.230   117623960.763        2548.812          46.000  
G16  23698883.112   124538413.125       -1973.245          43.000  
G31  24934427.701   131031231.287       -2848.648          35.000  
C03  37265153.117   194049396.019        -139.084          39.000  
C10  37775530.437   196707059.841        -410.935          41.000  
C27  23200102.454   120808981.606       -1360.072          45.000  
C01  37877615.240   197238646.827        -138.949          39.000  
C02  38056963.919   198172572.490        -159.703          41.000  
C16  36580800.721   190485799.319        -275.562          40.000  
C30  22816188.415   118809860.024        1526.743          45.000  
C09  36609534.459   190635417.536         298.102          38.000  
C07  37107940.371   193230750.878        -472.640          39.000  
C06  36404446.988   189567474.100        -144.054          43.000  
G02  23357378.128   122743855.074        2707.204          30.000  
> 2023 10 05 13 49 27.0030000  0 18                     
G08  20849149.966   109562993.080        -258.200          45.000  
G27  21809450.892   114609423.346       -2598.932          46.000  
G04  22137749.761   116334671.900       -2066.267          37.000  
G09  22600091.919   118764256.255        -477.100          42.000  
G21  22382604.201   117621412.155        2548.055          46.000  
G16  23699258.484   124540386.533       -1973.438          43.000  
G31  24934969.670   131034079.706       -2848.863          35.000  
C03  37265179.816   194049535.057        -139.351          39.000  
C10  37775609.172   196707470.688        -410.750          41.000  
C27  23200363.736   120810341.833       -1360.632          45.000  
C01  37877642.027   197238786.223        -139.521          40.000  
C02  38056994.701   198172732.380        -160.214          41.000  
C16  36580853.508   190486074.920        -275.848          40.000  
C30  22815895.356   118808333.650        1525.830          45.000  
C09  36609477.222   190635119.960         297.253          38.000  
C07  37108031.217   193231223.487        -472.756          39.000  
C06  36404474.333   189567618.443        -144.618          43.000  
G02  23356865.039   122741148.290        2706.383          30.000  
> 2023 10 05 13 49 28.0030000  0 18                     
G08  20849198.949   109563250.994        -258.280          45.000  
G27  21809945.361   114612021.899       -2598.889          46.000  
G04  22138142.932   116336738.330       -2066.545          37.000  
G09  22600182.555   118764733.178        -477.421          42.000  
G21  22382119.207   117618863.616        2548.262          46.000  
G16  23699634.204   124542359.663       -1973.203          43.000  
G31  24935511.639   131036928.149       -2848.988          35.000  
C03  37265206.445   194049673.821        -138.771          39.000  
C10  37775687.681   196707881.326        -410.579          41.000  
C27  23200624.966   120811702.305       -1360.806          45.000  
C01  37877668.935   197238925.346        -139.399          40.000  
C02  38057025.309   198172892.003        -159.587          41.000  
C16  36580906.557   190486350.435        -275.763          40.000  
C30  22815602.122   118806807.472        1525.782          45.000  
C09  36609420.178   190634822.255         297.852          38.000  
C07  37108121.923   193231695.873        -472.519          39.000  
C06  36404502.096   189567762.666        -144.362          43.000  
G02  23356349.822   122738441.412        2706.550          31.000  
> 2023 10 05 13 49 29.0030000  0 18                     
G08  20849248.159   109563509.367        -258.992          45.000  
G27  21810439.848   114614620.690       -2599.036          46.000  
G04  22138536.242   116338805.063       -2066.878          37.000  
G09  22600273.349   118765210.536        -477.507          42.000  
G21  22381634.039   117616315.290        2547.933          46.000  
G16  23700009.663   124544332.633       -1973.166          43.000  
G31  24936053.555   131039776.670       -2848.759          35.000  
C03  37265233.249   194049812.453        -138.656          39.000  
C10  37775766.469   196708291.855        -410.675          41.000  
C27  23200886.230   120813063.132       -1361.265          45.000  
C01  37877695.319   197239064.324        -138.967          40.000  
C02  38057055.986   198173051.518        -159.486          41.000  
C16  36580959.466   190486625.964        -275.397          40.000  
C30  22815309.063   118805281.612        1525.421          45.000  
C09  36609363.098   190634524.551         297.357          38.000  
C07  37108212.595   193232168.110        -472.203          38.000  
C06  36404530.261   189567906.890        -144.165          43.000  
G02  23355834.866   122735734.601        2706.444          31.000  
> 2023 10 05 13 49 30.0030000  0 18                     
G08  20849297.246   109563768.360        -259.473          45.000  
G27  21810933.986   114617219.910       -2599.609          46.000  
G04  22138929.570   116340872.357       -2068.132          37.000  
G09  22600364.212   118765688.558        -478.794          42.000  
G21  22381149.237   117613767.365        2547.365          46.000  
G16  23700385.262   124546305.629       -1973.446          43.000  
G31  24936595.681   131042625.472       -2848.842          34.000  
C03  37265259.878   194049951.106        -138.696          39.000  
C10  37775845.239   196708702.474        -410.684          41.000  
C27  23201147.338   120814424.490       -1361.938          45.000  
C01  37877722.001   197239203.346        -139.288          40.000  
C02  38057086.489   198173211.075        -159.891          41.000  
C16  36581012.375   190486901.730        -276.086          40.000  
C30  22815015.917   118803756.264        1524.900          45.000  
C09  36609306.001   190634227.026         296.863          38.000  
C07  37108303.423   193232640.477        -472.792          39.000  
C06  36404557.693   189568051.320        -144.742          43.000  
G02  23355320.800   122733028.035        2705.531          31.000  
> 2023 10 05 13 49 31.0030000  0 18                     
G08  20849346.805   109564028.075        -259.782          46.000  
G27  21811428.386   114619819.651       -2599.658          46.000  
G04  22139322.828   116342940.182       -2067.784          37.000  
G09  22600455.354   118766167.285        -478.841          42.000  
G21  22380664.452   117611219.890        2547.603          46.000  
G16  23700760.860   124548278.728       -1972.927          43.000  
G31  24937137.807   131045474.687       -2849.086          35.000  
C03  37265286.367   194050089.939        -138.929          39.000  
C10  37775924.254   196709113.272        -410.622          41.000  
C27  23201408.760   120815786.485       -1362.180          44.000  
C01  37877749.276   197239342.507        -138.937          40.000  
C02  38057117.132   198173370.751        -159.502          41.000  
C16  36581065.423   190487177.769        -275.751          40.000  
C30  22814723.260   118802231.520        1524.705          45.000  
C09  36609248.921   190633929.744         297.333          38.000  
C07  37108394.304   193233112.950        -472.270          39.000  
C06  36404585.369   189568196.044        -144.628          43.000  
G02  23354807.170   122730321.792        2705.660          31.000  
> 2023 10 05 13 49 32.0030000  0 18                     
G08  20849396.329   109564288.193        -260.353          46.000  
G27  21811923.047   114622419.584       -2599.860          46.000  
G04  22139716.523   116345008.334       -2068.000          37.000  
G09  22600546.305   118766646.424        -479.054          42.000  
G21  22380179.860   117608672.628        2547.190          46.000  
G16  23701136.337   124550251.639       -1972.786          43.000  
G31  24937679.985   131048323.990       -2849.714          34.000  
C03  37265312.926   194050228.578        -138.733          39.000  
C10  37776002.919   196709523.929        -410.452          41.000  
C27  23201670.269   120817148.803       -1362.425          45.000  
C01  37877775.782   197239481.485        -138.711          40.000  
C02  38057147.687   198173530.251        -159.246          41.000  
C16  36581118.716   190487453.817        -276.019          40.000  
C30  22814430.602   118800707.068        1524.316          45.000  
C09  36609191.807   190633632.419         297.540          38.000  
C07  37108484.661   193233585.281        -471.876          39.000  
C06  36404613.114   189568340.752        -144.458          43.000  
G02  23354289.614   122727615.568        2706.502          31.000  
> 2023 10 05 13 49 33.0030000  0 18                     
G08  20849446.062   109564548.887        -260.886          46.000  
G27  21812417.639   114625019.902       -2600.134          46.000  
G04  22140110.374   116347076.964       -2068.724          37.000  
G09  22600637.535   118767126.175        -479.688          42.000  
G21  22379695.232   117606125.682        2547.129          46.000  
G16  23701511.743   124552224.524       -1972.394          43.000  
G31  24938222.024   131051173.473       -2849.499          34.000  
C03  37265339.782   194050367.191        -138.052          39.000  
C10  37776081.794   196709934.616        -410.738          41.000  
C27  23201931.777   120818511.611       -1362.631          45.000  
C01  37877802.342   197239620.483        -138.704          40.000  
C02  38057178.662   198173689.776        -159.642          41.000  
C16  36581171.695   190487730.004        -275.970          40.000  
C30  22814137.962   118799183.066        1524.157          45.000  
C09  36609134.779   190633335.217         297.668          38.000  
C07  37108575.297   193234057.637        -471.877          39.000  
C06  36404641.209   189568485.600        -144.695          43.000  
G02  23353774.955   122724909.554        2705.903          31.000  
> 2023 10 05 13 49 34.0030000  0 18                     
G08  20849495.585   109564809.803        -261.240          46.000  
G27  21812912.405   114627620.234       -2600.494          45.000  
G04  22140504.103   116349145.665       -2068.910          37.000  
G09  22600728.695   118767606.149        -480.334          42.000  
G21  22379210.553   117603578.744        2546.707          47.000  
G16  23701887.045   124554197.021       -1972.481          43.000  
G31  24938763.853   131054022.843       -2849.316          34.000  
C03  37265366.149   194050505.467        -137.983          39.000  
C10  37776160.774   196710344.917        -410.145          41.000  
C27  23202193.478   120819874.565       -1363.185          45.000  
C01  37877829.006   197239759.085        -138.539          40.000  
C02  38057209.060   198173848.908        -159.097          41.000  
C16  36581224.569   190488006.001        -276.117          40.000  
C30  22813845.252   118797659.192        1523.645          45.000  
C09  36609077.769   190633037.815         296.979          38.000  
C07  37108665.881   193234529.670        -472.148          38.000  
C06  36404669.042   189568630.256        -144.795          43.000  
G02  23353260.871   122722203.398        2705.854          31.000  
> 2023 10 05 13 49 35.0030000  0 18                     
G08  20849545.511   109565071.825        -262.303          46.000  
G27  21813407.223   114630221.461       -2601.398          45.000  
G04  22140897.675   116351215.360       -2070.116          37.000  
G09  22600819.889   118768087.199        -481.048          42.000  
G21  22378726.239   117601032.655        2545.928          47.000  
G16  23702262.521   124556170.013       -1973.010          43.000  
G31  24939306.153   131056873.006       -2850.106          34.000  
C03  37265392.482   194050644.266        -138.976          39.000  
C10  37776239.562   196710755.800        -410.680          41.000  
C27  23202455.459   120821238.505       -1363.983          45.000  
C01  37877855.931   197239898.215        -139.169          39.000  
C02  38057239.982   198174008.557        -159.474          42.000  
C16  36581277.566   190488282.666        -276.624          40.000  
C30  22813553.170   118796136.269        1522.805          46.000  
C09  36609020.829   190632741.005         296.820          38.000  
C07  37108756.413   193235002.220        -472.667          39.000  
C06  36404696.841   189568775.559        -145.449          43.000  
G02  23352745.008   122719497.897        2705.529          31.000  
> 2023 10 05 13 49 36.0030000  0 18                     
G08  20849595.488   109565334.560        -263.257          46.000  
G27  21813902.390   114632823.197       -2602.148          45.000  
G04  22141291.771   116353285.663       -2070.888          37.000  
G09  22600911.486   118768569.020        -482.294          42.000  
G21  22378241.891   117598487.067        2545.033          47.000  
G16  23702638.224   124558143.120       -1973.340          43.000  
G31  24939848.140   131059723.546       -2850.943          34.000  
C03  37265419.093   194050783.176        -139.038          39.000  
C10  37776318.751   196711166.855        -411.302          41.000  
C27  23202717.508   120822603.101       -1365.109          45.000  
C01  37877882.665   197240037.471        -139.271          40.000  
C02  38057270.485   198174168.365        -160.055          42.000  
C16  36581330.806   190488559.654        -277.283          40.000  
C30  22813260.827   118794613.970        1521.696          45.000  
C09  36608963.802   190632444.466         296.234          38.000  
C07  37108847.172   193235474.941        -472.985          38.000  
C06  36404724.848   189568921.155        -145.874          43.000  
G02  23352226.265   122716792.819        2704.445          31.000  
> 2023 10 05 13 49 37.0030000  0 18                     
G08  20849645.762   109565598.335        -264.109          46.000  
G27  21814397.453   114635425.782       -2602.893          45.000  
G04  22141686.041   116355356.877       -2071.675          37.000  
G09  22601003.187   118769051.904        -483.412          41.000  
G21  22377757.770   117595942.302        2544.437          47.000  
G16  23703013.858   124560116.671       -1973.648          43.000  
G31  24940390.440   131062574.790       -2851.482          34.000  
C03  37265446.089   194050922.549        -139.072          39.000  
C10  37776397.870   196711578.407        -411.594          41.000  
C27  23202979.715   120823968.651       -1366.086          45.000  
C01  37877909.503   197240177.204        -139.640          40.000  
C02  38057301.197   198174328.621        -160.381          41.000  
C16  36581383.977   190488837.238        -277.612          40.000  
C30  22812968.850   118793092.579        1521.094          45.000  
C09  36608906.949   190632148.511         295.984          38.000  
C07  37108937.930   193235948.153        -473.186          38.000  
C06  36404753.083   189569067.358        -146.315          43.000  
G02  23351711.676   122714088.411        2703.448          30.000  
> 2023 10 05 13 49 38.0030000  0 18                     
G08  20849695.931   109565862.731        -264.544          46.000  
G27  21814892.655   114638028.792       -2603.229          45.000  
G04  22142080.067   116357428.587       -2071.220          37.000  
G09  22601095.097   118769535.370        -483.405          41.000  
G21  22377273.526   117593397.927        2544.324          47.000  
G16  23703389.142   124562090.249       -1973.536          43.000  
G31  24940933.090   131065426.311       -2851.793          34.000  
C03  37265473.032   194051061.998        -139.436          39.000  
C10  37776476.850   196711990.052        -411.602          40.000  
C27  23203242.027   120825334.726       -1366.346          45.000  
C01  37877936.255   197240316.977        -139.783          40.000  
C02  38057332.049   198174488.908        -160.083          41.000  
C16  36581437.148   190489115.039        -277.698          40.000  
C30  22812676.838   118791571.702        1520.786          46.000  
C09  36608850.149   190631852.749         295.868          38.000  
C07  37109028.916   193236421.422        -473.157          38.000  
C06  36404781.230   189569213.774        -146.565          43.000  
G02  23351194.783   122711384.178        2704.091          30.000  
> 2023 10 05 13 49 39.0030000  0 18                     
G08  20849746.432   109566127.571        -264.539          46.000  
G27  21815387.875   114640632.044       -2602.991          45.000  
G04  22142474.111   116359500.667       -2071.823          37.000  
G09  22601186.920   118770019.349        -483.709          41.000  
G21  22376789.213   117590853.783        2544.398          46.000  
G16  23703764.619   124564063.675       -1972.991          43.000  
G31  24941475.652   131068277.933       -2851.141          34.000  
C03  37265499.696   194051201.281        -138.829          39.000  
C10  37776555.794   196712401.569        -410.949          40.000  
C27  23203504.601   120826701.171       -1366.139          45.000  
C01  37877963.128   197240456.609        -139.018          40.000  
C02  38057362.849   198174649.080        -159.658          41.000  
C16  36581490.581   190489392.881        -277.344          40.000  
C30  22812384.896   118790051.156        1520.854          46.000  
C09  36608793.610   190631556.993         295.984          38.000  
C07  37109120.023   193236894.600        -472.683          38.000  
C06  36404809.168   189569360.206        -145.871          43.000  
G02  23350682.724   122708680.011        2704.127          30.000  
> 2023 10 05 13 49 40.0030000  0 18                     
G08  20849796.846   109566392.585        -265.559          46.000  
G27  21815883.182   114643235.250       -2603.735          45.000  
G04  22142868.311   116361572.779       -2072.949          37.000  
G09  22601278.830   118770503.468        -484.475          41.000  
G21  22376305.004   117588309.564        2543.827          46.000  
G16  23704140.165   124566036.659       -1973.285          43.000  
G31  24942018.441   131071129.414       -2851.932          34.000  
C03  37265526.534   194051340.151        -139.001          39.000  
C10  37776634.652   196712812.715        -411.111          40.000  
C27  23203767.244   120828067.695       -1367.115          45.000  
C01  37877989.966   197240595.818        -139.447          40.000  
C02  38057393.334   198174808.848        -160.118          41.000  
C16  36581543.961   190489670.462        -277.802          40.000  
C30  22812093.058   118788530.665        1520.038          46.000  
C09  36608736.827   190631260.924         295.660          38.000  
C07  37109210.922   193237367.373        -473.399          38.000  
C06  36404837.315   189569506.375        -146.239          43.000  
G02  23350163.510   122705975.595        2704.529          29.000  
> 2023 10 05 13 49 41.0030000  0 18                     
G08  20849847.434   109566658.508        -266.364          46.000  
G27  21816378.559   114645839.176       -2604.376          45.000  
G04  22143262.948   116363645.696       -2073.531          37.000  
G09  22601371.002   118770988.545        -485.707          41.000  
G21  22375820.918   117585766.034        2543.109          46.000  
G16  23704515.885   124568009.967       -1973.724          43.000  
G31  24942561.143   131073981.462       -2852.700          35.000  
C03  37265553.338   194051479.386        -139.689          39.000  
C10  37776713.754   196713224.245        -411.523          40.000  
C27  23204030.184   120829435.053       -1367.722          45.000  
C01  37878016.770   197240735.383        -139.625          40.000  
C02  38057423.994   198174968.952        -160.333          41.000  
C16  36581597.655   190489948.545        -278.241          40.000  
C30  22811801.168   118787010.968        1519.490          46.000  
C09  36608680.306   190630965.333         295.490          38.000  
C07  37109301.628   193237840.490        -473.084          38.000  
C06  36404865.322   189569653.038        -146.877          43.000  
G02  23349651.643   122703271.781        2703.992          29.000  
> 2023 10 05 13 49 42.0030000  0 18                     
G08  20849898.197   109566925.106        -266.746          46.000  
G27  21816874.232   114648443.585       -2604.388          45.000  
G04  22143657.410   116365719.151       -2073.467          37.000  
G09  22601463.384   118771474.282        -485.617          41.000  
G21  22375337.041   117583222.951        2542.996          46.000  
G16  23704891.693   124569983.337       -1973.068          43.000  
G31  24943104.036   131076833.836       -2852.705          35.000  
C03  37265579.862   194051618.672        -139.005          39.000  
C10  37776792.611   196713635.914        -411.495          40.000  
C27  23204292.809   120830803.016       -1368.108          45.000  
C01  37878043.556   197240875.033        -139.376          40.000  
C02  38057454.672   198175129.125        -159.735          41.000  
C16  36581651.105   190490226.890        -278.314          40.000  
C30  22811509.680   118785491.838        1519.125          46.000  
C09  36608623.785   190630669.950         295.581          38.000  
C07  37109392.543   193238313.756        -472.949          38.000  
C06  36404893.330   189569799.953        -146.975          43.000  
G02  23349130.928   122700568.304        2703.524          29.000  
> 2023 10 05 13 49 43.0030000  0 18                     
G08  20849948.977   109567192.156        -266.986          46.000  
G27  21817370.150   114651048.251       -2604.425          45.000  
G04  22144052.273   116367792.969       -2073.639          37.000  
G09  22601555.748   118771960.522        -486.122          41.000  
G21  22374853.111   117580680.086        2543.044          46.000  
G16  23705266.960   124571956.587       -1972.979          43.000  
G31  24943646.930   131079686.324       -2851.990          34.000  
C03  37265606.823   194051757.875        -138.505          39.000  
C10  37776871.678   196714047.510        -411.607          40.000  
C27  23204555.645   120832171.333       -1368.115          45.000  
C01  37878070.552   197241014.558        -139.271          40.000  
C02  38057485.628   198175289.186        -159.608          41.000  
C16  36581704.730   190490505.279        -278.033          40.000  
C30  22811218.052   118783973.053        1518.980          46.000  
C09  36608566.967   190630374.606         295.172          38.000  
C07  37109483.477   193238786.933        -473.008          38.000  
C06  36404921.826   189569946.887        -146.654          43.000  
G02  23348623.668   122697864.901        2703.665          28.000  
> 2023 10 05 13 49 44.0030000  0 18                     
G08  20849999.740   109567459.124        -267.366          46.000  
G27  21817865.649   114653652.615       -2604.510          45.000  
G04  22144446.788   116369866.577       -2073.924          37.000  
G09  22601648.304   118772446.664        -486.468          41.000  
G21  22374369.251   117578136.901        2542.983          46.000  
G16  23705642.157   124573929.130       -1972.644          43.000  
G31  24944189.667   131082538.457       -2852.859          35.000  
C03  37265633.661   194051896.393        -138.287          39.000  
C10  37776950.606   196714458.455        -410.953          40.000  
C27  23204818.201   120833539.506       -1368.524          45.000  
C01  37878097.215   197241153.442        -138.889          40.000  
C02  38057516.306   198175448.586        -159.572          41.000  
C16  36581757.743   190490783.166        -277.869          40.000  
C30  22810926.284   118782454.077        1518.699          46.000  
C09  36608509.939   190630078.685         296.008          38.000  
C07  37109574.130   193239259.432        -472.302          38.000  
C06  36404950.200   189570093.319        -146.486          43.000  
G02  23348111.504   122695161.002        2703.497          29.000  
> 2023 10 05 13 49 45.0030000  0 18                     
G08  20850050.747   109567727.080        -268.468          46.000  
G27  21818361.584   114656257.788       -2605.499          45.000  
G04  22144841.460   116371941.058       -2074.656          37.000  
G09  22601740.703   118772933.814        -487.452          41.000  
G21  22373885.392   117575594.489        2542.021          46.000  
G16  23706017.599   124575902.056       -1972.926          43.000  
G31  24944732.648   131085391.173       -2852.943          35.000  
C03  37265660.220   194052035.361        -139.543          39.000  
C10  37777029.446   196714869.823        -411.449          40.000  
C27  23205081.071   120834908.565       -1369.368          45.000  
C01  37878123.722   197241292.687        -138.998          40.000  
C02  38057547.105   198175608.423        -160.091          41.000  
C16  36581811.298   190491061.634        -278.876          40.000  
C30  22810635.023   118780935.973        1517.756          46.000  
C09  36608453.488   190629783.357         294.702          38.000  
C07  37109665.011   193239732.382        -472.889          38.000  
C06  36404978.662   189570240.331        -147.352          43.000  
G02  23347596.304   122692457.643        2703.473          29.000  
> 2023 10 05 13 49 46.0030000  0 18                     
G08  20850102.085   109567996.195        -269.527          46.000  
G27  21818857.798   114658863.919       -2606.512          45.000  
G04  22145236.149   116374016.603       -2075.563          37.000  
G09  22601833.677   118773422.145        -488.666          41.000  
G21  22373401.637   117573053.010        2541.080          46.000  
G16  23706393.354   124577875.565       -1973.632          43.000  
G31  24945275.786   131088244.783       -2854.226          35.000  
C03  37265686.780   194052174.877        -139.730          39.000  
C10  37777108.513   196715281.843        -412.486          40.000  
C27  23205344.168   120836278.704       -1370.339          45.000  
C01  37878150.875   197241432.569        -140.159          40.000  
C02  38057577.783   198175768.829        -160.716          41.000  
C16  36581864.835   190491340.831        -279.285          40.000  
C30  22810343.604   118779418.905        1516.775          46.000  
C09  36608396.775   190629488.686         294.336          38.000  
C07  37109755.805   193240205.936        -473.716          38.000  
C06  36405006.739   189570388.048        -147.791          43.000  
G02  23347081.226   122689755.178        2702.331          29.000  
> 2023 10 05 13 49 47.0030000  0 18                     
G08  20850153.459   109568265.682        -269.668          46.000  
G27  21819353.611   114661470.217       -2606.378          45.000  
G04  22145631.187   116376092.410       -2075.961          37.000  
G09  22601926.774   118773910.840        -488.859          41.000  
G21  22372917.882   117570511.658        2541.290          46.000  
G16  23706768.918   124579848.827       -1973.075          43.000  
G31  24945818.732   131091098.378       -2853.804          35.000  
C03  37265713.496   194052314.174        -139.084          39.000  
C10  37777187.510   196715693.648        -411.755          40.000  
C27  23205607.247   120837649.135       -1370.459          45.000  
C01  37878177.574   197241572.200        -139.354          40.000  
C02  38057608.425   198175929.026        -160.089          41.000  
C16  36581918.285   190491620.004        -279.419          40.000  
C30  22810052.290   118777902.100        1516.642          46.000  
C09  36608340.184   190629193.964         294.299          38.000  
C07  37109846.685   193240679.304        -473.272          38.000  
C06  36405034.869   189570535.730        -147.868          43.000  
G02  23346568.870   122687052.627        2703.349          29.000  
> 2023 10 05 13 49 48.0030000  0 18                     
G08  20850204.919   109568535.859        -271.098          46.000  
G27  21819849.634   114664076.963       -2607.397          45.000  
G04  22146026.469   116378168.739       -2077.490          37.000  
G09  22602019.801   118774400.212        -489.982          41.000  
G21  22372434.354   117567970.739        2540.206          46.000  
G16  23707144.499   124581822.132       -1973.655          43.000  
G31  24946361.957   131093952.354       -2855.308          35.000  
C03  37265740.142   194052453.573        -140.215          39.000  
C10  37777266.577   196716105.560        -412.320          40.000  
C27  23205870.396   120839020.142       -1371.877          45.000  
C01  37878204.290   197241711.910        -140.174          40.000  
C02  38057639.312   198176089.301        -160.942          41.000  
C16  36581972.032   190491899.392        -279.553          39.000  
C30  22809761.081   118776385.835        1515.554          46.000  
C09  36608283.540   190628899.405         294.037          38.000  
C07  37109937.618   193241152.791        -474.120          38.000  
C06  36405063.382   189570683.617        -148.457          43.000  
G02  23346056.880   122684350.442        2701.641          29.000  
> 2023 10 05 13 49 49.0030000  0 18                     
G08  20850256.712   109568806.938        -271.357          46.000  
G27  21820346.005   114666684.411       -2607.660          45.000  
G04  22146421.699   116380245.838       -2077.511          37.000  
G09  22602112.898   118774890.494        -490.666          41.000  
G21  22371951.053   117565430.490        2539.917          46.000  
G16  23707519.871   124583795.764       -1973.677          43.000  
G31  24946905.270   131096806.814       -2854.603          35.000  
C03  37265767.033   194052593.259        -139.465          39.000  
C10  37777345.679   196716517.846        -412.329          40.000  
C27  23206133.982   120840391.946       -1372.204          45.000  
C01  37878231.268   197241851.944        -139.880          40.000  
C02  38057670.409   198176249.873        -160.712          41.000  
C16  36582025.657   190492179.270        -280.121          39.000  
C30  22809469.837   118774870.358        1515.133          46.000  
C09  36608227.176   190628605.320         293.988          38.000  
C07  37110028.691   193241626.570        -473.703          38.000  
C06  36405091.914   189570832.005        -148.536          43.000  
G02  23345541.157   122681648.695        2702.208          30.000  
> 2023 10 05 13 49 50.0030000  0 18                     
G08  20850308.452   109569078.550        -271.729          46.000  
G27  21820842.237   114669292.183       -2607.666          45.000  
G04  22146816.894   116382323.351       -2077.222          37.000  
G09  22602206.466   118775381.311        -490.551          41.000  
G21  22371467.577   117562890.540        2540.110          46.000  
G16  23707895.591   124585769.307       -1973.072          43.000  
G31  24947448.530   131099661.507       -2854.429          34.000  
C03  37265793.889   194052732.913        -139.158          39.000  
C10  37777424.815   196716930.126        -412.275          40.000  
C27  23206397.375   120841764.209       -1372.261          45.000  
C01  37878258.089   197241991.942        -139.847          40.000  
C02  38057701.034   198176410.401        -160.006          41.000  
C16  36582079.648   190492459.253        -279.596          39.000  
C30  22809178.924   118773355.289        1515.099          46.000  
C09  36608170.585   190628311.319         294.171          38.000  
C07  37110119.293   193242100.373        -473.327          38.000  
C06  36405120.322   189570980.475        -148.043          43.000  
G02  23345024.962   122678947.169        2701.726          30.000  
> 2023 10 05 13 49 51.0030000  0 18                     
G08  20850360.209   109569350.394        -271.878          46.000  
G27  21821338.609   114671899.999       -2607.733          45.000  
G04  22147212.438   116384401.023       -2078.059          37.000  
G09  22602299.999   118775872.412        -491.235          41.000  
G21  22370984.188   117560350.613        2540.010          46.000  
G16  23708271.207   124587742.514       -1973.066          44.000  
G31  24947991.999   131102516.080       -2854.082          34.000  
C03  37265820.675   194052872.245        -139.104          39.000  
C10  37777503.708   196717342.083        -411.909          40.000  
C27  23206660.874   120843136.626       -1372.360          45.000  
C01  37878284.910   197242131.607        -139.529          40.000  
C02  38057731.781   198176570.600        -159.840          41.000  
C16  36582133.133   190492739.091        -279.529          40.000  
C30  22808888.012   118771840.364        1514.721          45.000  
C09  36608114.081   190628017.108         294.421          38.000  
C07  37110210.313   193242573.868        -473.559          38.000  
C06  36405148.644   189571128.772        -148.203          43.000  
G02  23344513.723   122676245.479        2701.612          30.000  
> 2023 10 05 13 49 52.0030000  0 18                     
G08  20850412.123   109569622.924        -272.941          46.000  
G27  21821834.998   114674508.293       -2608.667          46.000  
G04  22147607.947   116386479.205       -2078.541          37.000  
G09  22602393.533   118776364.167        -491.991          41.000  
G21  22370500.870   117557811.131        2539.233          46.000  
G16  23708646.544   124589715.768       -1973.368          44.000  
G31  24948535.225   131105371.055       -2855.266          34.000  
C03  37265847.217   194053011.686        -139.882          39.000  
C10  37777582.810   196717754.175        -412.375          40.000  
C27  23206924.581   120844509.644       -1373.365          45.000  
C01  37878311.731   197242271.345        -139.886          40.000  
C02  38057762.511   198176730.923        -160.500          41.000  
C16  36582186.844   190493019.166        -279.913          40.000  
C30  22808596.959   118770325.997        1513.903          45.000  
C09  36608057.717   190627723.097         293.872          38.000  
C07  37110301.333   193243047.433        -473.682          38.000  
C06  36405177.123   189571277.313        -148.689          43.000  
G02  23344004.211   122673544.046        2701.289          30.000  
> 2023 10 05 13 49 53.0030000  0 18                     
G08  20850463.863   109569896.220        -273.665          46.000  
G27  21822331.578   114677117.124       -2608.905          46.000  
G04  22148003.683   116388558.068       -2079.285          37.000  
G09  22602487.362   118776856.695        -492.580          41.000  
G21  22370017.883   117555272.174        2538.853          46.000  
G16  23709022.352   124591689.192       -1973.328          44.000  
G31  24949078.415   131108226.383       -2854.656          34.000  
C03  37265874.213   194053151.250        -139.384          39.000  
C10  37777661.999   196718166.463        -412.213          40.000  
C27  23207188.551   120845883.325       -1373.915          45.000  
C01  37878338.622   197242411.282        -140.155          40.000  
C02  38057793.276   198176891.387        -160.229          41.000  
C16  36582240.713   190493299.581        -280.060          40.000  
C30  22808306.326   118768812.251        1513.654          45.000  
C09  36608001.196   190627429.425         293.860          38.000  
C07  37110392.371   193243521.218        -473.852          38.000  
C06  36405205.811   189571426.204        -149.223          43.000  
G02  23343486.289   122670843.071        2700.204          31.000  
> 2023 10 05 13 49 54.0030000  0 18                     
G08  20850515.865   109570169.636        -273.595          46.000  
G27  21822828.089   114679725.919       -2609.021          45.000  
G04  22148399.419   116390636.932       -2078.921          37.000  
G09  22602581.349   118777349.392        -493.115          41.000  
G21  22369534.529   117552733.141        2538.845          46.000  
G16  23709398.020   124593662.158       -1972.914          44.000  
G31  24949621.658   131111081.597       -2855.405          34.000  
C03  37265900.999   194053290.416        -139.270          39.000  
C10  37777741.153   196718578.356        -411.894          40.000  
C27  23207452.625   120847257.071       -1374.046          45.000  
C01  37878365.286   197242550.748        -139.360          40.000  
C02  38057823.726   198177051.453        -160.118          41.000  
C16  36582294.704   190493579.751        -280.237          39.000  
C30  22808015.640   118767298.555        1513.512          45.000  
C09  36607944.866   190627135.449         294.037          38.000  
C07  37110483.409   193243994.601        -473.413          38.000  
C06  36405234.185   189571574.793        -148.616          43.000  
G02  23342971.054   122668141.826        2700.636          31.000  
> 2023 10 05 13 49 55.0030000  0 18                     
G08  20850568.163   109570443.839        -274.574          46.000  
G27  21823324.618   114682335.275       -2609.668          45.000  
G04  22148795.278   116392716.480       -2079.833          37.000  
G09  22602675.371   118777842.892        -494.183          41.000  
G21  22369051.490   117550194.654        2538.037          46.000  
G16  23709773.653   124595635.292       -1973.362          44.000  
G31  24950164.953   131113937.196       -2856.144          34.000  
C03  37265927.610   194053429.777        -139.573          39.000  
C10  37777820.220   196718990.502        -412.469          40.000  
C27  23207716.682   120848631.513       -1374.997          45.000  
C01  37878392.107   197242690.458        -140.215          40.000  
C02  38057854.631   198177211.710        -160.287          41.000  
C16  36582348.712   190493860.263        -280.811          40.000  
C30  22807724.728   118765785.529        1512.676          45.000  
C09  36607888.275   190626841.789         293.335          38.000  
C07  37110574.325   193244468.181        -473.702          38.000  
C06  36405262.646   189571723.734        -149.097          43.000  
G02  23342459.117   122665440.935        2700.531          31.000  
> 2023 10 05 13 49 56.0030000  0 18                     
G08  20850620.479   109570718.921        -275.235          46.000  
G27  21823821.391   114684945.313       -2610.120          45.000  
G04  22149191.136   116394796.772       -2080.347          37.000  
G09  22602769.550   118778337.235        -494.625          42.000  
G21  22368568.398   117547656.809        2537.574          46.000  
G16  23710149.130   124597608.679       -1973.377          44.000  
G31  24950708.457   131116793.358       -2856.766          34.000  
C03  37265954.274   194053569.427        -139.794          39.000  
C10  37777899.566   196719402.954        -412.449          40.000  
C27  23207980.756   120850006.738       -1375.406          45.000  
C01  37878418.840   197242830.419        -140.029          40.000  
C02  38057885.483   198177372.229        -160.302          41.000  
C16  36582402.564   190494141.253        -281.213          39.000  
C30  22807434.304   118764273.261        1512.084          45.000  
C09  36607831.894   190626548.546         293.097          38.000  
C07  37110665.240   193244942.108        -473.979          38.000  
C06  36405291.404   189571873.136        -149.592          43.000  
G02  23341943.096   122662740.588        2700.072          31.000  
> 2023 10 05 13 49 57.0030000  0 18                     
G08  20850672.952   109570994.358        -275.512          46.000  
G27  21824318.286   114687555.490       -2610.199          45.000  
G04  22149587.116   116396877.303       -2080.672          38.000  
G09  22602863.624   118778831.977        -494.960          42.000  
G21  22368085.271   117545119.074        2537.816          46.000  
G16  23710524.432   124599581.830       -1973.037          44.000  
G31  24951252.014   131119649.523       -2856.255          34.000  
C03  37265981.287   194053708.846        -139.102          39.000  
C10  37777978.720   196719815.216        -411.977          40.000  
C27  23208244.970   120851382.225       -1375.494          45.000  
C01  37878445.853   197242970.166        -139.563          40.000  
C02  38057916.335   198177532.547        -160.108          41.000  
C16  36582456.363   190494422.144        -280.731          40.000  
C30  22807143.792   118762761.216        1512.097          45.000  
C09  36607775.721   190626255.210         293.329          38.000  
C07  37110756.278   193245415.808        -473.467          38.000  
C06  36405320.127   189572022.456        -149.379          43.000  
G02  23341429.816   122660040.202        2700.657          31.000  
> 2023 10 05 13 49 58.0030000  0 18                     
G08  20850725.128   109571270.531        -276.469          46.000  
G27  21824814.797   114690166.205       -2610.791          45.000  
G04  22149983.306   116398958.475       -2081.492          37.000  
G09  22602958.117   118779327.453        -495.643          42.000  
G21  22367602.319   117542581.875        2536.914          46.000  
G16  23710899.856   124601555.121       -1973.456          44.000  
G31  24951795.588   131122506.122       -2856.971          34.000  
C03  37266008.300   194053848.466        -139.836          39.000  
C10  37778057.700   196720227.657        -412.393          40.000  
C27  23208509.026   120852758.381       -1376.235          45.000  
C01  37878472.500   197243110.063        -139.616          40.000  
C02  38057947.204   198177693.022        -160.411          41.000  
C16  36582510.040   190494703.395        -281.628          39.000  
C30  22806853.526   118761249.807        1511.266          45.000  
C09  36607719.322   190625962.150         292.859          38.000  
C07  37110847.124   193245889.703        -473.712          38.000  
C06  36405348.903   189572172.088        -149.832          43.000  
G02  23340915.191   122657340.211        2699.749          31.000  
> 2023 10 05 13 49 59.0030000  0 18                     
G08  20850777.932   109571547.492        -277.637          46.000  
G27  21825311.430   114692777.519       -2611.835          45.000  
G04  22150379.496   116401040.295       -2082.201          37.000  
G09  22603052.505   118779823.739        -496.896          42.000  
G21  22367119.419   117540045.223        2536.195          46.000  
G16  23711275.384   124603528.588       -1973.768          44.000  
G31  24952339.634   131125363.138       -2857.632          34.000  
C03  37266034.981   194053988.249        -140.200          39.000  
C10  37778137.063   196720640.351        -412.903          40.000  
C27  23208773.310   120854135.244       -1377.458          45.000  
C01  37878499.373   197243250.210        -140.720          40.000  
C02  38057977.812   198177853.724        -161.155          41.000  
C16  36582563.961   190494984.987        -281.836          39.000  
C30  22806563.346   118759739.079        1510.231          45.000  
C09  36607663.098   190625669.432         292.151          38.000  
C07  37110938.196   193246363.847        -474.357          38.000  
C06  36405377.504   189572322.087        -150.418          43.000  
G02  23340399.153   122654640.621        2699.068          31.000  
> 2023 10 05 13 50 00.0030000  0 18                     
G08  20850830.876   109571825.267        -278.161          46.000  
G27  21825808.307   114695389.452       -2612.134          45.000  
G04  22150775.807   116403122.831       -2082.505          38.000  
G09  22603147.068   118780320.869        -497.440          42.000  
G21  22366636.711   117537509.190        2535.806          46.000  
G16  23711650.773   124605502.305       -1973.497          44.000  
G31  24952883.592   131128220.664       -2857.440          34.000  
C03  37266061.576   194054128.286        -139.823          39.000  
C10  37778216.287   196721053.328        -412.778          40.000  
C27  23209037.838   120855512.845       -1377.925          45.000  
C01  37878526.316   197243390.570        -140.260          40.000  
C02  38058008.838   198178014.648        -160.982          41.000  
C16  36582618.301   190495267.017        -281.891          39.000  
C30  22806273.044   118758229.061        1509.929          45.000  
C09  36607606.786   190625377.110         292.401          38.000  
C07  37111029.321   193246838.262        -474.612          38.000  
C06  36405406.384   189572472.486        -150.395          43.000  
G02  23339886.955   122651941.495        2697.578          31.000  
> 2023 10 05 13 50 01.0030000  0 18                     
G08  20850883.698   109572103.456        -278.167          46.000  
G27  21826305.028   114698001.583       -2611.835          45.000  
G04  22151172.416   116405205.661       -2082.568          38.000  
G09  22603241.805   118780818.382        -497.242          42.000  
G21  22366154.352   117534973.319        2535.990          46.000  
G16  23712026.302   124607475.822       -1973.281          44.000  
G31  24953427.201   131131078.264       -2857.022          34.000  
C03  37266088.623   194054268.158        -139.490          39.000  
C10  37778295.459   196721466.192        -412.759          40.000  
C27  23209302.313   120856890.753       -1377.965          45.000  
C01  37878553.591   197243530.760        -139.917          40.000  
C02  38058039.777   198178175.394        -160.605          41.000  
C16  36582672.344   190495549.036        -282.074          39.000  
C30  22805983.126   118756719.344        1509.702          45.000  
C09  36607550.771   190625084.715         292.902          38.000  
C07  37111120.429   193247312.504        -474.018          38.000  
C06  36405435.561   189572622.867        -150.335          43.000  
G02  23339371.597   122649242.338        2698.922          30.000  
> 2023 10 05 13 50 02.0030000  0 18                     
G08  20850936.781   109572382.130        -279.032          46.000  
G27  21826801.923   114700613.991       -2612.622          45.000  
G04  22151568.867   116407288.847       -2083.521          38.000  
G09  22603336.577   118781316.406        -498.357          42.000  
G21  22365671.836   117532437.687        2535.364          46.000  
G16  23712401.709   124609449.198       -1973.515          44.000  
G31  24953971.177   131133935.958       -2857.449          34.000  
C03  37266115.724   194054407.928        -140.029          39.000  
C10  37778374.631   196721878.929        -413.053          40.000  
C27  23209566.893   120858269.057       -1378.599          45.000  
C01  37878580.604   197243670.828        -140.119          40.000  
C02  38058070.525   198178336.048        -160.660          41.000  
C16  36582726.527   190495831.088        -282.306          39.000  
C30  22805693.121   118755209.969        1509.079          45.000  
C09  36607494.755   190624792.371         291.779          38.000  
C07  37111211.432   193247786.637        -474.137          38.000  
C06  36405464.685   189572773.289        -150.774          43.000  
G02  23338855.629   122646543.274        2699.253          30.000  
> 2023 10 05 13 50 03.0030000  0 18                     
G08  20850989.778   109572661.394        -279.628          46.000  
G27  21827298.992   114703226.784       -2613.074          45.000  
G04  22151965.441   116409372.507       -2084.094          38.000  
G09  22603431.384   118781815.022        -498.745          42.000  
G21  22365189.564   117529902.448        2534.833          46.000  
G16  23712777.412   124611422.577       -1973.489          44.000  
G31  24954514.751   131136793.973       -2857.881          34.000  
C03  37266142.457   194054547.679        -139.519          39.000  
C10  37778453.959   196722291.777        -413.147          40.000  
C27  23209831.578   120859647.877       -1379.090          45.000  
C01  37878607.477   197243810.920        -139.937          40.000  
C02  38058101.481   198178496.731        -160.773          41.000  
C16  36582780.780   190496113.318        -282.355          39.000  
C30  22805403.447   118753701.077        1508.768          45.000  
C09  36607438.653   190624500.146         291.882          38.000  
C07  37111302.487   193248260.862        -474.494          38.000  
C06  36405493.391   189572923.880        -150.783          43.000  
G02  23338343.186   122643844.472        2698.695          30.000  
> 2023 10 05 13 50 04.0030000  0 18                     
G08  20851043.036   109572941.164        -280.302          46.000  
G27  21827796.184   114705839.873       -2613.458          45.000  
G04  22152361.910   116411456.543       -2084.445          38.000  
G09  22603526.610   118782314.167        -499.623          42.000  
G21  22364707.363   117527367.462        2534.558          46.000  
G16  23713152.923   124613395.860       -1973.583          44.000  
G31  24955058.849   131139652.139       -2858.400          34.000  
C03  37266169.261   194054687.429        -140.247          39.000  
C10  37778533.183   196722704.521        -412.944          40.000  
C27  23210096.350   120861027.109       -1379.689          45.000  
C01  37878634.316   197243950.953        -140.448          40.000  
C02  38058132.124   198178657.338        -160.554          41.000  
C16  36582835.259   190496395.663        -282.843          39.000  
C30  22805113.774   118752192.592        1507.998          45.000  
C09  36607382.184   190624207.965         291.931          38.000  
C07  37111393.787   193248735.024        -474.355          38.000  
C06  36405522.498   189573074.558        -150.986          43.000  
G02  23337824.915   122641145.831        2698.949          29.000  
> 2023 10 05 13 50 05.0030000  0 18                     
G08  20851096.416   109573221.694        -280.421          46.000  
G27  21828293.585   114708453.537       -2613.599          45.000  
G04  22152758.588   116413541.250       -2084.654          38.000  
G09  22603621.749   118782814.066        -499.777          42.000  
G21  22364225.108   117524833.017        2534.720          46.000  
G16  23713528.556   124615369.313       -1973.276          44.000  
G31  24955602.929   131142510.732       -2858.381          34.000  
C03  37266196.047   194054827.274        -139.244          39.000  
C10  37778612.529   196723117.535        -412.703          40.000  
C27  23210361.419   120862407.029       -1379.850          45.000  
C01  37878660.997   197244091.150        -139.886          40.000  
C02  38058162.941   198178818.131        -160.630          41.000  
C16  36582889.547   190496678.346        -282.483          39.000  
C30  22804823.943   118750684.742        1507.975          45.000  
C09  36607326.151   190623916.127         292.096          38.000  
C07  37111484.790   193249209.364        -473.585          38.000  
C06  36405551.570   189573225.579        -150.859          43.000  
G02  23337313.117   122638447.509        2698.595          29.000  
> 2023 10 05 13 50 06.0030000  0 18                     
G08  20851150.198   109573502.653        -281.516          46.000  
G27  21828790.742   114711067.403       -2614.307          45.000  
G04  22153155.686   116415626.234       -2085.263          38.000  
G09  22603717.149   118783314.443        -501.084          42.000  
G21  22363742.837   117522298.784        2533.740          46.000  
G16  23713903.963   124617342.598       -1973.746          44.000  
G31  24956146.922   131145369.443       -2859.612          33.000  
C03  37266222.641   194054967.026        -139.681          39.000  
C10  37778692.068   196723530.415        -413.116          40.000  
C27  23210626.506   120863787.284       -1380.703          45.000  
C01  37878687.644   197244231.193        -140.139          40.000  
C02  38058193.845   198178978.774        -161.045          41.000  
C16  36582943.974   190496961.031        -282.990          39.000  
C30  22804534.566   118749177.217        1507.082          45.000  
C09  36607270.206   190623624.254         291.577          38.000  
C07  37111575.705   193249683.604        -474.339          38.000  
C06  36405580.781   189573376.586        -151.578          43.000  
G02  23336797.586   122635749.320        2698.098          28.000  
> 2023 10 05 13 50 07.0030000  0 18                     
G08  20851203.648   109573784.546        -282.006          46.000  
G27  21829287.968   114713681.979       -2614.331          45.000  
G04  22153552.678   116417712.011       -2085.628          38.000  
G09  22603812.340   118783815.710        -501.412          42.000  
G21  22363260.862   117519765.227        2533.416          46.000  
G16  23714279.369   124619316.177       -1973.422          43.000  
G31  24956690.863   131148228.665       -2859.153          33.000  
C03  37266249.549   194055107.081        -139.673          39.000  
C10  37778771.606   196723943.670        -413.281          40.000  
C27  23210891.766   120865168.374       -1381.222          45.000  
C01  37878714.639   197244371.591        -140.206          40.000  
C02  38058224.785   198179139.720        -160.734          41.000  
C16  36582998.279   190497244.219        -283.020          39.000  
C30  22804245.137   118747670.481        1506.712          45.000  
C09  36607214.470   190623332.828         291.449          38.000  
C07  37111667.022   193250158.196        -474.587          38.000  
C06  36405609.661   189573528.076        -151.526          43.000  
G02  23336282.717   122633051.640        2697.448          28.000  
> 2023 10 05 13 50 08.0030000  0 18                     
G08  20851257.551   109574067.117        -282.697          46.000  
G27  21829785.666   114716297.043       -2614.966          45.000  
G04  22153949.618   116419798.379       -2086.213          38.000  
G09  22603907.775   118784317.682        -502.064          42.000  
G21  22362778.922   117517232.128        2532.919          46.000  
G16  23714654.549   124621289.844       -1973.587          43.000  
G31  24957234.943   131151088.235       -2859.167          33.000  
C03  37266276.475   194055247.268        -140.068          39.000  
C10  37778851.179   196724357.060        -413.213          40.000  
C27  23211157.393   120866550.046       -1381.727          45.000  
C01  37878741.722   197244512.066        -140.368          40.000  
C02  38058255.637   198179300.779        -160.864          41.000  
C16  36583053.021   190497527.671        -283.295          39.000  
C30  22803955.952   118746164.326        1505.990          45.000  
C09  36607158.350   190623041.633         291.394          38.000  
C07  37111758.060   193250632.892        -474.549          38.000  
C06  36405638.594   189573679.822        -151.537          43.000  
G02  23335770.693   122630354.245        2697.401          28.000  
> 2023 10 05 13 50 09.0030000  0 18                     
G08  20851311.228   109574350.172        -283.378          46.000  
G27  21830283.137   114718912.411       -2615.564          45.000  
G04  22154346.855   116421885.146       -2087.321          38.000  
G09  22604003.472   118784820.168        -502.793          42.000  
G21  22362296.912   117514699.307        2532.588          46.000  
G16  23715030.183   124623263.424       -1973.591          43.000  
G31  24957779.286   131153948.033       -2860.312          33.000  
C03  37266303.470   194055387.351        -140.050          39.000  
C10  37778930.507   196724770.365        -413.380          40.000  
C27  23211422.846   120867932.160       -1382.487          45.000  
C01  37878768.613   197244652.477        -140.658          40.000  
C02  38058286.471   198179461.779        -161.026          41.000  
C16  36583107.082   190497811.215        -283.966          39.000  
C30  22803666.767   118744658.551        1505.396          45.000  
C09  36607102.684   190622750.535         290.845          38.000  
C07  37111849.482   193251107.545        -474.635          38.000  
C06  36405667.771   189573831.661        -151.973          43.000  
G02  23335258.232   122627657.016        2697.080          27.000  
> 2023 10 05 13 50 10.0030000  0 18                     
G08  20851365.359   109574633.978        -284.151          46.000  
G27  21830781.079   114721528.335       -2616.107          45.000  
G04  22154744.545   116423972.523       -2087.732          38.000  
G09  22604098.995   118785323.420        -503.493          41.000  
G21  22361815.059   117512167.031        2532.084          46.000  
G16  23715405.659   124625237.145       -1973.665          43.000  
G31  24958323.401   131156808.192       -2859.939          33.000  
C03  37266330.344   194055527.641        -140.494          39.000  
C10  37779009.871   196725183.889        -413.064          40.000  
C27  23211688.543   120869314.918       -1382.868          46.000  
C01  37878795.695   197244793.059        -140.795          40.000  
C02  38058317.463   198179622.955        -161.208          41.000  
C16  36583161.683   190498095.088        -283.875          39.000  
C30  22803377.686   118743153.413        1505.034          45.000  
C09  36607046.547   190622459.703         290.515          38.000  
C07  37111940.607   193251582.406        -474.970          38.000  
C06  36405697.157   189573983.826        -152.278          43.000  
G02  23334742.194   122624960.141        2696.622          27.000  
> 2023 10 05 13 50 11.0030000  0 18                     
G08  20851419.455   109574918.413        -284.819          46.000  
G27  21831279.108   114724144.694       -2616.626          45.000  
G04  22155141.747   116426060.440       -2088.166          38.000  
G09  22604194.936   118785827.320        -504.144          41.000  
G21  22361333.433   117509635.153        2531.453          46.000  
G16  23715781.118   124627210.928       -1974.016          43.000  
G31  24958867.446   131159668.705       -2860.922          33.000  
C03  37266357.269   194055667.981        -140.667          39.000  
C10  37779089.252   196725597.550        -414.246          40.000  
C27  23211954.467   120870698.247       -1383.626          46.000  
C01  37878822.656   197244933.681        -140.244          40.000  
C02  38058348.542   198179784.196        -161.296          41.000  
C16  36583216.163   190498379.201        -284.229          39.000  
C30  22803088.781   118741648.823        1504.249          45.000  
C09  36606990.584   190622169.063         290.497          38.000  
C07  37112031.313   193252057.346        -475.374          39.000  
C06  36405726.473   189574136.201        -152.473          43.000  
G02  23334229.158   122622263.501        2696.489          26.000  
> 2023 10 05 13 50 12.0030000  0 18                     
G08  20851473.620   109575203.341        -285.138          46.000  
G27  21831776.945   114726761.334       -2616.730          45.000  
G04  22155539.193   116428148.714       -2088.352          38.000  
G09  22604290.773   118786331.721        -504.388          41.000  
G21  22360851.580   117507103.533        2531.654          46.000  
G16  23716156.577   124629184.587       -1973.558          43.000  
G31  24959411.631   131162529.340       -2860.502          33.000  
C03  37266384.596   194055808.226        -140.265          39.000  
C10  37779168.877   196726011.100        -413.171          40.000  
C27  23212220.286   120872081.977       -1383.759          46.000  
C01  37878849.756   197245074.264        -140.489          39.000  
C02  38058379.551   198179945.341        -160.954          41.000  
C16  36583270.799   190498663.374        -284.131          39.000  
C30  22802799.892   118740144.594        1504.268          45.000  
C09  36606934.883   190621878.442         290.576          38.000  
C07  37112122.421   193252532.199        -474.719          38.000  
C06  36405755.650   189574288.641        -152.288          43.000  
G02  23333718.547   122619567.029        2696.202          27.000  
> 2023 10 05 13 50 13.0030000  0 18                     
G08  20851527.925   109575488.662        -285.169          46.000  
G27  21832274.817   114729378.185       -2616.528          45.000  
G04  22155936.640   116430237.276       -2088.119          38.000  
G09  22604386.906   118786836.577        -504.734          41.000  
G21  22360369.797   117504572.111        2531.711          46.000  
G16  23716532.053   124631158.060       -1972.990          43.000  
G31  24959955.921   131165390.084       -2860.948          33.000  
C03  37266411.452   194055948.302        -139.882          39.000  
C10  37779248.433   196726424.587        -413.334          40.000  
C27  23212486.140   120873466.040       -1383.798          46.000  
C01  37878876.769   197245214.632        -139.840          40.000  
C02  38058410.385   198180106.355        -160.709          42.000  
C16  36583325.279   190498947.560        -283.893          39.000  
C30  22802511.126   118738640.684        1504.006          45.000  
C09  36606878.867   190621587.797         291.089          38.000  
C07  37112213.650   193253006.929        -474.313          38.000  
C06  36405784.617   189574441.086        -151.943          43.000  
G02  23333204.551   122616870.590        2696.383          27.000  
> 2023 10 05 13 50 14.0030000  0 18                     
G08  20851582.457   109575774.499        -285.853          46.000  
G27  21832773.073   114731995.337       -2617.169          45.000  
G04  22156334.278   116432326.246       -2089.058          38.000  
G09  22604482.847   118787341.903        -505.228          41.000  
G21  22359888.276   117502040.965        2531.345          46.000  
G16  23716907.268   124633131.450       -1973.347          43.000  
G31  24960500.403   131168250.923       -2860.475          33.000  
C03  37266438.291   194056088.299        -139.812          39.000  
C10  37779327.639   196726837.966        -413.028          40.000  
C27  23212752.256   120874850.531       -1384.567          46.000  
C01  37878903.730   197245354.953        -140.060          40.000  
C02  38058441.342   198180267.252        -160.529          42.000  
C16  36583379.916   190499231.825        -283.868          39.000  
C30  22802222.412   118737137.153        1503.587          45.000  
C09  36606823.044   190621297.234         290.570          38.000  
C07  37112304.758   193253481.605        -474.422          39.000  
C06  36405814.021   189574593.593        -152.268          43.000  
G02  23332692.788   122614174.247        2696.387          27.000  
> 2023 10 05 13 50 15.0030000  0 17                     
G08  20851637.198   109576060.587        -286.088          46.000  
G27  21833271.190   114734612.533       -2617.194          45.000  
G04  22156731.741   116434415.321       -2089.169          38.000  
G09  22604578.928   118787847.520        -505.715          42.000  
G21  22359406.789   117499509.848        2531.217          46.000  
G16  23717282.343   124635104.475       -1972.724          43.000  
G31  24961044.692   131171111.739       -2860.580          34.000  
C03  37266465.112   194056227.968        -139.371          39.000  
C10  37779406.951   196727251.090        -412.955          40.000  
C27  23213018.023   120876235.178       -1384.663          46.000  
C01  37878930.585   197245494.937        -139.916          40.000  
C02  38058472.281   198180427.819        -160.333          42.000  
C16  36583434.430   190499515.931        -284.125          39.000  
C30  22801933.890   118735633.773        1503.457          45.000  
C09  36606767.361   190621006.453         291.046          38.000  
C07  37112395.935   193253955.979        -474.256          39.000  
C06  36405843.564   189574745.938        -152.203          43.000  
> 2023 10 05 13 50 16.0030000  0 18                     
G08  20851691.451   109576347.331        -287.187          46.000  
G27  21833769.341   114737230.186       -2618.011          45.000  
G04  22157129.344   116436504.949       -2089.823          38.000  
G09  22604675.253   118788353.791        -506.733          42.000  
G21  22358925.338   117496979.160        2530.441          46.000  
G16  23717657.958   124637077.553       -1973.069          43.000  
G31  24961589.104   131173972.899       -2861.564          34.000  
C03  37266491.915   194056367.726        -139.675          39.000  
C10  37779486.175   196727664.289        -413.178          40.000  
C27  23213284.104   120877620.380       -1385.284          46.000  
C01  37878957.703   197245634.993        -140.232          40.000  
C02  38058503.185   198180588.467        -160.547          42.000  
C16  36583489.224   190499800.271        -284.473          39.000  
C30  22801645.142   118734130.922        1502.487          45.000  
C09  36606711.502   190620715.895         290.399          38.000  
C07  37112487.165   193254430.479        -474.884          39.000  
C06  36405872.863   189574898.500        -152.654          43.000  
G02  23331655.687                        2695.793          25.000  
> 2023 10 05 13 50 17.0030000  0 18                     
G08  20851746.472   109576634.951        -287.779          46.000  
G27  21834267.929   114739848.489       -2618.225          45.000  
G04  22157527.122   116438595.340       -2090.533          38.000  
G09  22604771.945   118788860.941        -507.432          42.000  
G21  22358443.764   117494449.134        2529.983          46.000  
G16  23718033.260   124639050.922       -1973.088          43.000  
G31  24962133.883   131176834.555       -2861.450          34.000  
C03  37266518.667   194056507.778        -139.905          39.000  
C10  37779565.486   196728077.844        -413.322          40.000  
C27  23213550.272   120879006.398       -1385.990          46.000  
C01  37878984.437   197245775.342        -140.065          40.000  
C02  38058534.299   198180749.449        -161.005          42.000  
C16  36583543.895   190500085.080        -284.833          39.000  
C30  22801356.812   118732628.844        1501.812          45.000  
C09  36606655.732   190620425.735         290.277          38.000  
C07  37112578.325   193254905.249        -474.847          38.000  
C06  36405901.988   189575051.520        -153.108          43.000  
G02  23331138.148                        2695.098          25.000  
> 2023 10 05 13 50 18.0030000  0 18                     
G08  20851801.004   109576922.894        -287.740          46.000  
G27  21834766.481   114742466.927       -2618.414          45.000  
G04  22157924.987   116440685.927       -2090.385          38.000  
G09  22604868.445   118789368.419        -507.331          42.000  
G21  22357962.068   117491919.196        2530.117          46.000  
G16  23718408.737   124641024.005       -1972.671          43.000  
G31  24962678.661   131179696.216       -2861.945          34.000  
C03  37266545.435   194056647.555        -139.282          39.000  
C10  37779644.832   196728491.159        -413.079          40.000  
C27  23213816.475   120880392.643       -1386.193          46.000  
C01  37879011.467   197245915.442        -139.691          39.000  
C02  38058565.256   198180910.148        -160.457          41.000  
C16  36583598.305   190500369.783        -284.399          39.000  
C30  22801068.447   118731126.960        1502.052          45.000  
C09  36606599.891   190620135.442         290.222          38.000  
C07  37112669.502   193255379.800        -474.460          39.000  
C06  36405931.356   189575204.433        -152.734          43.000  
G02  23330626.613                        2694.637          25.000  
> 2023 10 05 13 50 19.0030000  0 18                     
G08  20851856.007   109577211.620        -289.609          46.000  
G27  21835265.086   114745085.905       -2619.647          45.000  
G04  22158322.974   116442777.145       -2091.941          38.000  
G09  22604965.154   118789876.676        -509.031          42.000  
G21  22357481.018   117489389.795        2528.691          46.000  
G16  23718783.759   124642997.249       -1973.639          43.000  
G31  24963223.527   131182558.305       -2863.002          34.000  
C03  37266572.431   194056787.548        -140.659          39.000  
C10  37779724.196   196728904.700        -414.059          40.000  
C27  23214082.591   120881779.551       -1387.595          45.000  
C01  37879038.201   197246055.700        -140.580          40.000  
C02  38058595.951   198181071.018        -161.297          42.000  
C16  36583653.064   190500654.852        -286.084          39.000  
C30  22800779.942   118729625.734        1500.394          45.000  
C09  36606544.015   190619845.463         289.307          38.000  
C07  37112760.854   193255854.553        -475.396          39.000  
C06  36405960.847   189575357.669        -153.757          43.000  
G02  23330112.110                        2694.222          25.000  
> 2023 10 05 13 50 20.0030000  0 18                     
G08  20851911.202   109577501.313        -290.165          46.000  
G27  21835764.075   114747705.658       -2619.885          45.000  
G04  22158721.153   116444869.244       -2092.801          38.000  
G09  22605061.933   118790385.920        -509.765          41.000  
G21  22356999.811   117486861.138        2528.408          46.000  
G16  23719159.305   124644970.881       -1973.913          43.000  
G31  24963768.602   131185421.013       -2863.119          34.000  
C03  37266599.112   194056927.911        -140.791          39.000  
C10  37779803.402   196729318.652        -414.105          40.000  
C27  23214349.038   120883167.358       -1388.273          45.000  
C01  37879065.214   197246196.379        -140.769          40.000  
C02  38058626.960   198181232.320        -161.588          41.000  
C16  36583707.578   190500940.431        -285.632          40.000  
C30  22800491.595   118728125.372        1499.948          45.000  
C09  36606488.332   190619556.003         289.331          38.000  
C07  37112852.101   193256329.718        -475.533          39.000  
C06  36405990.355   189575511.452        -153.967          43.000  
G02  23329598.341                        2694.450          26.000  
> 2023 10 05 13 50 21.0030000  0 18                     
G08  20851966.466   109577791.712        -290.834          46.000  
G27  21836263.134   114750325.922       -2620.612          45.000  
G04  22159119.263   116446961.895       -2093.333          38.000  
G09  22605158.973   118790895.878        -510.428          41.000  
G21  22356518.586   117484332.968        2527.930          46.000  
G16  23719535.009   124646944.602       -1973.808          43.000  
G31  24964313.589   131188284.079       -2863.223          34.000  
C03  37266626.107   194057068.406        -141.029          39.000  
C10  37779882.609   196729732.734        -414.015          40.000  
C27  23214615.590   120884555.785       -1388.807          45.000  
C01  37879092.140   197246337.152        -140.857          40.000  
C02  38058658.143   198181393.696        -161.546          41.000  
C16  36583762.355   190501226.343        -286.230          39.000  
C30  22800203.858   118726625.585        1499.377          45.000  
C09  36606432.892   190619266.821         289.008          38.000  
C07  37112943.226   193256805.031        -475.477          39.000  
C06  36406019.829   189575665.527        -154.250          43.000  
G02  23329083.577                        2694.456          26.000  
> 2023 10 05 13 50 22.0030000  0 18                     
G08  20852021.627   109578082.624        -291.042          46.000  
G27  21836761.984   114752946.488       -2620.459          45.000  
G04  22159517.232   116449054.958       -2093.236          38.000  
G09  22605256.206   118791406.376        -510.687          42.000  
G21  22356037.780   117481805.096        2527.899          46.000  
G16  23719910.485   124648918.255       -1973.373          43.000  
G31  24964858.926   131191147.365       -2863.364          34.000  
C03  37266653.295   194057208.804        -140.341          39.000  
C10  37779962.094   196730146.839        -413.750          40.000  
C27  23214882.195   120885944.643       -1388.949          45.000  
C01  37879119.170   197246477.894        -140.604          40.000  
C02  38058689.117   198181555.024        -160.925          41.000  
C16  36583817.340   190501512.341        -285.718          39.000  
C30  22799915.808   118725126.210        1499.480          45.000  
C09  36606377.575   190618977.695         289.288          38.000  
C07  37113034.421   193257280.320        -475.000          39.000  
C06  36406049.477   189575819.696        -154.225          43.000  
G02  23328572.425                        2694.245          26.000  
> 2023 10 05 13 50 23.0030000  0 18                     
G08  20852076.926   109578374.159        -291.671          46.000  
G27  21837260.850   114755567.488       -2621.130          45.000  
G04  22159915.795   116451148.546       -2093.888          38.000  
G09  22605353.753   118791917.508        -511.393          42.000  
G21  22355556.573   117479277.627        2527.297          46.000  
G16  23720285.769   124650891.936       -1973.784          43.000  
G31  24965403.844   131194010.915       -2863.324          34.000  
C03  37266680.395   194057349.289        -140.449          39.000  
C10  37780041.563   196730561.008        -414.397          40.000  
C27  23215148.834   120887334.046       -1389.679          45.000  
C01  37879146.061   197246618.665        -140.723          39.000  
C02  38058720.127   198181716.420        -161.708          41.000  
C16  36583872.378   190501798.546        -286.115          39.000  
C30  22799627.844   118723627.356        1498.827          45.000  
C09  36606322.293   190618688.746         288.721          38.000  
C07  37113125.791   193257755.668        -475.138          39.000  
C06  36406079.055   189575974.054        -154.407          43.000  
G02  23328059.145   122589780.5823       2694.039          27.000  
> 2023 10 05 13 50 24.0030000  0 18                     
G08  20852132.470   109578666.246        -292.331          46.000  
G27  21837759.770   114758188.815       -2621.381          46.000  
G04  22160314.480   116453242.528       -2094.158          38.000  
G09  22605451.003   118792429.174        -511.948          42.000  
G21  22355075.732   117476750.464        2527.150          46.000  
G16  23720661.193   124652865.552       -1973.535          43.000  
G31  24965948.832   131196874.696       -2863.537          34.000  
C03  37266707.391   194057489.741        -140.437          39.000  
C10  37780121.223   196730975.172        -414.194          40.000  
C27  23215415.892   120888723.895       -1390.087          45.000  
C01  37879172.795   197246759.388        -140.623          39.000  
C02  38058751.101   198181877.771        -161.405          41.000  
C16  36583927.486   190502084.894        -286.261          40.000  
C30  22799340.055   118722128.930        1498.386          45.000  
C09  36606266.679   190618399.886         288.922          38.000  
C07  37113217.195   193258231.011        -475.428          39.000  
C06  36406108.930   189576128.530        -154.592          43.000  
G02  23327543.665   122587086.8322       2693.160          26.000  
> 2023 10 05 13 50 25.0030000  0 18                     
G08  20852188.049   109578958.912        -292.500          46.000  
G27  21838259.142   114760810.517       -2621.448          46.000  
G04  22160713.427   116455336.992       -2094.337          38.000  
G09  22605548.689   118792941.456        -512.416          42.000  
G21  22354594.961   117474223.667        2527.006          46.000  
G16  23721036.896   124654839.150       -1973.328          43.000  
G31  24966493.820   131199738.709       -2863.821          34.000  
C03  37266734.421   194057630.167        -139.711          39.000  
C10  37780200.377   196731389.335        -413.376          40.000  
C27  23215682.741   120890114.248       -1390.277          45.000  
C01  37879199.999   197246900.116        -140.424          39.000  
C02  38058782.302   198182039.120        -160.818          41.000  
C16  36583982.576   190502371.388        -285.907          39.000  
C30  22799052.388   118720630.976        1498.277          45.000  
C09  36606211.205   190618111.141         289.178          38.000  
C07  37113308.302   193258706.390        -474.983          39.000  
C06  36406138.525   189576283.170        -154.511          43.000  
G02  23327030.350   122584393.0992       2693.803          26.000  
> 2023 10 05 13 50 26.0030000  0 18                     
G08  20852243.716   109579251.842        -293.263          46.000  
G27  21838757.800   114763432.282       -2622.101          46.000  
G04  22161112.147   116457431.583       -2094.459          38.000  
G09  22605646.288   118793453.979        -512.745          42.000  
G21  22354113.911   117471696.908        2526.481          46.000  
G16  23721412.320   124656812.409       -1973.282          43.000  
G31  24967038.650   131202602.647       -2864.257          34.000  
C03  37266761.294   194057770.309        -140.314          39.000  
C10  37780280.002   196731803.266        -414.123          40.000  
C27  23215950.009   120891504.784       -1390.862          45.000  
C01  37879226.925   197247040.533        -140.142          39.000  
C02  38058813.049   198182200.149        -161.232          42.000  
C16  36584037.492   190502657.768        -286.499          40.000  
C30  22798764.721   118719133.190        1497.402          45.000  
C09  36606155.853   190617822.228         289.111          38.000  
C07  37113399.846   193259181.473        -475.563          39.000  
C06  36406168.103   189576437.640        -154.682          43.000  
G02  23326516.720   122581699.4122       2693.216          26.000  
> 2023 10 05 13 50 27.0030000  0 18                     
G08  20852299.609   109579545.586        -294.036          46.000  
G27  21839256.789   114766054.676       -2622.742          46.000  
G04  22161510.867   116459526.926       -2095.967          38.000  
G09  22605744.079   118793967.378        -513.724          42.000  
G21  22353632.931   117469170.764        2525.878          46.000  
G16  23721787.901   124658785.908       -1973.690          43.000  
G31  24967583.708   131205467.102       -2865.121          34.000  
C03  37266788.220   194057910.693        -140.664          39.000  
C10  37780359.453   196732217.450        -414.076          39.000  
C27  23216217.241   120892896.062       -1391.852          46.000  
C01  37879254.095   197247181.221        -140.542          40.000  
C02  38058843.831   198182361.446        -161.319          41.000  
C16  36584092.617   190502944.538        -287.061          39.000  
C30  22798477.177   118717636.100        1496.818          45.000  
C09  36606100.431   190617533.709         288.123          38.000  
C07  37113491.163   193259656.783        -475.469          39.000  
C06  36406198.065   189576592.525        -154.973          43.000  
G02  23326005.429   122579006.1162       2692.808          26.000  
> 2023 10 05 13 50 28.0030000  0 18                     
G08  20852355.659   109579840.090        -294.790          46.000  
G27  21839755.987   114768677.614       -2623.126          46.000  
G04  22161909.692   116461622.873       -2096.340          39.000  
G09  22605841.992   118794481.537        -514.840          42.000  
G21  22353152.195   117466645.146        2525.481          46.000  
G16  23722163.325   124660759.571       -1973.663          43.000  
G31  24968128.556   131208331.933       -2864.568          34.000  
C03  37266814.971   194058051.234        -140.518          39.000  
C10  37780439.079   196732631.885        -414.603          40.000  
C27  23216484.404   120894288.012       -1392.292          45.000  
C01  37879281.283   197247322.067        -140.738          40.000  
C02  38058874.753   198182522.927        -161.615          41.000  
C16  36584147.900   190503231.649        -287.415          39.000  
C30  22798189.894   118716139.672        1496.247          45.000  
C09  36606044.817   190617245.459         288.324          38.000  
C07  37113582.568   193260132.354        -475.669          39.000  
C06  36406227.783   189576747.738        -155.316          43.000  
G02  23325494.050   122576313.2202       2692.849          27.000  
> 2023 10 05 13 50 29.0030000  0 18                     
G08  20852411.744   109580135.228        -295.527          46.000  
G27  21840255.029   114771300.990       -2623.529          46.000  
G04  22162308.639   116463719.352       -2097.104          39.000  
G09  22605940.097   118794996.322        -515.067          42.000  
G21  22352671.686   117464119.948        2524.908          46.000  
G16  23722538.907   124662733.271       -1973.748          42.000  
G31  24968673.613   131211197.136       -2864.998          34.000  
C03  37266841.845   194058191.869        -141.016          40.000  
C10  37780518.669   196733046.430        -415.007          39.000  
C27  23216751.689   120895680.495       -1392.453          45.000  
C01  37879308.453   197247462.986        -141.049          40.000  
C02  38058905.797   198182684.444        -161.330          41.000  
C16  36584203.025   190503518.958        -287.524          39.000  
C30  22797902.681   118714643.755        1495.620          46.000  
C09  36605989.866   190616957.447         287.866          38.000  
C07  37113673.570   193260607.993        -475.963          38.000  
C06  36406257.448   189576903.136        -155.592          43.000  
G02  23324983.491   122573620.5672       2692.616          26.000  
> 2023 10 05 13 50 30.0030000  0 18                     
G08  20852468.125   109580430.539        -295.327          46.000  
G27  21840753.895   114773924.327       -2623.322          45.000  
G04  22162707.533   116465815.839       -2096.257          39.000  
G09  22606038.290   118795511.316        -515.138          41.000  
G21  22352190.915   117461594.693        2525.343          46.000  
G16  23722914.400   124664706.516       -1973.144          42.000  
G31  24969219.055   131214062.116       -2864.804          35.000  
C03  37266869.015   194058332.055        -140.154          40.000  
C10  37780598.451   196733460.526        -413.952          40.000  
C27  23217019.114   120897073.103       -1392.657          45.000  
C01  37879335.570   197247603.471        -140.619          39.000  
C02  38058936.666   198182845.566        -160.797          41.000  
C16  36584258.255   190503806.059        -287.103          40.000  
C30  22797615.677   118713147.916        1495.751          46.000  
C09  36605934.374   190616669.101         288.684          39.000  
C07  37113764.905   193261083.227        -474.769          39.000  
C06  36406287.306   189577058.317        -154.992          43.000  
G02  23324474.032   122570927.8362       2692.363          26.000  
> 2023 10 05 13 50 31.0030000  0 18                     
G08  20852524.402   109580726.689        -296.610          46.000  
G27  21841253.146   114776548.294       -2624.408          45.000  
G04  22163106.463   116467913.083       -2097.995          39.000  
G09  22606136.657   118796027.124        -516.021          41.000  
G21  22351710.510   117459070.041        2524.224          46.000  
G16  23723289.789   124666680.020       -1973.752          41.000  
G31  24969764.461   131216927.606       -2865.475          35.000  
C03  37266895.853   194058472.525        -140.641          41.000  
C10  37780677.990   196733874.952        -414.769          40.000  
C27  23217286.678   120898466.445       -1393.899          44.000  
C01  37879362.234   197247744.236        -140.915          39.000  
C02  38058967.571   198183006.985        -161.531          41.000  
C16  36584313.520   190504093.577        -287.958          41.000  
C30  22797328.534   118711652.793        1494.648          46.000  
C09  36605878.918   190616381.156         287.701          38.000  
C07  37113856.187   193261558.745        -475.897          39.000  
C06  36406317.512   189577213.924        -156.080          43.000  
G02  23323961.205   122568235.407        2692.432          25.000  
> 2023 10 05 13 50 32.0030000  0 18                     
G08  20852580.976   109581023.826        -297.738          45.000  
G27  21841752.083   114779173.016       -2625.055          45.000  
G04  22163505.759   116470011.187       -2098.875          39.000  
G09  22606234.919   118796543.953        -517.575          42.000  
G21  22351230.333   117456546.141        2523.547          46.000  
G16  23723665.510   124668653.889       -1974.113          43.000  
G31  24970310.200   131219793.780       -2866.924          35.000  
C03  37266923.058   194058613.360        -140.931          40.000  
C10  37780757.685   196734289.788        -415.226          39.000  
C27  23217554.155   120899860.642       -1394.798          44.000  
C01  37879389.352   197247885.362        -141.231          40.000  
C02  38058998.527   198183168.774        -162.132          41.000  
C16  36584368.907   190504381.645        -288.330          41.000  
C30  22797041.495   118710158.499        1493.764          46.000  
C09  36605823.635   190616093.740         287.213          38.000  
C07  37113947.713   193262034.658        -475.953          40.000  
C06  36406347.352   189577370.038        -156.508          43.000  
G02  23323450.280                        2691.894          25.000  
> 2023 10 05 13 50 33.0030000  0 18                     
G08  20852637.584   109581321.522        -297.876          46.000  
G27  21842251.403   114781798.111       -2625.177          44.000  
G04  22163905.072   116472109.719       -2098.712          39.000  
G09  22606333.478   118797061.330        -517.653          42.000  
G21  22350750.120   117454022.597        2523.416          46.000  
G16  23724041.353   124670627.736       -1973.991          43.000  
G31  24970855.833   131222660.136       -2866.587          35.000  
C03  37266950.210   194058754.216        -140.624          40.000  
C10  37780837.380   196734704.649        -414.391          39.000  
C27  23217821.736   120901255.349       -1394.968          44.000  
C01  37879416.557   197248026.529        -141.383          40.000  
C02  38059029.658   198183330.537        -161.876          41.000  
C16  36584424.346   190504669.860        -288.062          41.000  
C30  22796754.631   118708664.693        1493.735          46.000  
C09  36605768.458   190615806.452         287.195          38.000  
C07  37114039.310   193262510.625        -475.842          40.000  
C06  36406377.244   189577526.309        -156.335          43.000  
G02  23322943.404   122562852.155        2691.360          25.000  
> 2023 10 05 13 50 34.0030000  0 18                     
G08  20852694.333   109581619.833        -298.541          46.000  
G27  21842750.514   114784423.618       -2625.714          44.000  
G04  22164304.560   116474208.732       -2099.273          39.000  
G09  22606432.037   118797579.338        -518.086          42.000  
G21  22350269.785   117451499.436        2523.007          46.000  
G16  23724417.143   124672601.577       -1973.810          43.000  
G31  24971401.309   131225526.785       -2866.992          36.000  
C03  37266977.398   194058895.098        -141.147          40.000  
C10  37780916.761   196735119.576        -414.810          39.000  
C27  23218089.492   120902650.563       -1395.402          44.000  
C01  37879443.500   197248167.661        -140.920          40.000  
C02  38059060.702   198183492.323        -161.764          41.000  
C16  36584480.030   190504958.258        -288.293          41.000  
C30  22796467.959   118707171.387        1493.019          46.000  
C09  36605713.228   190615519.293         287.415          38.000  
C07  37114130.731   193262986.615        -475.948          40.000  
C06  36406407.224   189577682.750        -156.260          43.000  
G02  23322431.851                        2690.790          25.000  
> 2023 10 05 13 50 35.0030000  0 18                     
G08  20852751.098   109581918.754        -299.273          46.000  
G27  21843250.097   114787049.507       -2626.025          44.000  
G04  22164703.995   116476308.254       -2099.967          39.000  
G09  22606530.543   118798097.967        -518.846          42.000  
G21  22349789.643   117448976.659        2522.417          46.000  
G16  23724793.056   124674575.440       -1973.961          43.000  
G31  24971946.960   131228393.676       -2867.286          35.000  
C03  37267004.097   194059035.983        -140.756          40.000  
C10  37780996.334   196735534.582        -415.184          39.000  
C27  23218357.545   120904046.341       -1396.349          44.000  
C01  37879470.408   197248308.868        -141.304          39.000  
C02  38059091.834   198183654.149        -162.179          41.000  
C16  36584535.347   190505246.854        -288.446          41.000  
C30  22796181.670   118705678.577        1492.411          46.000  
C09  36605657.858   190615232.312         286.707          38.000  
C07  37114222.170   193263462.668        -476.390          40.000  
C06  36406437.517   189577839.383        -156.708          43.000  
G02  23321918.727   122557469.743        2690.974          26.000  
> 2023 10 05 13 50 36.0030000  0 17                     
G08  20852807.968   109582218.151        -299.515          46.000  
G27  21843749.522   114789675.676       -2626.074          44.000  
G04  22165103.448   116478408.119       -2099.769          38.000  
G09  22606629.224   118798617.100        -519.300          42.000  
G21  22349309.500   117446454.148        2522.556          46.000  
G16  23725168.602   124676549.174       -1973.595          43.000  
G31  24972492.751   131231260.698       -2866.794          35.000  
C03  37267031.214   194059176.809        -140.756          40.000  
C10  37781076.308   196735949.512        -414.603          39.000  
C27  23218625.563   120905442.491       -1396.211          44.000  
C01  37879497.665   197248449.993        -141.084          39.000  
C02  38059123.052   198183815.895        -161.667          41.000  
C16  36584591.048   190505535.542        -288.654          41.000  
C30  22795894.946   118704186.138        1492.539          46.000  
C09  36605602.733   190614945.365         287.024          38.000  
C07  37114313.959   193263938.648        -475.875          40.000  
C06  36406467.392   189577996.087        -156.517          43.000  
> 2023 10 05 13 50 37.0030000  0 17                     
G08  20852864.908   109582518.158        -300.442          45.000  
G27  21844249.087   114792302.273       -2626.801          44.000  
G04  22165502.762   116480508.476       -2100.295          38.000  
G09  22606728.411   118799136.849        -520.129          42.000  
G21  22348829.235   117443932.020        2521.938          45.000  
G16  23725544.131   124678522.938       -1973.717          43.000  
G31  24973038.751   131234128.075       -2867.767          35.000  
C03  37267058.506   194059317.648        -140.640          41.000  
C10  37781155.742   196736364.517        -415.138          39.000  
C27  23218893.703   120906839.152       -1397.052          44.000  
C01  37879524.713   197248591.106        -141.384          40.000  
C02  38059154.009   198183977.669        -161.956          41.000  
C16  36584646.418   190505824.413        -288.885          41.000  
C30  22795608.448   118702694.204        1491.631          46.000  
C09  36605547.852   190614658.599         286.548          38.000  
C07  37114405.153   193264414.670        -476.036          40.000  
C06  36406497.581   189578152.990        -157.179          43.000  
> 2023 10 05 13 50 38.0030000  0 18                     
G08  20852922.180   109582819.070        -301.132          45.000  
G27  21844748.634   114794929.571       -2627.411          44.000  
G04  22165902.249   116482609.679       -2101.579          38.000  
G09  22606827.458   118799657.515        -520.833          42.000  
G21  22348349.354   117441410.597        2521.411          45.000  
G16  23725919.694   124680497.011       -1973.913          43.000  
G31  24973584.768   131236996.001       -2868.094          35.000  
C03  37267085.624   194059458.832        -141.279          41.000  
C10  37781235.716   196736779.910        -415.320          39.000  
C27  23219161.948   120908236.673       -1397.913          44.000  
C01  37879551.656   197248732.567        -141.429          40.000  
C02  38059185.175   198184139.777        -162.193          41.000  
C16  36584702.154   190506113.793        -289.368          41.000  
C30  22795322.125   118701203.066        1490.829          46.000  
C09  36605492.779   190614372.269         286.310          38.000  
C07  37114496.697   193264891.067        -476.477          40.000  
C06  36406527.665   189578310.353        -157.496          43.000  
G02  23320393.002   122549491.8331       2690.445          27.000  
> 2023 10 05 13 50 39.0030000  0 18                     
G08  20852979.417   109583120.329        -301.403          45.000  
G27  21845248.653   114797556.989       -2627.673          44.000  
G04  22166302.348   116484711.090       -2102.028          39.000  
G09  22606926.750   118800178.540        -521.338          42.000  
G21  22347869.700   117438889.289        2521.073          46.000  
G16  23726295.677   124682470.825       -1973.640          43.000  
G31  24974130.995   131239863.921       -2868.312          36.000  
C03  37267112.881   194059599.785        -140.953          40.000  
C10  37781315.621   196737195.065        -415.182          40.000  
C27  23219430.315   120909634.431       -1398.064          44.000  
C01  37879578.756   197248873.780        -141.089          40.000  
C02  38059216.271   198184301.659        -161.605          41.000  
C16  36584757.523   190506403.088        -289.447          41.000  
C30  22795036.238   118699712.155        1490.578          46.000  
C09  36605437.794   190614085.842         286.395          39.000  
C07  37114587.962   193265367.226        -476.104          40.000  
C06  36406558.151   189578467.648        -157.478          43.000  
G02  23319882.583   122546801.655        2689.994          28.000  
> 2023 10 05 13 50 40.0030000  0 18                     
G08  20853036.741   109583422.272        -302.229          45.000  
G27  21845748.427   114800184.916       -2628.094          44.000  
G04  22166702.516   116486813.028       -2102.498          39.000  
G09  22607026.321   118800700.264        -522.169          42.000  
G21  22347390.028   117436368.450        2520.480          46.000  
G16  23726671.572   124684444.744       -1973.958          42.000  
G31  24974676.733   131242732.161       -2867.958          36.000  
C03  37267140.069   194059740.862        -141.322          40.000  
C10  37781395.228   196737610.364        -414.967          40.000  
C27  23219699.048   120911032.794       -1398.686          44.000  
C01  37879605.734   197249015.132        -141.137          39.000  
C02  38059247.350   198184463.628        -162.121          41.000  
C16  36584813.364   190506692.661        -289.648          41.000  
C30  22794750.055   118698221.840        1490.026          46.000  
C09  36605383.000   190613799.658         286.035          38.000  
C07  37114679.558   193265843.550        -476.634          39.000  
C06  36406588.497   189578625.196        -157.619          43.000  
G02  23319370.053   122544111.746        2689.813          28.000  
> 2023 10 05 13 50 41.0030000  0 18                     
G08  20853094.292   109583724.818        -302.944          46.000  
G27  21846248.463   114802813.228       -2628.546          44.000  
G04  22167102.807   116488915.447       -2102.812          39.000  
G09  22607125.805   118801222.608        -522.717          42.000  
G21  22346910.636   117433848.010        2520.297          46.000  
G16  23727047.031   124686418.647       -1973.937          43.000  
G31  24975222.942   131245600.695       -2868.542          35.000  
C03  37267167.082   194059881.938        -141.183          40.000  
C10  37781475.028   196738025.716        -415.173          40.000  
C27  23219967.747   120912431.672       -1398.982          44.000  
C01  37879632.922   197249156.505        -141.438          39.000  
C02  38059278.656   198184625.635        -161.693          41.000  
C16  36584868.786   190506982.443        -290.033          40.000  
C30  22794463.906   118696732.001        1489.673          46.000  
C09  36605328.014   190613513.630         285.919          39.000  
C07  37114771.050   193266319.904        -476.163          39.000  
C06  36406618.755   189578782.930        -157.765          42.000  
G02  23318858.273   122541422.108        2689.461          28.000  
> 2023 10 05 13 50 42.0030000  0 18                     
G08  20853151.982   109584028.094        -303.659          46.000  
G27  21846748.673   114805442.072       -2629.120          45.000  
G04  22167503.098   116491018.545       -2103.481          39.000  
G09  22607225.341   118801745.687        -523.524          42.000  
G21  22346431.296   117431328.077        2519.714          46.000  
G16  23727422.856   124688392.709       -1974.126          43.000  
G31  24975768.645   131248469.655       -2869.498          35.000  
C03  37267194.269   194060023.187        -141.119          40.000  
C10  37781554.793   196738441.282        -415.477          40.000  
C27  23220236.655   120913831.205       -1399.948          44.000  
C01  37879659.952   197249298.022        -141.561          39.000  
C02  38059309.612   198184787.808        -162.237          41.000  
C16  36584924.958   190507272.533        -290.302          40.000  
C30  22794178.141   118695242.796        1489.051          46.000  
C09  36605273.168   190613227.904         285.455          38.000  
C07  37114862.419   193266796.412        -476.270          38.000  
C06  36406648.979   189578940.973        -157.916          43.000  
G02  23318347.174   122538732.821        2689.183          28.000  
> 2023 10 05 13 50 43.0030000  0 18                     
G08  20853209.847   109584332.076        -304.146          46.000  
G27  21847249.163   114808071.404       -2629.486          45.000  
G04  22167903.423   116493122.168       -2103.743          39.000  
G09  22607324.877   118802269.475        -523.970          43.000  
G21  22345952.287   117428808.620        2519.208          46.000  
G16  23727798.873   124690366.842       -1973.852          43.000  
G31  24976314.418   131251338.948       -2869.638          34.000  
C03  37267221.230   194060164.577        -141.774          40.000  
C10  37781634.733   196738857.000        -415.852          40.000  
C27  23220505.789   120915231.338       -1400.400          45.000  
C01  37879687.070   197249439.681        -141.746          39.000  
C02  38059340.656   198184950.076        -161.897          41.000  
C16  36584980.607   190507562.901        -290.552          40.000  
C30  22793892.115   118693754.181        1488.473          46.000  
C09  36605218.218   190612942.396         285.547          38.000  
C07  37114954.067   193267273.112        -476.616          39.000  
C06  36406679.307   189579099.309        -158.326          43.000  
G02  23317835.254   122536043.826        2689.060          28.000  
> 2023 10 05 13 50 44.0030000  0 18                     
G08  20853267.782   109584636.366        -304.382          46.000  
G27  21847749.426   114810700.848       -2629.529          45.000  
G04  22168304.063   116495225.996       -2103.788          39.000  
G09  22607424.622   118802793.601        -524.255          43.000  
G21  22345472.912   117426289.251        2519.324          46.000  
G16  23728174.664   124692340.703       -1973.808          43.000  
G31  24976860.104   131254208.213       -2869.618          34.000  
C03  37267248.312   194060305.652        -141.042          40.000  
C10  37781714.341   196739272.452        -415.278          40.000  
C27  23220775.011   120916631.720       -1400.588          45.000  
C01  37879714.135   197249581.035        -140.960          39.000  
C02  38059371.840   198185112.119        -161.956          41.000  
C16  36585036.046   190507853.165        -290.240          40.000  
C30  22793606.315   118692265.761        1488.521          46.000  
C09  36605163.214   190612656.765         285.602          38.000  
C07  37115045.367   193267749.583        -476.474          38.000  
C06  36406709.880   189579257.523        -158.228          43.000  
G02  23317323.055   122533354.783        2689.268          29.000  
> 2023 10 05 13 50 45.0030000  0 18                     
G08  20853325.577   109584941.078        -304.763          46.000  
G27  21848250.090   114813330.508       -2629.785          45.000  
G04  22168704.475   116497330.127       -2104.001          39.000  
G09  22607524.455   118803318.161        -524.784          43.000  
G21  22344993.660   117423770.091        2519.050          46.000  
G16  23728550.315   124694314.377       -1973.407          43.000  
G31  24977406.034   131257077.576       -2869.510          34.000  
C03  37267275.482   194060446.596        -140.627          40.000  
C10  37781794.175   196739687.831        -415.255          40.000  
C27  23221044.233   120918032.442       -1400.823          45.000  
C01  37879741.166   197249722.275        -141.158          39.000  
C02  38059402.831   198185273.995        -161.654          41.000  
C16  36585091.573   190508143.462        -290.137          40.000  
C30  22793320.550   118690777.673        1488.001          46.000  
C09  36605108.142   190612371.132         285.547          38.000  
C07  37115136.981   193268225.906        -476.563          38.000  
C06  36406740.436   189579415.751        -158.295          43.000  
G02  23316808.187   122530665.867        2688.538          29.000  
> 2023 10 05 13 50 46.0030000  0 18                     
G08  20853383.354   109585246.487        -305.823          46.000  
G27  21848750.789   114815960.646       -2630.225          45.000  
G04  22169104.975   116499434.820       -2104.538          39.000  
G09  22607624.550   118803843.397        -525.436          43.000  
G21  22344514.512   117421251.390        2518.607          46.000  
G16  23728926.157   124696288.153       -1973.720          43.000  
G31  24977952.086   131259947.292       -2869.607          33.000  
C03  37267302.356   194060587.645        -140.894          40.000  
C10  37781873.748   196740103.347        -415.754          40.000  
C27  23221313.612   120919433.749       -1401.497          45.000  
C01  37879768.475   197249863.614        -141.499          39.000  
C02  38059434.032   198185435.977        -161.886          41.000  
C16  36585147.535   190508434.029        -290.662          40.000  
C30  22793035.047   118689290.150        1487.345          46.000  
C09  36605053.243   190612085.720         284.882          38.000  
C07  37115228.769   193268702.330        -476.549          39.000  
C06  36406770.607   189579574.214        -158.295          43.000  
G02  23316299.949   122527977.170        2688.776          29.000  
> 2023 10 05 13 50 47.0030000  0 18                     
G08  20853441.743   109585552.013        -305.921          46.000  
G27  21849251.366   114818590.709       -2630.365          45.000  
G04  22169505.615   116501539.535       -2104.870          39.000  
G09  22607724.504   118804368.787        -525.642          43.000  
G21  22344035.329   117418732.600        2518.721          46.000  
G16  23729301.738   124698261.456       -1973.211          43.000  
G31  24978498.330   131262816.808       -2869.795          33.000  
C03  37267329.264   194060728.245        -140.607          40.000  
C10  37781953.653   196740518.431        -414.824          40.000  
C27  23221582.729   120920835.110       -1401.586          45.000  
C01  37879795.506   197250004.492        -140.970          39.000  
C02  38059465.076   198185597.528        -161.689          41.000  
C16  36585203.394   190508724.306        -290.314          40.000  
C30  22792749.265   118687802.656        1487.243          46.000  
C09  36604998.397   190611799.977         285.541          38.000  
C07  37115319.911   193269178.344        -475.835          39.000  
C06  36406800.709   189579732.409        -157.975          43.000  
G02  23315788.919   122525288.283        2688.760          30.000  
> 2023 10 05 13 50 48.0030000  0 18                     
G08  20853500.079   109585858.460        -307.040          45.000  
G27  21849752.432   114821221.477       -2631.335          45.000  
G04  22169906.062   116503645.011       -2105.857          40.000  
G09  22607824.826   118804895.086        -526.643          43.000  
G21  22343555.831   117416214.509        2517.681          46.000  
G16  23729677.250   124700235.046       -1973.757          43.000  
G31  24979044.278   131265686.903       -2870.377          33.000  
C03  37267356.504   194060869.184        -141.044          40.000  
C10  37782033.331   196740933.876        -415.419          40.000  
C27  23221851.829   120922237.305       -1402.641          45.000  
C01  37879822.937   197250145.692        -141.335          39.000  
C02  38059496.225   198185759.413        -162.010          41.000  
C16  36585259.234   190509015.056        -291.168          40.000  
C30  22792463.849   118686315.958        1486.177          46.000  
C09  36604943.726   190611514.717         284.821          38.000  
C07  37115411.385   193269654.696        -476.468          38.000  
C06  36406831.316   189579891.068        -158.776          42.000  
G02  23315280.856   122522599.976        2688.109          30.000  
> 2023 10 05 13 50 49.0030000  0 18                     
G08  20853558.485   109586165.705        -307.503          45.000  
G27  21850253.480   114823852.806       -2631.354          45.000  
G04  22170306.580   116505751.165       -2106.336          39.000  
G09  22607925.130   118805422.203        -527.282          43.000  
G21  22343076.561   117413696.971        2517.500          46.000  
G16  23730052.691   124702208.839       -1973.585          44.000  
G31  24979590.365   131268557.450       -2870.980          34.000  
C03  37267383.290   194061010.324        -140.934          40.000  
C10  37782113.113   196741349.566        -415.242          40.000  
C27  23222121.208   120923640.187       -1402.964          45.000  
C01  37879849.706   197250287.106        -141.436          39.000  
C02  38059527.164   198185921.491        -161.913          42.000  
C16  36585315.372   190509306.184        -290.942          40.000  
C30  22792178.346   118684829.923        1485.861          46.000  
C09  36604888.984   190611229.760         284.985          37.000  
C07  37115502.737   193270131.284        -476.345          38.000  
C06  36406861.837   189580050.101        -158.942          42.000  
G02  23314771.240   122519912.059        2688.018          31.000  
> 2023 10 05 13 50 50.0030000  0 18                     
G08  20853616.943   109586473.305        -308.094          45.000  
G27  21850754.668   114826484.321       -2631.976          45.000  
G04  22170707.272   116507857.592       -2106.891          39.000  
G09  22608025.695   118805949.712        -528.287          43.000  
G21  22342597.431   117411179.608        2516.948          46.000  
G16  23730428.412   124704182.424       -1973.857          44.000  
G31  24980136.836   131271428.029       -2871.283          35.000  
C03  37267410.355   194061151.265        -140.989          40.000  
C10  37782192.791   196741765.111        -416.131          40.000  
C27  23222390.221   120925043.371       -1403.780          45.000  
C01  37879876.806   197250428.311        -141.086          39.000  
C02  38059558.278   198186083.371        -162.149          42.000  
C16  36585371.509   190509597.285        -291.724          40.000  
C30  22791893.035   118683344.178        1485.045          46.000  
C09  36604834.121   190610944.769         284.375          37.000  
C07  37115594.019   193270607.704        -476.560          39.000  
C06  36406892.479   189580209.094        -159.483          42.000  
G02  23314256.145   122517224.179        2686.623          31.000  
