     3.02           OBSERVATION DATA    M: Mixed            RINEX VERSION / TYPE
RTKCONV 2.4.2                           20230710 094805 UTC PGM / RUN BY / DATE 
log: C:\Users\guoha\Dropbox\1_IPNL_Research\2023_Uris_Loui  COMMENT             
format: u-blox                                              COMMENT             
                                                            MARKER NAME         
                                                            MARKER NUMBER       
                                                            MARKER TYPE         
                                                            OBSERVER / AGENCY   
                                                            REC # / TYPE / VERS 
                                                            ANT # / TYPE        
 -2418193.1438  5385962.4966  2405655.5239                  APPROX POSITION XYZ 
        0.0000        0.0000        0.0000                  ANTENNA: DELTA H/E/N
G    4 C1C L1C D1C S1C                                      SYS / # / OBS TYPES 
R    4 C1C L1C D1C S1C                                      SYS / # / OBS TYPES 
E    4 C1C L1C D1C S1C                                      SYS / # / OBS TYPES 
J    4 C1C L1C D1C S1C                                      SYS / # / OBS TYPES 
S    4 C1C L1C D1C S1C                                      SYS / # / OBS TYPES 
C    4 C1I L1I D1I S1I                                      SYS / # / OBS TYPES 
  2023     7     9     8    42   29.0040000     GPS         TIME OF FIRST OBS   
  2023     7     9     8    52   51.0050000     GPS         TIME OF LAST OBS    
G                                                           SYS / PHASE SHIFT   
R                                                           SYS / PHASE SHIFT   
E                                                           SYS / PHASE SHIFT   
J                                                           SYS / PHASE SHIFT   
S                                                           SYS / PHASE SHIFT   
C                                                           SYS / PHASE SHIFT   
  0                                                         GLONASS SLOT / FRQ #
 C1C    0.000 C1P    0.000 C2C    0.000 C2P    0.000        GLONASS COD/PHS/BIS 
                                                            END OF HEADER       
> 2023  7  9  8 42 29.0040000  0 13                     
G18  23605596.413   124048270.305        2299.467          43.000  
C 6  38039948.699   198083972.299         331.965          42.000  
C13  38409759.574   200009659.292         119.131          49.000  
C22  24733581.695   128794200.149        -113.319          47.000  
C16  37963594.962   197686382.676         249.472          40.000  
C 3  37301686.557   194239640.2082       -637.232          34.000  
G15  21596430.993   113490048.156       -1668.916          46.000  
C19  24689427.268   128564290.740       -1699.666          47.000  
G24  22737798.090   119488007.178        2155.659          34.000  
G13  23013524.648   120936684.734       -3448.749          29.000  
G29  23564761.386                       -2633.035          23.000  
G20  24800556.704                       -2205.043          17.000  
G23  25125173.914   132033750.634        1200.085          41.000  
> 2023  7  9  8 42 30.0040000  0 13                     
G18  23605158.752   124045971.184        2299.083          43.000  
C 6  38039884.812   198083640.472         331.947          42.000  
C13  38409736.593   200009540.182         119.081          49.000  
C22  24733603.451   128794313.521        -113.459          47.000  
C16  37963546.964   197686133.103         249.656          40.000  
C 3  37301808.848   194240277.5322       -637.515          34.000  
G15  21596748.604   113491717.239       -1669.382          45.000  
C19  24689753.720   128565990.251       -1699.482          47.000  
G24  22737384.678   119485852.519        2154.696          34.000  
G13  23014173.872   120940134.359       -3450.334          30.000  
G29  23565267.201                       -2635.295          25.000  
G20  24800985.050                       -2216.042          21.000  
G23  25124945.681   132032550.446        1200.116          41.000  
> 2023  7  9  8 42 31.0040000  0 13                     
G18  23604721.308   124043672.782        2298.190          43.000  
C 6  38039820.977   198083309.259         330.929          42.000  
C13  38409713.719   200009421.473         118.526          49.000  
C22  24733625.292   128794427.445        -114.142          47.000  
C16  37963498.943   197685884.160         248.544          40.000  
C 3  37301931.234   194240913.3293       -638.053          34.000  
G15  21597066.710   113493387.170       -1670.381          45.000  
C19  24690079.986   128567690.231       -1700.240          47.000  
G24  22736976.354   119483698.662        2154.259          34.000  
G13  23014828.460   120943584.526       -3449.789          30.000  
G29  23565777.101                       -2637.199          27.000  
G20  24801412.920                       -2212.763          26.000  
G23  25124717.157   132031350.639        1199.866          41.000  
> 2023  7  9  8 42 32.0040000  0 13                     
G18  23604284.066   124041374.983        2297.363          44.000  
C 6  38039757.363   198082978.555         330.037          42.000  
C13  38409691.114   200009303.035         118.266          49.000  
C22  24733647.524   128794541.820        -114.545          47.000  
C16  37963450.770   197685635.704         247.871          40.000  
C 3  37302053.798   194241551.4782       -638.829          34.000  
G15  21597384.959   113495057.810       -1671.015          45.000  
C19  24690406.709   128569390.547       -1700.514          47.000  
G24  22736567.495   119481545.585        2152.882          34.000  
G13  23015485.411   120947035.417       -3451.030          31.000  
G29  23566281.361   123841631.3282      -2637.991          27.000  
G20  24801841.139   130334517.1312      -2213.504          27.000  
G23  25124489.046   132030151.138        1199.438          41.000  
> 2023  7  9  8 42 33.0040000  0 14                     
G18  23603846.718   124039077.658        2296.931          44.000  
C 6  38039693.974   198082648.168         330.049          42.000  
C13  38409668.323   200009184.750         118.136          49.000  
C22  24733669.760   128794656.520        -115.053          47.000  
C16  37963403.283   197685387.595         248.044          40.000  
C 3  37302176.378   194242189.8623       -638.695          34.000  
G15  21597702.830   113496729.061       -1671.749          45.000  
C19  24690733.163   128571091.068       -1700.728          47.000  
G24  22736161.276   119479393.092        2152.524          34.000  
G13  23016146.182   120950486.693       -3451.518          31.000  
G29  23566787.611   123844269.1522      -2638.316          26.000  
G 5  23652274.035                       -1694.831          27.000  
G20  24802273.740   130336730.4412      -2213.832          29.000  
G23  25124261.040   132028951.801        1198.938          41.000  
> 2023  7  9  8 42 34.0040000  0 13                     
G18  23603409.889   124036780.905        2296.404          44.000  
C 6  38039630.492   198082318.249         329.700          42.000  
C13  38409645.755   200009066.721         118.056          49.000  
C22  24733692.134   128794771.608        -115.290          47.000  
C16  37963355.864   197685139.985         247.554          40.000  
C 3  37302298.767   194242828.5432       -639.229          34.000  
G15  21598020.972   113498400.990       -1672.291          46.000  
C19  24691059.958   128572791.896       -1701.150          47.000  
G24  22735752.518   119477241.282        2151.909          34.000  
G13  23016803.004   120953938.518       -3451.689          31.000  
G29  23567293.059   123846907.6422      -2638.500          25.000  
G20  24802706.813   130338944.2602      -2213.313          29.000  
G23  25124032.665   132027752.684        1198.907          40.000  
> 2023  7  9  8 42 35.0040000  0 13                     
G18  23602972.671   124034484.580        2295.930          44.000  
C 6  38039567.257   198081988.644         329.423          42.000  
C13  38409623.156   200008948.797         117.877          49.000  
C22  24733714.272   128794886.969        -115.522          47.000  
C16  37963308.205   197684892.681         247.016          40.000  
C 3  37302421.589   194243467.3582       -638.595          34.000  
G15  21598339.444   113500073.458       -1672.823          46.000  
C19  24691386.376   128574492.866       -1701.192          47.000  
G24  22735342.930   119475090.109        2150.577          34.000  
G13  23017454.002   120957390.698       -3452.035          32.000  
G29  23567797.820                       -2638.544          23.000  
G20  24803132.801   130341158.4662      -2214.363          30.000  
G23  25123804.135   132026553.682        1198.773          40.000  
> 2023  7  9  8 42 36.0040000  0 13                     
G18  23602535.800   124032188.763        2295.633          44.000  
C 6  38039503.843   198081659.454         328.946          42.000  
C13  38409600.439   200008831.059         117.651          49.000  
C22  24733736.882   128795002.687        -115.797          47.000  
C16  37963260.392   197684645.785         246.554          40.000  
C 3  37302544.209   194244104.5063       -639.100          34.000  
G15  21598658.177   113501746.558       -1673.416          45.000  
C19  24691713.115   128576194.086       -1701.463          47.000  
G24  22734932.695   119472939.505        2150.676          34.000  
G13  23018112.565   120960843.442       -3453.106          32.000  
G29  23568303.217                       -2640.150          21.000  
G20  24803560.312   130343373.0622      -2214.318          29.000  
G23  25123575.688   132025354.861        1199.030          40.000  
> 2023  7  9  8 42 37.0040000  0 13                     
G18  23602099.158   124029893.533        2294.617          43.000  
C 6  38039440.577   198081330.742         327.948          37.000  
C13  38409577.992   200008713.610         116.712          46.000  
C22  24733759.485   128795118.861        -117.028          43.000  
C16  37963213.248   197684399.384         245.705          36.000  
C 3  37302666.958   194244744.0153       -640.532          30.000  
G15  21598976.680   113503420.377       -1674.756          45.000  
C19  24692040.063   128577895.654       -1702.535          42.000  
G24  22734523.867   119470789.679        2148.759          32.000  
G13  23018779.866   120964296.715       -3454.404          30.000  
G29  23568805.401                       -2640.150          19.000  
G20  24803990.285   130345588.2512      -2216.370          25.000  
G23  25123347.231   132024156.364        1197.107          38.000  
> 2023  7  9  8 42 38.0040000  0 13                     
G18  23601663.122   124027599.268        2293.690          45.000  
C 6  38039377.533   198081002.856         327.344          39.000  
C13  38409555.630   200008596.747         116.637          48.000  
C22  24733781.976   128795235.780        -117.255          45.000  
C16  37963166.116   197684153.799         245.433          39.000  
C 3  37302790.069   194245385.1452       -640.215          31.000  
G15  21599295.654   113505095.256       -1675.447          45.000  
C19  24692366.825   128579597.862       -1702.571          45.000  
G24  22734114.843   119468640.914        2148.530          33.000  
G13  23019438.143   120967750.852       -3454.585          31.000  
G29  23569308.856                       -2640.150          16.000  
G20  24804421.342   130347804.2482      -2217.121          26.000  
G23  25123118.687   132022958.431        1197.504          39.000  
> 2023  7  9  8 42 39.0040000  0 12                     
G18  23601226.869   124025305.620        2293.188          44.000  
C 6  38039314.617   198080675.462         327.150          40.000  
C13  38409533.237   200008480.200         116.370          48.000  
C22  24733804.948   128795353.177        -117.635          45.000  
C16  37963119.029   197683908.751         244.775          38.000  
C 3  37302913.208   194246025.6702       -640.908          32.000  
G15  21599614.618   113506770.879       -1675.961          45.000  
C19  24692693.598   128581300.418       -1702.687          44.000  
G24  22733705.910   119466492.964        2147.711          34.000  
G13  23020100.544   120971205.611       -3454.291          32.000  
G20  24804855.757                       -2216.287          25.000  
G23  25122890.448   132021760.832        1197.430          38.000  
> 2023  7  9  8 42 40.0040000  0 12                     
G18  23600790.684   124023012.301        2292.884          43.000  
C 6  38039251.682   198080348.262         326.907          40.000  
C13  38409510.762   200008363.654         116.173          47.000  
C22  24733827.564   128795470.738        -117.986          45.000  
C16  37963071.827   197683663.892         244.387          38.000  
C 3  37303036.282   194246667.2663       -640.844          33.000  
G15  21599933.695   113508446.932       -1676.548          44.000  
C19  24693020.687   128583003.043       -1702.934          44.000  
G24  22733297.485   119464345.423        2146.898          33.000  
G13  23020758.760   120974660.739       -3455.573          32.000  
G20  24805279.453                       -2216.218          24.000  
G23  25122662.471   132020563.206        1197.845          38.000  
> 2023  7  9  8 42 41.0040000  0 12                     
G18  23600354.686   124020719.255        2292.929          43.000  
C 6  38039188.870   198080021.261         326.932          39.000  
C13  38409488.133   200008247.045         116.769          47.000  
C22  24733850.253   128795588.400        -117.474          45.000  
C16  37963024.850   197683419.217         244.727          37.000  
C 3  37303159.441   194247307.8782       -640.551          32.000  
G15  21600252.243   113510123.381       -1676.578          43.000  
C19  24693347.780   128584705.673       -1702.485          44.000  
G24  22732888.717   119462198.332        2147.214          33.000  
G13  23021415.359   120978116.017       -3455.470          33.000  
G20  24805698.728                       -2218.716          24.000  
G23  25122435.098   132019365.600        1197.656          38.000  
> 2023  7  9  8 42 42.0040000  0 12                     
G18  23599918.689   124018425.770        2293.297          43.000  
C 6  38039126.034   198079693.675         327.411          39.000  
C13  38409465.808   200008129.695         117.597          47.000  
C22  24733872.705   128795705.491        -116.914          45.000  
C16  37962977.461   197683173.989         245.535          37.000  
C 3  37303282.582   194247949.7943       -639.981          32.000  
G15  21600570.911   113511799.514       -1676.247          43.000  
C19  24693674.298   128586407.580       -1701.810          43.000  
G24  22732479.495   119460050.874        2147.672          33.000  
G13  23022066.407   120981570.858       -3454.844          33.000  
G20  24806114.679                       -2216.425          23.000  
G23  25122207.060   132018167.138        1198.743          38.000  
> 2023  7  9  8 42 43.0040000  0 12                     
G18  23599482.692   124016132.848        2292.261          42.000  
C 6  38039063.274   198079366.548         326.644          39.000  
C13  38409443.152   200008012.586         116.473          47.000  
C22  24733895.241   128795822.984        -117.935          45.000  
C16  37962930.134   197682929.226         244.142          36.000  
C 3  37303405.364   194248589.0752       -641.239          32.000  
G15  21600889.585   113513476.324       -1677.544          42.000  
C19  24694000.915   128588109.806       -1703.015          43.000  
G24  22732070.833   119457904.231        2146.072          31.000  
G13  23022726.439   120985026.205       -3456.133          33.000  
G20  24806526.316                       -2217.605          24.000  
G23  25121979.051   132016968.962        1197.589          37.000  
> 2023  7  9  8 42 44.0040000  0 12                     
G18  23599046.767   124013840.881        2291.686          42.000  
C 6  38039000.437   198079040.272         326.321          39.000  
C13  38409420.814   200007896.098         116.499          47.000  
C22  24733917.906   128795941.269        -118.357          45.000  
C16  37962883.044   197682685.297         244.108          37.000  
C 3  37303528.319   194249230.0042       -641.396          32.000  
G15  21601208.426   113515154.204       -1678.155          42.000  
C19  24694327.374   128589812.691       -1702.922          43.000  
G24  22731662.141   119455758.616        2145.050          31.000  
G13  23023385.217   120988482.454       -3456.057          33.000  
G20  24806937.816                       -2216.788          26.000  
G23  25121751.302   132015771.423        1197.278          37.000  
> 2023  7  9  8 42 45.0040000  0 12                     
G18  23598610.991   124011549.278        2291.375          43.000  
C 6  38038937.669   198078714.242         326.034          39.000  
C13  38409398.436   200007779.671         116.264          47.000  
C22  24733940.494   128796059.777        -118.609          44.000  
C16  37962836.390   197682441.648         243.644          37.000  
C 3  37303651.494   194249871.0713       -640.755          32.000  
G15  21601527.489   113516832.583       -1678.513          42.000  
C19  24694654.279   128591515.713       -1703.161          43.000  
G24  22731253.824   119453613.492        2144.266          31.000  
G13  23024043.248   120991939.155       -3457.619          34.000  
G20  24807353.260                       -2218.284          26.000  
G23  25121523.304   132014573.913        1197.675          36.000  
> 2023  7  9  8 42 46.0040000  0 12                     
G18  23598175.395   124009257.859        2291.568          42.000  
C 6  38038875.291   198078388.266         326.419          39.000  
C13  38409375.951   200007663.094         116.758          48.000  
C22  24733963.250   128796178.289        -118.458          45.000  
C16  37962789.177   197682198.061         243.869          37.000  
C 3  37303774.572   194250512.0673       -640.577          32.000  
G15  21601847.049   113518511.205       -1678.411          41.000  
C19  24694981.161   128593218.597       -1702.556          43.000  
G24  22730843.122   119451468.693        2144.464          29.000  
G13  23024701.542   120995395.926       -3456.698          32.000  
G20  24807770.654                       -2218.247          26.000  
G23  25121295.062   132013376.222        1198.218          34.000  
> 2023  7  9  8 42 47.0040000  0 12                     
G18  23597739.766   124006966.376        2291.164          42.000  
C 6  38038812.416   198078062.126         325.989          39.000  
C13  38409353.678   200007546.135         116.987          46.000  
C22  24733985.872   128796296.558        -118.447          43.000  
C16  37962741.980   197681954.279         243.741          36.000  
C 3  37303897.897   194251153.7242       -640.944          32.000  
G15  21602166.303   113520189.910       -1678.957          41.000  
C19  24695307.953   128594921.168       -1702.495          42.000  
G24  22730433.065   119449323.974        2144.286          29.000  
G13  23025359.295   120998852.578       -3456.613          33.000  
G20  24808188.712                       -2217.932          25.000  
G23  25121066.505   132012178.207        1198.248          33.000  
> 2023  7  9  8 42 48.0040000  0 12                     
G18  23597304.143   124004675.760        2290.272          42.000  
C 6  38038749.855   198077736.745         324.853          38.000  
C13  38409331.424   200007429.742         115.955          45.000  
C22  24734008.527   128796415.571        -119.793          42.000  
C16  37962695.376   197681711.301         242.331          36.000  
C 3  37304021.012   194251795.0153       -641.626          31.000  
G15  21602485.468   113521869.614       -1680.560          41.000  
C19  24695634.790   128596624.350       -1703.536          42.000  
G24  22730027.525   119447180.333        2142.438          28.000  
G13  23026017.584   121002310.131       -3458.306          33.000  
G20  24808608.496                       -2219.109          25.000  
G23  25120837.822   132010980.750        1196.326          32.000  
> 2023  7  9  8 42 49.0040000  0 12                     
G18  23596868.798   124002385.851        2289.883          42.000  
C 6  38038687.329   198077411.937         324.655          38.000  
C13  38409309.119   200007313.711         116.167          46.000  
C22  24734031.594   128796535.081        -119.474          43.000  
C16  37962648.703   197681468.868         242.428          36.000  
C 3  37304144.344   194252436.7893       -642.586          31.000  
G15  21602805.200   113523550.104       -1680.603          41.000  
C19  24695962.076   128598327.938       -1703.664          42.000  
G24  22729619.234   119445037.418        2142.548          28.000  
G13  23026675.965   121005768.269       -3457.965          33.000  
G20  24809033.252                       -2219.534          25.000  
G23  25120606.925   132009783.561        1197.253          30.000  
> 2023  7  9  8 42 50.0040000  0 12                     
G18  23596433.850   124000096.437        2288.937          44.000  
C 6  38038625.048   198077087.520         323.580          38.000  
C13  38409286.824   200007197.861         115.498          46.000  
C22  24734054.426   128796654.945        -120.320          43.000  
C16  37962602.320   197681226.874         241.311          36.000  
C 3  37304268.006   194253078.7732       -643.347          32.000  
G15  21603125.301   113525231.216       -1681.568          43.000  
C19  24696288.926   128600031.768       -1704.170          42.000  
G24  22729216.252   119442895.190        2141.198          29.000  
G13  23027334.491   121009226.941       -3459.269          34.000  
G20  24809464.785                       -2219.315          24.000  
G23  25120362.214   132008586.639        1196.826          31.000  
> 2023  7  9  8 42 51.0040000  0 12                     
G18  23595998.517   123997807.479        2288.341          44.000  
C 6  38038562.985   198076763.407         323.806          39.000  
C13  38409264.442   200007082.130         115.582          46.000  
C22  24734077.280   128796775.094        -120.389          43.000  
C16  37962555.892   197680985.195         240.782          36.000  
C 3  37304391.358   194253723.9023       -642.421          32.000  
G15  21603445.639   113526912.914       -1682.326          43.000  
C19  24696615.774   128601735.758       -1704.017          42.000  
G24  22728803.980                        2141.339          29.000  
G13  23027993.012   121012685.991       -3459.346          35.000  
G20  24809898.100                       -2220.852          23.000  
G23  25120138.138   132007389.815        1197.284          32.000  
> 2023  7  9  8 42 52.0040000  0 12                     
G18  23595563.379   123995518.600        2288.999          41.000  
C 6  38038500.819   198076439.309         324.127          38.000  
C13  38409242.269   200006966.178         116.094          46.000  
C22  24734100.263   128796895.166        -119.725          43.000  
C16  37962509.731   197680743.507         241.538          36.000  
C 3  37304514.711   194254365.9353       -642.425          31.000  
G15  21603766.299   113528594.802       -1681.764          42.000  
C19  24696942.402   128603439.583       -1703.427          40.000  
G24  22728396.851   119438529.5773       2141.340          28.000  
G13  23028650.981   121016145.119       -3459.167          33.000  
G20  24810330.136                       -2218.995          21.000  
G23  25119920.221   132006192.770        1197.858          31.000  
> 2023  7  9  8 42 53.0040000  0 12                     
G18  23595128.229   123993229.836        2288.406          43.000  
C 6  38038438.626   198076115.185         323.538          38.000  
C13  38409219.862   200006849.997         115.961          46.000  
C22  24734122.844   128797015.189        -120.357          43.000  
C16  37962463.711   197680501.780         241.653          37.000  
C 3  37304637.927   194255007.7332       -641.558          31.000  
G15  21604087.345   113530276.917       -1682.668          43.000  
C19  24697269.254   128605143.221       -1703.865          41.000  
G24  22727998.767   119436388.3842       2140.649          29.000  
G13  23029309.437   121019604.262       -3459.811          33.000  
G20  24810761.168                       -2214.388          22.000  
G23  25119690.783   132004995.468        1198.029          30.000  
> 2023  7  9  8 42 54.0040000  0 12                     
G18  23594693.016   123990941.580        2288.471          43.000  
C 6  38038376.554   198075791.453         323.784          39.000  
C13  38409197.583   200006734.013         116.186          48.000  
C22  24734145.948   128797135.560        -120.104          44.000  
C16  37962417.713   197680260.487         241.471          37.000  
C 3  37304761.260   194255649.8622       -641.198          31.000  
G15  21604408.379   113531959.649       -1682.592          43.000  
C19  24697596.070   128606847.118       -1703.748          41.000  
G24  22727600.807   119434247.8532       2140.316          28.000  
G13  23029968.269   121023063.910       -3459.530          33.000  
G20  24811184.760                       -2220.242          24.000  
G23  25119457.609   132003798.416        1197.534          30.000  
> 2023  7  9  8 42 55.0040000  0 12                     
G18  23594258.012   123988653.649        2287.550          45.000  
C 6  38038314.691   198075467.929         323.235          39.000  
C13  38409175.365   200006617.996         116.054          48.000  
C22  24734168.582   128797256.108        -120.685          44.000  
C16  37962371.502   197680019.400         241.013          37.000  
C 3  37304884.674   194256292.0543       -642.038          32.000  
G15  21604729.807   113533642.814       -1683.485          46.000  
C19  24697922.969   128608551.056       -1703.906          41.000  
G24  22727197.729   119432107.7782       2139.707          29.000  
G13  23030626.741   121026523.822       -3459.926          32.000  
G20  24811605.078                       -2220.947          26.000  
G23  25119228.223   132002601.294        1197.223          30.000  
> 2023  7  9  8 42 56.0040000  0 12                     
G18  23593822.791   123986366.061        2287.546          45.000  
C 6  38038252.888   198075144.630         323.618          39.000  
C13  38409152.994   200006502.035         116.140          48.000  
C22  24734191.205   128797376.833        -120.687          43.000  
C16  37962325.309   197679778.577         240.809          37.000  
C 3  37305007.989   194256934.3372       -641.996          31.000  
G15  21605051.392   113535326.416       -1683.589          46.000  
C19  24698249.896   128610255.084       -1703.784          41.000  
G24  22726783.328   119429968.1792       2139.615          30.000  
G13  23031285.381   121029984.110       -3460.531          32.000  
G20  24812013.603   130388085.5613      -2219.825          29.000  
G23  25119001.667   132001404.220        1197.827          30.000  
> 2023  7  9  8 42 57.0040000  0 12                     
G18  23593387.735   123984078.378        2287.837          45.000  
C 6  38038190.915   198074821.135         324.052          39.000  
C13  38409130.689   200006385.661         116.701          48.000  
C22  24734214.095   128797497.308        -120.221          43.000  
C16  37962278.852   197679537.534         241.356          38.000  
C 3  37305131.270   194257576.3202       -641.917          32.000  
G15  21605372.604   113537010.067       -1683.626          46.000  
C19  24698576.546   128611958.756       -1703.345          41.000  
G24  22726377.445   119427828.6222       2140.629          30.000  
G13  23031944.208   121033444.212       -3459.645          32.000  
G20  24812424.986   130390306.4412      -2221.158          31.000  
G23  25118766.804   132000206.782        1197.278          30.000  
> 2023  7  9  8 42 58.0040000  0 12                     
G18  23592952.778   123981790.809        2286.864          45.000  
C 6  38038128.867   198074497.643         323.159          39.000  
C13  38409108.255   200006269.055         116.412          47.000  
C22  24734236.860   128797617.717        -120.785          43.000  
C16  37962232.770   197679296.484         240.819          38.000  
C 3  37305254.521   194258218.0703       -641.800          32.000  
G15  21605693.819   113538693.910       -1684.309          46.000  
C19  24698903.431   128613662.247       -1703.933          41.000  
G24  22725969.291   119425689.3172       2139.015          30.000  
G13  23032602.034   121036904.395       -3460.871          32.000  
G20  24812841.672   130392527.2622      -2220.947          31.000  
G23  25118533.503   131999009.041        1197.491          29.000  
> 2023  7  9  8 42 59.0040000  0 12                     
G18  23592517.802   123979504.370        2286.238          45.000  
C 6  38038066.864   198074175.147         322.424          39.000  
C13  38409086.080   200006153.285         115.628          47.000  
C22  24734259.918   128797739.116        -121.550          42.000  
C16  37962186.977   197679056.498         239.926          38.000  
C 3  37305377.929   194258860.8492       -643.947          32.000  
G15  21606015.200   113540379.048       -1685.712          46.000  
C19  24699230.343   128615366.610       -1704.472          41.000  
G24  22725562.205   119423551.3312       2137.194          31.000  
G13  23033265.817   121040365.700       -3461.607          31.000  
G20  24813267.089   130394749.1792      -2222.396          31.000  
G23  25118286.458   131997812.208        1196.167          28.000  
> 2023  7  9  8 43  0.0040000  0 12                     
G18  23592082.827   123977218.733        2285.444          45.000  
C 6  38038005.060   198073853.349         321.593          39.000  
C13  38409064.006   200006037.956         115.448          47.000  
C22  24734282.818   128797861.145        -121.990          42.000  
C16  37962141.227   197678817.169         239.067          38.000  
C 3  37305501.632   194259505.0473       -643.981          31.000  
G15  21606336.908   113542065.067       -1686.386          47.000  
C19  24699557.462   128617071.497       -1705.043          41.000  
G24  22725150.937   119421414.2752       2136.161          30.000  
G13  23033927.595   121043827.730       -3462.038          31.000  
G20  24813695.378   130396971.7472      -2221.957          31.000  
G23  25118050.089   131996615.830        1195.825          27.000  
> 2023  7  9  8 43  1.0040000  0 13                     
G29  23580861.587                       -2652.901          29.000  
G18  23591648.172   123974933.688        2284.748          45.000  
C 6  38037943.433   198073532.019         320.913          39.000  
C13  38409041.762   200005922.923         114.884          47.000  
C22  24734306.090   128797983.587        -122.432          42.000  
C16  37962096.022   197678578.304         238.618          38.000  
C 3  37305625.301   194260148.5713       -643.632          32.000  
G15  21606658.351   113543751.784       -1686.996          47.000  
C19  24699884.736   128618776.693       -1705.436          41.000  
G24  22724741.974   119419277.3901       2136.334          31.000  
G13  23034582.481   121047290.331       -3462.762          30.000  
G20  24814115.564   130399194.8962      -2223.815          31.000  
G23  25117827.901   131995419.579        1196.649          27.000  
> 2023  7  9  8 43  2.0040000  0 13                     
G29  23581373.459                       -2652.901          29.000  
G18  23591213.285   123972648.744        2284.695          45.000  
C 6  38037881.997   198073210.649         321.519          40.000  
C13  38409019.686   200005807.642         115.330          47.000  
C22  24734329.074   128798105.958        -122.382          41.000  
C16  37962050.470   197678339.456         238.641          38.000  
C 3  37305748.768   194260791.9572       -643.382          32.000  
G15  21606979.644   113545438.698       -1687.030          47.000  
C19  24700211.902   128620481.699       -1704.536          41.000  
G24  22724336.870   119417141.279        2134.784          31.000  
G13  23035240.087   121050753.019       -3463.301          30.000  
G20  24814540.395   130401417.9772      -2223.152          31.000  
G23  25117611.354   131994223.218        1196.216          28.000  
> 2023  7  9  8 43  3.0040000  0 13                     
G29  23581876.130                       -2641.211          30.000  
G18  23590778.770   123970364.064        2284.433          45.000  
C 6  38037820.767   198072889.475         320.901          40.000  
C13  38408997.434   200005692.338         115.159          47.000  
C22  24734352.096   128798228.451        -122.455          41.000  
C16  37962004.884   197678100.728         239.164          38.000  
C 3  37305872.563   194261435.3522       -643.339          32.000  
G15  21607300.751   113547126.030       -1687.747          47.000  
C19  24700539.045   128622186.745       -1705.151          40.000  
G24  22723925.002   119415005.527        2135.390          30.000  
G13  23035896.755                       -3461.475          30.000  
G20  24814964.383   130403641.2842      -2223.315          30.000  
G23  25117392.372   131993026.774        1196.552          28.000  
> 2023  7  9  8 43  4.0040000  0 13                     
G29  23582374.619                       -2655.149          30.000  
G18  23590344.111   123968079.845        2283.877          45.000  
C 6  38037759.117   198072568.586         320.851          39.000  
C13  38408975.359   200005577.120         115.339          47.000  
C22  24734375.420   128798351.239        -122.712          41.000  
C16  37961959.216   197677862.383         238.365          39.000  
C 3  37305996.388   194262080.9593       -643.958          32.000  
G15  21607622.157   113548813.888       -1687.971          47.000  
C19  24700865.981   128623891.919       -1705.116          40.000  
G24  22723522.544   119412870.448        2134.227          31.000  
G13  23036551.614                       -3463.237          29.000  
G20  24815394.008   130405864.9542      -2223.497          29.000  
G23  25117177.732   131991830.439        1196.741          29.000  
> 2023  7  9  8 43  5.0040000  0 13                     
G29  23582876.847   123928870.2983      -2655.399          31.000  
G18  23589909.608   123965796.040        2283.732          44.000  
C 6  38037697.870   198072248.052         320.369          40.000  
C13  38408953.259   200005462.038         115.144          47.000  
C22  24734398.960   128798474.270        -123.121          41.000  
C16  37961913.566   197677624.345         237.955          39.000  
C 3  37306119.917   194262724.7872       -644.488          32.000  
G15  21607943.688   113550502.300       -1688.600          46.000  
C19  24701192.963   128625597.275       -1705.415          40.000  
G24  22723114.706   119410735.899        2134.130          30.000  
G13  23037204.732   121061358.9553      -3463.911          29.000  
G20  24815823.936   130408088.9802      -2224.307          29.000  
G23  25116959.843   131990634.267        1196.136          30.000  
> 2023  7  9  8 43  6.0040000  0 13                     
G29  23583383.307   123931526.1052      -2656.526          31.000  
G18  23589474.695   123963512.605        2283.177          44.000  
C 6  38037636.385   198071927.734         320.057          39.000  
C13  38408931.181   200005346.992         115.078          47.000  
C22  24734422.076   128798597.536        -123.544          42.000  
C16  37961868.094   197677386.576         237.415          39.000  
C 3  37306243.629   194263368.6633       -644.215          32.000  
G15  21608265.156   113552191.177       -1689.014          46.000  
C19  24701520.355   128627302.714       -1705.411          40.000  
G24  22722708.057   119408601.848        2133.613          29.000  
G13  23037849.912   121064823.0242      -3464.364          30.000  
G20  24816245.245   130410313.2062      -2224.157          28.000  
G23  25116741.800   131989438.023        1196.680          30.000  
> 2023  7  9  8 43  7.0040000  0 13                     
G29  23583887.041   123934182.3962      -2656.085          31.000  
G18  23589040.084   123961229.608        2283.317          44.000  
C 6  38037574.827   198071607.751         320.012          39.000  
C13  38408909.210   200005232.055         115.150          47.000  
C22  24734445.756   128798721.061        -123.388          42.000  
C16  37961822.988   197677149.108         237.423          38.000  
C 3  37306367.351   194264012.7453       -644.179          32.000  
G15  21608586.553   113553880.630       -1689.503          46.000  
C19  24701847.573   128629008.320       -1705.314          40.000  
G24  22722285.306   119406468.387        2133.875          28.000  
G13  23038493.554   121068287.4662      -3464.856          31.000  
G20  24816662.532   130412537.838       -2224.481          27.000  
G23  25116514.258   131988241.993        1195.703          30.000  
> 2023  7  9  8 43  8.0040000  0 13                     
G29  23584391.513   123936838.8842      -2657.144          32.000  
G18  23588605.366   123958946.654        2282.820          45.000  
C 6  38037513.516   198071287.703         319.682          39.000  
C13  38408887.137   200005116.820         115.216          47.000  
C22  24734469.062   128798844.466        -123.851          41.000  
C16  37961777.594   197676911.593         237.316          38.000  
C 3  37306491.175   194264656.5962       -643.813          32.000  
G15  21608907.477   113555570.218       -1690.055          46.000  
C19  24702175.129   128630713.706       -1705.469          40.000  
G24  22721876.135   119404335.126        2132.668          27.000  
G13  23039152.055   121071751.8392      -3464.188          32.000  
G20  24817077.630   130414762.374       -2224.598          27.000  
G23  25116285.559   131987045.662        1196.326          30.000  
> 2023  7  9  8 43  9.0040000  0 13                     
G29  23584896.657   123939495.8962      -2657.844          31.000  
G18  23588170.922   123956664.117        2282.654          44.000  
C 6  38037452.238   198070967.926         319.790          39.000  
C13  38408864.978   200005001.696         115.047          47.000  
C22  24734492.429   128798968.124        -123.854          41.000  
C16  37961732.234   197676674.394         237.006          38.000  
C 3  37306614.930   194265302.6143       -643.697          32.000  
G15  21609228.987   113557260.356       -1690.597          46.000  
C19  24702502.810   128632419.229       -1705.511          40.000  
G24  22721471.557   119402202.391        2133.047          28.000  
G13  23039808.192   121075216.6702      -3464.864          32.000  
G20  24817488.893   130416987.272       -2225.252          28.000  
G23  25116045.182   131985849.474        1196.106          29.000  
> 2023  7  9  8 43 10.0040000  0 13                     
G29  23585398.384   123942153.4432      -2657.599          31.000  
G18  23587736.419   123954382.048        2282.200          44.000  
C 6  38037390.873   198070648.505         319.768          39.000  
C13  38408842.660   200004886.678         115.193          47.000  
C22  24734516.299   128799092.045        -123.883          41.000  
C16  37961686.736   197676437.523         236.920          38.000  
C 3  37306738.558   194265945.8003       -644.032          32.000  
G15  21609550.284   113558951.024       -1690.659          46.000  
C19  24702830.165   128634124.922       -1705.312          40.000  
G24  22721068.612   119400070.320        2131.826          28.000  
G13  23040467.391   121078681.9202      -3465.160          32.000  
G20  24817900.231   130419212.513       -2225.586          28.000  
G23  25115818.925   131984653.391        1195.892          29.000  
> 2023  7  9  8 43 11.0040000  0 13                     
G29  23585902.531   123944811.7032      -2657.162          30.000  
G18  23587302.250   123952100.586        2281.402          42.000  
C 6  38037329.631   198070329.576         319.091          39.000  
C13  38408820.600   200004771.969         114.766          47.000  
C22  24734540.085   128799216.436        -124.241          40.000  
C16  37961641.768   197676201.163         236.177          39.000  
C 3  37306862.418   194266590.4452       -644.778          31.000  
G15  21609871.758   113560642.428       -1691.398          44.000  
C19  24703157.782   128635830.974       -1706.042          40.000  
G24  22720671.310   119397938.946        2130.347          29.000  
G13  23041123.402   121082147.7012      -3465.572          31.000  
G20  24818312.524   130421438.218       -2225.842          28.000  
G23  25115590.700   131983457.498        1196.576          29.000  
> 2023  7  9  8 43 12.0040000  0 13                     
G29  23586415.513   123947470.8232      -2659.416          32.000  
G18  23586868.135   123949819.744        2280.688          46.000  
C 6  38037268.343   198070011.143         318.643          39.000  
C13  38408798.525   200004657.571         114.430          47.000  
C22  24734563.890   128799341.281        -124.935          40.000  
C16  37961596.629   197675965.285         235.960          39.000  
C 3  37306986.311   194267236.4183       -645.583          31.000  
G15  21610193.479   113562334.570       -1692.145          46.000  
C19  24703485.721   128637537.349       -1706.238          40.000  
G24  22720270.654   119395808.285        2130.552          30.000  
G13  23041780.910   121085614.0692      -3466.158          33.000  
G20  24818728.961   130423664.442       -2225.949          29.000  
G23  25115367.297   131982262.000        1195.782          31.000  
> 2023  7  9  8 43 13.0040000  0 13                     
G29  23586919.480   123950130.2682      -2660.610          32.000  
G18  23586433.895   123947539.110        2280.532          45.000  
C 6  38037207.186   198069692.814         318.285          39.000  
C13  38408776.456   200004543.023         114.673          47.000  
C22  24734587.656   128799466.159        -124.676          40.000  
C16  37961551.383   197675729.548         235.502          39.000  
C 3  37307110.249   194267881.2453       -644.538          32.000  
G15  21610515.136   113564027.054       -1692.610          46.000  
C19  24703813.521   128639243.672       -1706.055          40.000  
G24  22719868.325   119393678.085        2129.080          32.000  
G13  23042441.218   121089080.617       -3466.160          34.000  
G20  24819157.218   130425890.834       -2226.333          31.000  
G23  25115145.056   131981066.334        1196.484          32.000  
> 2023  7  9  8 43 14.0040000  0 13                     
G29  23587429.423   123952789.7742      -2659.377          31.000  
G18  23585999.985   123945258.534        2280.423          45.000  
C 6  38037145.929   198069374.419         317.940          39.000  
C13  38408754.251   200004428.235         114.667          47.000  
C22  24734611.158   128799590.969        -124.870          40.000  
C16  37961506.178   197675493.733         235.846          39.000  
C 3  37307234.106   194268525.9692       -644.530          32.000  
G15  21610836.665   113565719.688       -1692.876          45.000  
C19  24704141.365   128640949.786       -1705.967          40.000  
G24  22719464.713   119391547.941        2129.304          31.000  
G13  23043100.756   121092547.177       -3466.629          34.000  
G20  24819579.179   130428117.148       -2226.417          30.000  
G23  25114924.920   131979870.418        1195.746          32.000  
> 2023  7  9  8 43 15.0040000  0 13                     
G29  23587936.198   123955449.9022      -2660.741          31.000  
G18  23585566.110   123942978.414        2279.543          44.000  
C 6  38037085.040   198069056.358         317.431          39.000  
C13  38408732.277   200004313.560         114.242          47.000  
C22  24734635.265   128799716.020        -125.108          40.000  
C16  37961461.174   197675258.257         235.181          39.000  
C 3  37307358.189   194269172.9103       -645.378          32.000  
G15  21611158.329   113567412.899       -1693.975          45.000  
C19  24704469.102   128642656.088       -1706.643          41.000  
G24  22719060.416   119389418.439        2128.785          32.000  
G13  23043760.737   121096014.164       -3467.703          34.000  
G20  24820009.643   130430343.936       -2227.340          29.000  
G23  25114691.752   131978674.615        1195.587          32.000  
> 2023  7  9  8 43 16.0040000  0 13                     
G29  23588445.096   123958110.7412      -2660.802          29.000  
G18  23585132.522   123940698.883        2279.313          44.000  
C 6  38037024.403   198068738.769         317.276          39.000  
C13  38408710.132   200004199.146         114.281          47.000  
C22  24734659.276   128799841.527        -125.622          40.000  
C16  37961415.940   197675023.305         234.440          39.000  
C 3  37307482.122   194269818.1643       -646.389          32.000  
G15  21611480.524   113569106.802       -1694.444          44.000  
C19  24704797.246   128644362.707       -1706.776          41.000  
G24  22718654.798   119387289.688        2128.451          31.000  
G13  23044420.902   121099481.690       -3468.410          34.000  
G20  24820435.852   130432571.146       -2227.018          27.000  
G23  25114468.140   131977479.107        1195.258          31.000  
> 2023  7  9  8 43 17.0040000  0 13                     
G29  23588955.009   123960772.1082      -2661.915          29.000  
G18  23584698.525   123938419.735        2278.645          44.000  
C 6  38036963.606   198068421.438         316.772          39.000  
C13  38408688.051   200004084.804         114.174          47.000  
C22  24734683.411   128799967.252        -126.082          40.000  
C16  37961370.778   197674788.564         234.247          39.000  
C 3  37307606.008   194270462.4822       -644.809          32.000  
G15  21611801.922   113570801.189       -1694.850          43.000  
C19  24705125.334   128646069.416       -1707.023          41.000  
G24  22718250.074   119385161.460        2128.500          31.000  
G13  23045080.673   121102949.517       -3468.344          34.000  
G20  24820875.826   130434798.652       -2226.556          26.000  
G23  25114239.796   131976283.603        1195.941          31.000  
> 2023  7  9  8 43 18.0040000  0 13                     
G29  23589464.901   123963433.9222      -2662.683          28.000  
G18  23584264.445   123936140.997        2278.291          44.000  
C 6  38036902.767   198068104.393         316.825          39.000  
C13  38408666.082   200003970.548         113.947          47.000  
C22  24734707.463   128800093.200        -126.246          39.000  
C16  37961325.806   197674554.165         233.865          39.000  
C 3  37307729.912   194271108.0092       -645.931          31.000  
G15  21612123.490   113572496.098       -1695.343          43.000  
C19  24705453.731   128647776.266       -1707.086          41.000  
G24  22717845.533   119383033.723        2127.662          32.000  
G13  23045740.548   121106417.741       -3468.740          34.000  
G20  24821323.592   130437026.625       -2228.230          25.000  
G23  25114012.630   131975088.217        1195.856          31.000  
> 2023  7  9  8 43 19.0040000  0 13                     
G29  23589966.673   123966095.9112      -2661.787          27.000  
G18  23583830.758   123933862.264        2278.727          44.000  
C 6  38036842.044   198067787.256         317.254          39.000  
C13  38408644.043   200003855.952         114.673          47.000  
C22  24734731.541   128800219.000        -125.801          39.000  
C16  37961280.718   197674319.648         234.340          39.000  
C 3  37307853.936   194271754.2413       -644.520          32.000  
G15  21612445.338   113574191.106       -1694.959          43.000  
C19  24705782.165   128649482.866       -1706.841          41.000  
G24  22717440.449   119380906.240        2126.852          32.000  
G13  23046400.747   121109885.947       -3468.500          34.000  
G20  24821760.540   130439254.396       -2227.366          26.000  
G23  25113785.407   131973892.521        1195.947          31.000  
> 2023  7  9  8 43 20.0040000  0 13                     
G29  23590471.051   123968758.6492      -2662.543          26.000  
G18  23583397.158   123931584.201        2277.672          43.000  
C 6  38036781.274   198067470.678         316.303          39.000  
C13  38408621.989   200003741.727         113.935          47.000  
C22  24734755.763   128800345.317        -126.541          39.000  
C16  37961236.033   197674085.651         234.066          39.000  
C 3  37307977.914   194272399.9822       -646.278          32.000  
G15  21612766.996   113575886.918       -1696.335          42.000  
C19  24706110.342   128651189.838       -1707.371          42.000  
G24  22717035.962   119378779.500        2126.161          32.000  
G13  23047060.838   121113354.761       -3469.218          34.000  
G20  24822181.966   130441482.788       -2228.620          28.000  
G23  25113555.100   131972697.245        1194.257          30.000  
> 2023  7  9  8 43 21.0040000  0 13                     
G29  23590974.298                       -2662.453          25.000  
G18  23582963.707   123929306.819        2277.018          43.000  
C 6  38036720.729   198067154.645         315.465          39.000  
C13  38408600.238   200003627.852         113.458          47.000  
C22  24734780.236   128800472.123        -127.064          39.000  
C16  37961191.398   197673852.278         232.884          39.000  
C 3  37308102.078   194273046.0863       -646.700          32.000  
G15  21613089.264   113577583.499       -1696.979          42.000  
C19  24706438.595   128652897.222       -1707.970          42.000  
G24  22716630.452   119376653.630        2124.692          32.000  
G13  23047720.907   121116824.226       -3469.779          34.000  
G20  24822596.330   130443711.742       -2229.741          30.000  
G23  25113327.842   131971502.213        1194.598          30.000  
> 2023  7  9  8 43 22.0040000  0 12                     
G18  23582530.667   123927030.067        2276.264          43.000  
C 6  38036660.285   198066839.116         315.166          39.000  
C13  38408578.194   200003514.261         113.373          47.000  
C22  24734804.743   128800599.411        -127.635          39.000  
C16  37961146.961   197673619.395         232.460          39.000  
C 3  37308226.479   194273693.5353       -646.669          32.000  
G15  21613411.649   113579280.801       -1697.624          42.000  
C19  24706766.833   128654604.966       -1708.105          42.000  
G24  22716226.407   119374528.451        2124.747          33.000  
G13  23048381.349   121120294.282       -3470.268          34.000  
G20  24823014.922   130445941.156       -2229.403          32.000  
G23  25113097.775   131970307.504        1194.604          30.000  
> 2023  7  9  8 43 23.0040000  0 12                     
G18  23582097.312   123924753.800        2275.788          43.000  
C 6  38036599.980   198066523.948         314.998          39.000  
C13  38408556.369   200003400.847         113.154          47.000  
C22  24734829.322   128800726.982        -127.933          39.000  
C16  37961102.192   197673386.892         232.103          39.000  
C 3  37308350.530   194274340.2302       -646.115          32.000  
G15  21613734.309   113580978.714       -1698.095          42.000  
C19  24707095.094   128656312.906       -1708.199          42.000  
G24  22715822.370   119372403.935        2124.377          33.000  
G13  23049041.940   121123764.788       -3470.737          34.000  
G20  24823431.883   130448171.023       -2230.166          32.000  
G23  25112871.122   131969112.974        1194.580          31.000  
> 2023  7  9  8 43 24.0040000  0 12                     
G18  23581663.894   123922477.903        2275.443          43.000  
C 6  38036539.521   198066209.056         314.473          39.000  
C13  38408534.657   200003287.487         112.942          46.000  
C22  24734854.352   128800854.801        -128.002          38.000  
C16  37961057.781   197673154.640         231.754          38.000  
C 3  37308474.537                        -656.982          31.000  
G15  21614056.949   113582677.111       -1698.853          41.000  
C19  24707423.424   128658020.945       -1708.210          41.000  
G24  22715418.065   119370279.928        2123.275          32.000  
G13  23049702.325   121127235.657       -3471.837          34.000  
G20  24823866.227   130450401.165       -2230.710          33.000  
G23  25112645.281   131967918.464        1194.171          31.000  
> 2023  7  9  8 43 25.0040000  0 12                     
G18  23581230.450   123920202.241        2275.578          43.000  
C 6  38036478.980   198065894.274         314.760          39.000  
C13  38408512.760   200003174.017         113.651          46.000  
C22  24734879.383   128800982.664        -127.813          38.000  
C16  37961013.446   197672922.539         231.975          38.000  
C 3  37308599.282                        -645.945          31.000  
G15  21614380.270   113584375.856       -1698.958          42.000  
C19  24707751.834   128659728.962       -1707.799          41.000  
G24  22715014.270   119368156.303        2123.136          32.000  
G13  23050362.793   121130706.642       -3470.733          34.000  
G20  24824297.333   130452631.411       -2230.039          33.000  
G23  25112419.887   131966723.892        1194.989          30.000  
> 2023  7  9  8 43 26.0040000  0 12                     
G18  23580797.604   123917926.628        2275.397          43.000  
C 6  38036418.500   198065579.421         314.384          39.000  
C13  38408490.889   200003060.284         113.552          46.000  
C22  24734904.160   128801110.422        -128.221          38.000  
C16  37960968.851   197672690.356         231.865          38.000  
C 3  37308723.284   194276280.4662       -647.048          31.000  
G15  21614703.542   113586074.718       -1699.216          42.000  
C19  24708079.795   128661436.738       -1708.030          42.000  
G24  22714610.129   119366032.797        2122.617          32.000  
G13  23051023.196   121134177.680       -3471.101          33.000  
G20  24824719.361   130454861.649       -2230.830          33.000  
G23  25112187.155   131965529.001        1194.824          30.000  
> 2023  7  9  8 43 27.0040000  0 12                     
G18  23580364.492   123915651.437        2274.439          43.000  
C 6  38036358.207   198065264.862         313.803          39.000  
C13  38408468.945   200002946.657         113.032          47.000  
C22  24734929.041   128801238.404        -128.438          38.000  
C16  37960924.200   197672458.477         231.041          39.000  
C 3  37308847.669   194276928.2633       -648.364          32.000  
G15  21615027.143   113587774.155       -1700.347          42.000  
C19  24708408.165   128663144.654       -1708.326          43.000  
G24  22714206.090   119363909.920        2121.344          32.000  
G13  23051683.537   121137649.097       -3472.056          33.000  
G20  24825145.871   130457092.228       -2231.216          32.000  
G23  25111964.124   131964334.181        1194.574          30.000  
> 2023  7  9  8 43 28.0040000  0 12                     
G18  23579931.318   123913376.792        2274.240          43.000  
C 6  38036297.570   198064950.726         313.999          39.000  
C13  38408447.312   200002833.230         113.264          47.000  
C22  24734954.284   128801366.823        -128.632          38.000  
C16  37960879.850   197672227.029         231.244          39.000  
C 3  37308971.903   194277575.2502       -646.242          32.000  
G15  21615350.791   113589474.237       -1700.671          42.000  
C19  24708736.491   128664852.862       -1708.351          43.000  
G24  22713801.735   119361787.626        2122.883          31.000  
G13  23052344.197   121141121.030       -3472.689          32.000  
G20  24825570.044   130459323.257       -2231.324          31.000  
G23  25111730.872   131963139.661        1194.592          28.000  
> 2023  7  9  8 43 29.0040000  0 13                     
G29  23595018.459                       -2670.044          26.000  
G18  23579498.264   123911102.502        2274.404          42.000  
C 6  38036237.355   198064636.838         314.174          39.000  
C13  38408425.742   200002719.825         113.593          47.000  
C22  24734979.521   128801495.398        -128.300          38.000  
C16  37960835.320   197671995.817         231.557          39.000  
C 3  37309096.119   194278222.4032       -646.904          32.000  
G15  21615674.793   113591174.780       -1700.523          43.000  
C19  24709064.672   128666561.134       -1708.005          43.000  
G24  22713397.067   119359665.939        2121.304          30.000  
G13  23053004.578   121144593.214       -3471.086          32.000  
G20  24826001.875   130461554.518       -2231.084          30.000  
G23  25111501.657   131961945.152        1194.617          28.000  
> 2023  7  9  8 43 30.0040000  0 13                     
G29  23595532.665   123995360.8633      -2667.755          27.000  
G18  23579065.321   123908828.059        2274.481          42.000  
C 6  38036176.713   198064322.693         314.342          39.000  
C13  38408403.793   200002605.953         114.185          47.000  
C22  24735004.934   128801623.665        -127.995          39.000  
C16  37960790.793   197671764.384         231.589          39.000  
C 3  37309220.055   194278868.1753       -646.804          31.000  
G15  21615998.882   113592875.278       -1700.321          43.000  
C19  24709392.906   128668268.988       -1707.666          43.000  
G24  22712991.046   119357544.171        2121.609          29.000  
G13  23053664.549   121148065.225       -3471.653          30.000  
G20  24826434.356   130463785.611       -2230.999          28.000  
G23  25111279.612   131960750.055        1195.648          27.000  
> 2023  7  9  8 43 31.0040000  0 13                     
G29  23596044.358   123998028.9542      -2668.832          28.000  
G18  23578632.563   123906554.028        2273.634          42.000  
C 6  38036116.195   198064008.856         313.196          39.000  
C13  38408382.070   200002492.168         113.540          47.000  
C22  24735029.946   128801752.188        -128.728          39.000  
C16  37960746.674   197671533.227         230.791          39.000  
C 3  37309344.103   194279514.0652       -647.429          32.000  
G15  21616323.635   113594576.303       -1701.403          43.000  
C19  24709721.407   128669976.980       -1708.331          43.000  
G24  22712578.942   119355423.022        2120.392          28.000  
G13  23054322.252   121151537.656       -3472.916          30.000  
G20  24826862.682   130466016.984       -2232.009          28.000  
G23  25111051.345   131959555.149        1194.598          27.000  
> 2023  7  9  8 43 32.0040000  0 13                     
G29  23596550.907   124000697.8342      -2669.306          29.000  
G18  23578199.906   123904280.732        2273.121          42.000  
C 6  38036055.732   198063695.563         313.551          39.000  
C13  38408360.128   200002378.805         113.324          47.000  
C22  24735054.751   128801881.275        -129.230          39.000  
C16  37960702.431   197671302.677         230.686          39.000  
C 3  37309468.420   194280161.4032       -647.031          32.000  
G15  21616647.864   113596278.150       -1702.000          43.000  
C19  24710049.750   128671685.406       -1708.372          43.000  
G24  22712164.638   119353302.740        2119.746          26.000  
G13  23054976.403   121155010.727       -3473.471          28.000  
G20  24827281.683   130468248.944       -2232.005          29.000  
G23  25110827.294   131958360.660        1194.427          28.000  
> 2023  7  9  8 43 33.0040000  0 13                     
G29  23597052.259   124003367.6992      -2670.354          29.000  
G18  23577767.144   123902008.252        2272.359          42.000  
C 6  38035995.566   198063383.026         312.393          39.000  
C13  38408338.373   200002265.922         112.884          47.000  
C22  24735080.092   128802010.998        -129.679          39.000  
C16  37960658.035   197671072.854         229.601          38.000  
C 3  37309592.713   194280809.3292       -647.972          31.000  
G15  21616972.525   113597980.957       -1703.045          44.000  
C19  24710378.142   128673394.399       -1709.120          43.000  
G24  22711747.737                        2118.595          25.000  
G13  23055634.522   121158484.535       -3473.889          27.000  
G20  24827691.277   130470481.643       -2232.280          30.000  
G23  25110608.454   131957166.599        1193.585          28.000  
> 2023  7  9  8 43 34.0040000  0 13                     
G29  23597561.159   124006037.8542      -2669.792          28.000  
G18  23577334.604   123899736.028        2271.917          42.000  
C 6  38035935.481   198063070.581         312.456          39.000  
C13  38408316.432   200002152.946         113.008          47.000  
C22  24735105.307   128802140.798        -129.893          39.000  
C16  37960614.133   197670843.150         229.803          39.000  
C 3  37309716.865   194281457.2162       -647.417          32.000  
G15  21617296.890   113599684.080       -1703.250          44.000  
C19  24710706.363   128675103.350       -1708.987          43.000  
G24  22711335.951                        2118.112          23.000  
G13  23056293.316   121161958.563       -3473.519          27.000  
G20  24828105.655   130472714.468       -2232.502          31.000  
G23  25110388.660   131955972.464        1194.312          28.000  
> 2023  7  9  8 43 35.0040000  0 13                     
G29  23598064.997   124008708.2542      -2670.573          27.000  
G18  23576901.896   123897463.843        2272.148          41.000  
C 6  38035875.414   198062758.089         312.370          39.000  
C13  38408294.585   200002039.697         113.517          47.000  
C22  24735130.317   128802270.490        -129.774          39.000  
C16  37960569.480   197670613.382         230.043          38.000  
C 3  37309841.283   194282104.9552       -647.723          31.000  
G15  21617621.714   113601387.380       -1703.319          44.000  
C19  24711034.634   128676812.071       -1708.525          43.000  
G24  22710930.871                        2117.166          22.000  
G13  23056951.816   121165432.565       -3473.995          26.000  
G20  24828523.021   130474947.267       -2232.436          32.000  
G23  25110163.691   131954778.040        1194.562          28.000  
> 2023  7  9  8 43 36.0040000  0 13                     
G29  23598570.432   124011378.9942      -2670.840          27.000  
G18  23576469.177   123895191.971        2271.879          41.000  
C 6  38035815.417   198062445.738         312.385          39.000  
C13  38408272.886   200001926.451         113.434          47.000  
C22  24735155.289   128802400.283        -129.927          39.000  
C16  37960525.274   197670383.805         229.610          39.000  
C 3  37309965.595   194282749.6893       -647.309          32.000  
G15  21617946.259   113603091.091       -1703.988          44.000  
C19  24711363.247   128678520.825       -1708.673          41.000  
G24  22710529.396                        2118.625          23.000  
G13  23057614.432   121168580.9363      -3474.146          26.000  
G20  24828945.094   130477180.235       -2233.195          32.000  
G23  25109935.708   131953583.587        1194.861          27.000  
> 2023  7  9  8 43 37.0040000  0 13                     
G29  23599078.179                       -2670.421          26.000  
G18  23576036.584   123892920.491        2271.311          41.000  
C 6  38035755.750   198062133.730         311.934          39.000  
C13  38408251.089   200001813.310         112.833          46.000  
C22  24735180.570   128802530.382        -130.262          37.000  
C16  37960481.160   197670154.554         229.319          39.000  
C 3  37310089.777   194283396.6032       -647.974          32.000  
G15  21618271.061   113604795.303       -1704.592          45.000  
C19  24711691.608   128680229.742       -1709.213          42.000  
G24  22710132.339                        2116.487          25.000  
G13  23058279.376   121172055.5302      -3474.354          26.000  
G20  24829368.571   130479413.519       -2233.064          31.000  
G23  25109706.470   131952389.301        1194.397          27.000  
> 2023  7  9  8 43 38.0040000  0 13                     
G29  23599582.457                       -2672.063          25.000  
G18  23575604.340   123890649.478        2271.152          41.000  
C 6  38035695.674   198061822.045         311.676          40.000  
C13  38408229.547   200001700.245         112.999          47.000  
C22  24735205.887   128802660.742        -130.290          38.000  
C16  37960437.057   197669925.626         228.781          39.000  
C 3  37310214.140   194284044.7152       -648.033          32.000  
G15  21618596.039   113606500.075       -1705.129          45.000  
C19  24712019.917   128681938.780       -1708.855          42.000  
G24  22709738.785   119340482.3343       2117.184          26.000  
G13  23058947.819   121175530.6772      -3475.215          26.000  
G20  24829800.358   130481647.233       -2233.729          30.000  
G23  25109474.483   131951195.116        1194.122          26.000  
> 2023  7  9  8 43 39.0040000  0 12                     
G18  23575171.890   123888378.994        2270.211          41.000  
C 6  38035635.754   198061510.731         311.021          39.000  
C13  38408207.628   200001587.362         113.017          46.000  
C22  24735231.139   128802791.436        -130.850          38.000  
C16  37960393.089   197669697.077         228.695          39.000  
C 3  37310338.714   194284693.0913       -649.141          32.000  
G15  21618920.906   113608205.451       -1705.469          45.000  
C19  24712348.595   128683648.073       -1709.026          41.000  
G24  22709346.377   119338365.7422       2116.479          28.000  
G13  23059616.116   121179006.1772      -3475.663          27.000  
G20  24830235.374   130483881.324       -2234.268          28.000  
G23  25109242.292                        1202.057          25.000  
> 2023  7  9  8 43 40.0040000  0 12                     
G18  23574739.636   123886108.959        2269.743          41.000  
C 6  38035575.975   198061199.756         310.808          40.000  
C13  38408185.826   200001474.623         112.722          46.000  
C22  24735256.247   128802922.407        -130.845          38.000  
C16  37960349.225   197669468.882         228.453          39.000  
C 3  37310463.081   194285340.6563       -648.812          32.000  
G15  21619246.028   113609911.424       -1706.269          45.000  
C19  24712676.767   128685357.559       -1709.545          41.000  
G24  22708956.340   119336249.7792       2115.814          29.000  
G13  23060284.049   121182482.1602      -3475.850          28.000  
G20  24830671.922                       -2232.948          26.000  
G23  25109009.156                        1196.339          23.000  
> 2023  7  9  8 43 41.0040000  0 12                     
G18  23574307.212   123883838.467        2270.737          40.000  
C 6  38035516.172   198060888.244         311.784          40.000  
C13  38408163.975   200001361.138         113.701          46.000  
C22  24735281.224   128803052.831        -130.427          37.000  
C16  37960305.288   197669240.183         228.563          39.000  
C 3  37310587.666   194285988.4832       -646.984          32.000  
G15  21619570.885   113611617.077       -1705.792          45.000  
C19  24713004.867   128687066.330       -1708.450          41.000  
G24  22708568.369   119334133.4912       2116.249          31.000  
G13  23060944.379   121185957.7002      -3475.422          30.000  
G20  24831119.843                       -2234.572          24.000  
G23  25108779.846                        1193.166          22.000  
> 2023  7  9  8 43 42.0040000  0 12                     
G18  23573874.926   123881568.833        2269.122          40.000  
C 6  38035456.473   198060577.427         310.617          40.000  
C13  38408142.133   200001248.152         112.369          46.000  
C22  24735306.657   128803183.870        -131.540          37.000  
C16  37960261.486   197669012.163         227.516          39.000  
C 3  37310712.501   194286636.9852       -649.719          32.000  
G15  21619895.926   113613323.649       -1707.180          45.000  
C19  24713333.104   128688775.664       -1709.922          41.000  
G24  22708175.496   119332018.2262       2114.340          32.000  
G13  23061609.909   121189433.9772      -3476.620          31.000  
G20  24831560.359                       -2234.427          22.000  
G23  25108549.761                        1196.371          22.000  
> 2023  7  9  8 43 43.0040000  0 12                     
G18  23573442.802   123879300.176        2268.065          40.000  
C 6  38035396.901   198060267.481         309.652          40.000  
C13  38408120.835   200001135.795         112.211          46.000  
C22  24735331.789   128803315.739        -132.129          37.000  
C16  37960217.746   197668785.006         226.787          39.000  
C 3  37310836.940   194287287.0963       -649.936          32.000  
G15  21620220.783   113615031.317       -1708.032          45.000  
C19  24713661.426   128690485.670       -1710.330          41.000  
G24  22707777.656   119329904.0722       2113.934          33.000  
G13  23062272.911   121192911.229       -3477.991          32.000  
G20  24831984.637                       -2235.131          20.000  
G23  25108320.770                        1192.041          20.000  
> 2023  7  9  8 43 44.0040000  0 12                     
G18  23573011.077   123877032.153        2268.215          40.000  
C 6  38035337.508   198059958.059         309.489          39.000  
C13  38408099.391   200001023.763         112.198          46.000  
C22  24735356.708   128803448.089        -132.327          37.000  
C16  37960174.042   197668558.388         226.734          39.000  
C 3  37310961.630   194287936.6492       -649.670          32.000  
G15  21620545.723   113616739.743       -1708.542          45.000  
C19  24713989.853   128692196.068       -1710.331          41.000  
G24  22707367.271   119327790.6962       2113.401          33.000  
G13  23062931.302   121196389.043       -3477.612          32.000  
G20  24832404.497                       -2240.624          20.000  
G23  25108091.011                        1194.651          20.000  
> 2023  7  9  8 43 45.0040000  0 12                     
G18  23572578.997   123874764.337        2267.527          40.000  
C 6  38035278.151   198059648.689         309.339          39.000  
C13  38408077.965   200000911.584         112.063          46.000  
C22  24735381.872   128803580.416        -131.923          37.000  
C16  37960130.732   197668331.844         226.418          39.000  
C 3  37311086.367   194288586.1073       -650.040          32.000  
G15  21620870.902   113618448.437       -1709.053          45.000  
C19  24714318.043   128693906.359       -1710.463          41.000  
G24  22706959.578   119325677.6942       2112.610          33.000  
G13  23063594.808   121199867.018       -3477.901          33.000  
G20  24832816.649                       -2240.645          21.000  
G23  25107861.192                        1192.191          19.000  
> 2023  7  9  8 43 46.0040000  0 13                     
G18  23572147.139   123872496.830        2267.733          39.000  
G 5  23676008.271                       -1714.523          27.000  
C 6  38035218.698   198059339.539         309.174          39.000  
C13  38408056.353   200000799.414         112.360          46.000  
C22  24735406.794   128803712.977        -132.559          37.000  
C16  37960087.349   197668105.512         226.528          39.000  
C 3  37311211.014   194289235.6562       -649.720          32.000  
G15  21621196.090   113620157.562       -1709.177          45.000  
C19  24714646.331   128695616.714       -1709.960          41.000  
G24  22706555.262   119323565.0992       2112.159          33.000  
G13  23064258.040   121203345.299       -3478.485          33.000  
G20  24833227.802                       -2236.907          21.000  
G23  25107632.104                        1182.897          19.000  
> 2023  7  9  8 43 47.0040000  0 13                     
G18  23571715.421   123870229.521        2267.326          37.000  
G 5  23676326.759                       -1715.306          27.000  
C 6  38035159.460   198059030.442         309.202          39.000  
C13  38408034.776   200000687.110         112.453          46.000  
C22  24735432.090   128803845.494        -132.407          37.000  
C16  37960043.943   197667879.247         226.506          39.000  
C 3  37311335.641   194289885.1382       -649.869          32.000  
G15  21621521.341   113621867.029       -1709.569          45.000  
C19  24714974.551   128697326.998       -1710.271          41.000  
G24  22706152.224   119321452.8282       2113.002          33.000  
G13  23064921.539   121206823.687       -3478.533          35.000  
G20  24833641.833                       -2233.744          21.000  
G23  25107401.876                        1192.862          18.000  
> 2023  7  9  8 43 48.0040000  0 13                     
G18  23571284.083   123867962.645        2266.752          40.000  
G 5  23676654.013                       -1714.680          27.000  
C 6  38035100.001   198058721.680         308.659          39.000  
C13  38408013.059   200000574.922         112.100          46.000  
C22  24735457.557   128803978.341        -133.010          37.000  
C16  37960000.605   197667653.336         225.965          39.000  
C 3  37311460.305   194290533.7783       -650.045          32.000  
G15  21621846.852   113623576.993       -1710.169          45.000  
C19  24715302.761   128699037.434       -1710.361          41.000  
G24  22705749.821   119319341.2382       2111.337          32.000  
G13  23065583.675   121210302.493       -3478.832          35.000  
G20  24834051.927                       -2237.086          22.000  
G23  25107175.077                        1198.441          20.000  
> 2023  7  9  8 43 49.0040000  0 13                     
G18  23570852.193   123865696.328        2265.964          39.000  
G 5  23676965.121                       -1716.572          26.000  
C 6  38035040.617   198058413.332         307.810          39.000  
C13  38407991.548   200000462.937         111.741          46.000  
C22  24735482.878   128804111.493        -133.505          36.000  
C16  37959957.379   197667427.834         224.935          39.000  
C 3  37311584.982   194291182.7553       -651.169          32.000  
G15  21622172.004   113625287.607       -1711.155          44.000  
C19  24715631.010   128700748.132       -1711.180          41.000  
G24  22705348.000   119317230.255        2110.637          32.000  
G13  23066245.885   121213781.775       -3480.071          34.000  
G20  24834464.158                       -2238.566          22.000  
G23  25106946.362                        1194.826          19.000  
> 2023  7  9  8 43 50.0040000  0 13                     
G18  23570420.453   123863430.342        2265.777          39.000  
G 5  23677278.026                       -1715.435          26.000  
C 6  38034981.475   198058105.202         308.141          39.000  
C13  38407970.003   200000350.986         111.865          46.000  
C22  24735508.093   128804244.884        -133.998          36.000  
C16  37959914.180   197667202.559         225.197          39.000  
C 3  37311709.609   194291831.7442       -650.453          32.000  
G15  21622497.223   113626998.668       -1711.330          44.000  
C19  24715959.221   128702458.865       -1710.724          41.000  
G24  22704946.647   119315119.760        2110.035          32.000  
G13  23066908.266   121217261.347       -3479.712          34.000  
G20  24834881.579                       -2240.596          23.000  
G23  25106721.804                        1194.826          16.000  
> 2023  7  9  8 43 51.0040000  0 12                     
G18  23569988.755   123861164.690        2265.852          39.000  
C 6  38034922.143   198057797.289         307.881          39.000  
C13  38407948.512   200000239.023         112.277          46.000  
C22  24735533.508   128804378.383        -133.448          36.000  
C16  37959870.912   197666977.507         225.133          39.000  
C 3  37311834.336   194292480.8413       -650.324          32.000  
G15  21622822.333   113628710.173       -1711.492          44.000  
C19  24716287.389   128704169.677       -1710.576          41.000  
G24  22704545.163   119313009.767        2109.362          32.000  
G13  23067570.775   121220741.201       -3479.673          34.000  
G20  24835300.120                       -2237.058          25.000  
G23  25106493.996                        1194.826          10.000  
> 2023  7  9  8 43 52.0040000  0 11                     
G18  23569557.280   123858899.366        2265.620          39.000  
C 6  38034863.005   198057489.582         307.817          39.000  
C13  38407926.800   200000127.104         111.924          46.000  
C22  24735558.683   128804512.086        -133.860          36.000  
C16  37959827.492   197666752.670         224.850          39.000  
C 3  37311959.206   194293131.0312       -650.568          32.000  
G15  21623147.800   113630422.104       -1712.034          44.000  
C19  24716615.703   128705880.532       -1710.697          41.000  
G24  22704143.551   119310900.188        2109.834          32.000  
G13  23068233.148   121224221.381       -3480.352          34.000  
G20  24835723.638                       -2238.839          25.000  
> 2023  7  9  8 43 53.0040000  0 11                     
G18  23569126.004   123856634.600        2264.851          39.000  
C 6  38034804.003   198057182.295         307.371          39.000  
C13  38407905.332   200000015.393         111.624          46.000  
C22  24735583.779   128804646.118        -133.384          35.000  
C16  37959784.420   197666528.264         224.726          39.000  
C 3  37312084.140   194293781.4403       -649.968          32.000  
G15  21623473.366   113632134.687       -1712.583          44.000  
C19  24716944.099   128707591.678       -1711.070          40.000  
G24  22703742.191   119308791.343        2108.639          32.000  
G13  23068895.986   121227702.028       -3480.447          34.000  
G20  24836146.881                       -2238.806          26.000  
> 2023  7  9  8 43 54.0040000  0 12                     
G18  23568694.683   123854370.067        2264.087          39.000  
C 6  38034745.051   198056875.133         306.647          39.000  
C13  38407883.751   199999903.583         111.526          46.000  
C22  24735609.047   128804780.261        -134.698          35.000  
C16  37959741.461   197666304.004         223.548          39.000  
C 3  37312209.153   194294432.8873       -650.810          32.000  
G15  21623798.887   113633847.619       -1713.669          44.000  
C19  24717272.513   128709302.745       -1711.391          40.000  
G24  22703340.993   119306682.834        2108.339          33.000  
G13  23069558.835   121231182.908       -3481.764          34.000  
G20  24836573.509                       -2238.554          25.000  
G23  25105818.318                        1194.826          11.000  
> 2023  7  9  8 43 55.0040000  0 12                     
G18  23568263.760   123852106.033        2263.468          39.000  
C 6  38034686.107   198056568.331         306.173          39.000  
C13  38407862.288   199999791.934         111.440          46.000  
C22  24735634.355   128804914.703        -134.821          35.000  
C16  37959698.562   197666080.074         223.562          39.000  
C 3  37312334.154   194295083.5172       -650.269          32.000  
G15  21624124.677   113635561.122       -1713.990          43.000  
C19  24717600.876   128711014.044       -1711.709          41.000  
G24  22702939.511   119304574.995        2107.344          32.000  
G13  23070221.337   121234664.167       -3481.726          34.000  
G20  24837001.915                       -2244.759          24.000  
G23  25105594.714                        1194.826          16.000  
> 2023  7  9  8 43 56.0040000  0 12                     
G18  23567832.926   123849842.240        2263.590          39.000  
C 6  38034627.045   198056261.670         306.333          39.000  
C13  38407840.766   199999680.224         111.516          46.000  
C22  24735659.829   128805049.268        -135.121          36.000  
C16  37959655.763   197665856.310         223.687          39.000  
C 3  37312459.069   194295734.1973       -651.145          32.000  
G15  21624450.393   113637275.002       -1714.184          43.000  
C19  24717929.485   128712725.298       -1711.321          41.000  
G24  22702538.390   119302467.544        2105.870          33.000  
G13  23070883.753   121238145.660       -3481.534          35.000  
G20  24837430.301                       -2254.623          21.000  
G23  25105374.430                        1202.318          19.000  
> 2023  7  9  8 43 57.0040000  0 12                     
G18  23567401.669   123847579.163        2262.756          38.000  
C 6  38034568.185   198055955.582         305.640          39.000  
C13  38407819.477   199999568.870         111.052          46.000  
C22  24735685.654   128805184.301        -135.348          36.000  
C16  37959613.134   197665633.144         222.720          39.000  
C 3  37312584.128   194296385.2812       -651.286          32.000  
G15  21624776.394   113638989.685       -1715.281          43.000  
C19  24718258.175   128714437.015       -1711.990          40.000  
G24  22702137.530   119300360.893        2105.480          34.000  
G13  23071546.568   121241627.834       -3482.302          35.000  
G20  24837859.389                       -2254.623          17.000  
G23  25105152.457                        1193.710          21.000  
> 2023  7  9  8 43 58.0040000  0 12                     
G18  23566970.834   123845316.716        2262.063          38.000  
C 6  38034509.701   198055650.001         305.192          39.000  
C13  38407798.260   199999457.781         110.892          46.000  
C22  24735711.565   128805319.818        -135.645          37.000  
C16  37959570.648   197665410.461         222.418          39.000  
C 3  37312709.108   194297036.7212       -651.426          32.000  
G15  21625102.649   113640705.086       -1715.760          43.000  
C19  24718586.966   128716149.031       -1712.030          41.000  
G24  22701736.644   119298255.002        2105.443          34.000  
G13  23072209.634   121245110.554       -3482.717          35.000  
G20  24838288.812                       -2254.623          13.000  
G23  25104935.279                        1192.029          24.000  
> 2023  7  9  8 43 59.0040000  0 12                     
G18  23566540.443   123843054.784        2261.745          39.000  
C 6  38034450.976   198055344.830         304.783          39.000  
C13  38407777.196   199999346.916         110.797          46.000  
C22  24735737.563   128805455.687        -136.210          37.000  
C16  37959528.052   197665188.237         221.667          39.000  
C 3  37312834.397   194297688.4903       -652.142          32.000  
G15  21625428.962   113642421.135       -1716.366          43.000  
C19  24718915.555   128717861.330       -1712.435          41.000  
G24  22701335.993   119296149.763        2105.120          34.000  
G13  23072872.761   121248593.793       -3483.809          34.000  
G20  24838714.035                       -2254.623          13.000  
G23  25104718.991                        1192.262          25.000  
> 2023  7  9  8 44  0.0040000  0 12                     
G18  23566109.744   123840793.239        2261.172          39.000  
C 6  38034392.605   198055039.875         305.152          39.000  
C13  38407755.688   199999236.084         110.844          46.000  
C22  24735763.613   128805591.742        -136.046          38.000  
C16  37959485.498   197664966.220         221.849          39.000  
C 3  37312959.573   194298340.2983       -652.103          32.000  
G15  21625755.265   113644137.654       -1716.724          43.000  
C19  24719244.254   128719573.706       -1712.302          41.000  
G24  22700935.237   119294045.082        2104.471          34.000  
G13  23073535.963   121252077.337       -3483.737          34.000  
G20  24839137.292                       -2233.329          18.000  
G23  25104497.947   131925026.6313       1192.194          27.000  
> 2023  7  9  8 44  1.0040000  0 12                     
G18  23565679.675   123838532.081        2260.580          39.000  
C 6  38034334.168   198054735.251         304.469          39.000  
C13  38407734.220   199999125.372         110.287          46.000  
C22  24735789.820   128805728.073        -137.030          37.000  
C16  37959442.882   197664744.526         221.363          39.000  
C 3  37313085.102   194298992.3092       -651.898          32.000  
G15  21626081.586   113645854.708       -1717.341          43.000  
C19  24719572.949   128721286.217       -1712.597          41.000  
G24  22700534.474   119291940.971        2103.282          33.000  
G13  23074199.370   121255561.251       -3483.947          34.000  
G20  24839558.822                       -2240.923          21.000  
G23  25104274.347   131923834.6322       1192.206          27.000  
> 2023  7  9  8 44  2.0040000  0 13                     
G18  23565249.305   123836271.258        2260.641          39.000  
G 5  23681176.899                       -1717.418          26.000  
C 6  38034275.447   198054430.805         304.728          39.000  
C13  38407713.024   199999014.575         110.921          46.000  
C22  24735815.810   128805864.525        -136.674          37.000  
C16  37959400.262   197664523.042         221.186          39.000  
C 3  37313210.372   194299646.3673       -651.700          32.000  
G15  21626408.398   113647572.155       -1717.370          43.000  
C19  24719901.840   128722998.769       -1712.396          41.000  
G24  22700132.927   119289837.290        2102.968          31.000  
G13  23074862.785   121259045.425       -3484.475          34.000  
G20  24839984.438                       -2245.486          21.000  
G23  25104044.360   131922642.5902       1192.194          27.000  
> 2023  7  9  8 44  3.0040000  0 13                     
G18  23564819.225   123834010.621        2260.389          39.000  
G 5  23681504.801                       -1718.842          27.000  
C 6  38034217.294   198054126.450         304.316          39.000  
C13  38407691.528   199998903.688         111.147          46.000  
C22  24735842.088   128806000.987        -136.495          37.000  
C16  37959357.833   197664301.606         221.135          39.000  
C 3  37313335.233   194300296.3043       -651.330          32.000  
G15  21626735.170   113649289.898       -1717.984          43.000  
C19  24720230.595   128724711.221       -1712.535          41.000  
G24  22699719.328   119287733.949        2103.585          30.000  
G13  23075526.063   121262529.716       -3484.494          34.000  
G20  24840408.949                       -2238.469          20.000  
G23  25103813.546   131921450.4862       1192.639          27.000  
> 2023  7  9  8 44  4.0040000  0 13                     
G18  23564388.602   123831749.859        2260.589          39.000  
G 5  23681831.406                       -1718.631          27.000  
C 6  38034158.720   198053821.818         304.574          39.000  
C13  38407670.533   199998792.377         111.344          46.000  
C22  24735868.213   128806137.197        -136.297          37.000  
C16  37959315.281   197664079.954         221.479          39.000  
C 3  37313460.443   194300947.9072       -650.850          32.000  
G15  21627061.895   113651007.630       -1718.124          43.000  
C19  24720559.275   128726423.282       -1711.864          41.000  
G24  22699312.476   119285630.645        2102.747          29.000  
G13  23076189.463   121266013.852       -3484.396          34.000  
G20  24840835.591                       -2242.376          19.000  
G23  25103581.753   131920257.9512       1192.126          26.000  
> 2023  7  9  8 44  5.0040000  0 13                     
G18  23563958.020   123829489.832        2259.368          38.000  
G 5  23682152.125                       -1719.049          26.000  
C 6  38034100.432   198053517.827         303.339          39.000  
C13  38407649.035   199998681.461         110.630          46.000  
C22  24735894.363   128806273.921        -136.799          37.000  
C16  37959272.888   197663858.894         220.706          39.000  
C 3  37313585.954                        -651.443          32.000  
G15  21627388.468   113652726.160       -1718.932          43.000  
C19  24720888.062   128728135.793       -1712.620          40.000  
G24  22698907.487   119283528.216        2101.741          27.000  
G13  23076852.978   121269498.630       -3484.608          34.000  
G20  24841256.051                       -2242.376          16.000  
G23  25103348.486   131919065.8122       1191.907          25.000  
> 2023  7  9  8 44  6.0040000  0 13                     
G18  23563527.635   123827230.955        2258.125          38.000  
G 5  23682477.696                       -1719.851          25.000  
C 6  38034042.277   198053214.827         302.134          39.000  
C13  38407627.890   199998571.328         109.845          46.000  
C22  24735920.831   128806411.639        -138.204          37.000  
C16  37959230.634   197663638.896         219.430          39.000  
C 3  37313711.277   194302254.9503       -653.569          32.000  
G15  21627715.470   113654445.971       -1720.500          43.000  
C19  24721216.933   128729849.159       -1713.687          40.000  
G24  22698506.049   119281427.062        2100.391          27.000  
G13  23077516.600   121272984.548       -3486.498          34.000  
G20  24841676.628                       -2242.376          15.000  
G23  25103117.608   131917874.4432       1191.547          27.000  
> 2023  7  9  8 44  7.0040000  0 12                     
G18  23563097.668   123824972.563        2257.917          38.000  
C 6  38033984.088   198052912.217         302.259          39.000  
C13  38407606.857   199998461.371         109.669          46.000  
C22  24735947.474   128806549.674        -138.561          37.000  
C16  37959188.333   197663419.257         219.411          39.000  
C 3  37313836.440   194302906.1303       -653.715          32.000  
G15  21628042.731   113656166.365       -1720.804          43.000  
C19  24721546.120   128731562.746       -1713.630          40.000  
G24  22698110.753   119279326.468        2100.541          27.000  
G13  23078180.693   121276470.914       -3486.792          34.000  
G20  24842101.535                       -2253.302          17.000  
G23  25102887.811   131916682.8031       1190.875          28.000  
> 2023  7  9  8 44  8.0040000  0 12                     
G18  23562667.729   123822714.582        2257.974          38.000  
C 6  38033926.202   198052609.865         302.476          39.000  
C13  38407586.020   199998351.483         110.167          46.000  
C22  24735973.818   128806687.923        -138.147          37.000  
C16  37959146.196   197663199.906         219.535          39.000  
C 3  37313961.754   194303558.5172       -654.115          32.000  
G15  21628369.870   113657887.260       -1720.800          42.000  
C19  24721875.231   128733276.461       -1713.308          40.000  
G24  22697729.436   119277226.518        2100.174          28.000  
G13  23078844.423   121279957.616       -3486.486          34.000  
G20  24842528.392                       -2240.558          20.000  
G23  25102675.345   131915491.656        1191.840          30.000  
> 2023  7  9  8 44  9.0040000  0 13                     
G29  23615390.114                       -2686.291          22.000  
G18  23562238.279   123820456.907        2257.331          39.000  
C 6  38033868.331   198052307.710         302.498          39.000  
C13  38407564.881   199998241.558         110.101          46.000  
C22  24736000.178   128806826.316        -138.954          37.000  
C16  37959104.231   197662980.754         219.349          39.000  
C 3  37314087.132   194304211.8452       -653.316          32.000  
G15  21628697.308   113659608.587       -1721.589          43.000  
C19  24722204.147   128734990.219       -1714.258          40.000  
G24  22697336.353   119275126.960        2099.489          29.000  
G13  23079508.590   121283444.615       -3487.347          35.000  
G20  24842955.877                       -2243.387          23.000  
G23  25102446.386   131914300.467        1191.791          30.000  
> 2023  7  9  8 44 10.0040000  0 13                     
G29  23615906.923                       -2686.291          23.000  
G18  23561809.166   123818199.718        2256.962          40.000  
C 6  38033810.460   198052005.918         301.591          39.000  
C13  38407543.409   199998131.827         109.585          46.000  
C22  24736026.912   128806965.026        -138.664          38.000  
C16  37959062.405   197662761.997         218.203          39.000  
C 3  37314212.510   194304864.4613       -654.105          31.000  
G15  21629024.538   113661330.484       -1722.446          43.000  
C19  24722533.172   128736704.151       -1714.193          40.000  
G24  22696938.746   119273028.036        2098.352          30.000  
G13  23080172.439   121286932.035       -3487.686          34.000  
G20  24843386.864                       -2244.195          24.000  
G23  25102226.155   131913109.497        1190.753          31.000  
> 2023  7  9  8 44 11.0040000  0 13                     
G29  23616419.008                       -2686.291          23.000  
G18  23561380.376   123815943.175        2256.199          40.000  
C 6  38033752.658   198051704.625         301.114          39.000  
C13  38407522.068   199998022.376         109.217          46.000  
C22  24736053.414   128807104.203        -139.957          37.000  
C16  37959020.441   197662543.712         217.600          39.000  
C 3  37314338.148   194305519.3972       -653.736          32.000  
G15  21629352.504   113663053.082       -1723.074          43.000  
C19  24722862.198   128738418.430       -1714.861          39.000  
G24  22696535.865   119270929.860        2096.930          30.000  
G13  23080836.711   121290420.010       -3488.568          34.000  
G20  24843820.032                       -2244.676          24.000  
G23  25101992.381   131911918.796        1189.905          32.000  
> 2023  7  9  8 44 12.0040000  0 12                     
G18  23560951.286   123813686.882        2256.357          39.000  
C 6  38033694.957   198051403.475         301.407          39.000  
C13  38407500.750   199997912.833         110.060          46.000  
C22  24736080.228   128807243.449        -138.540          37.000  
C16  37958978.553   197662325.562         218.596          39.000  
C 3  37314463.516   194306171.4063       -654.435          31.000  
G15  21629680.030   113664776.056       -1722.594          42.000  
C19  24723191.263   128740132.690       -1713.862          39.000  
G24  22696132.634   119268832.032        2098.156          30.000  
G13  23081501.040   121293908.203       -3488.347          35.000  
G20  24844254.552                       -2244.906          23.000  
G23  25101763.590   131910728.016        1190.997          31.000  
> 2023  7  9  8 44 13.0040000  0 12                     
G18  23560522.456   123811430.893        2255.533          40.000  
C 6  38033637.589   198051102.510         301.069          39.000  
C13  38407479.491   199997803.292         109.623          46.000  
C22  24736106.631   128807382.837        -139.239          37.000  
C16  37958936.853   197662107.625         217.859          40.000  
C 3  37314589.138   194306826.3633       -654.251          31.000  
G15  21630007.910   113666499.450       -1723.430          42.000  
C19  24723520.320   128741846.994       -1714.572          39.000  
G24  22695734.279   119266734.784        2097.079          30.000  
G13  23082165.232   121297396.637       -3488.791          35.000  
G20  24844690.734                       -2247.409          22.000  
G23  25101537.647   131909537.245        1190.436          30.000  
> 2023  7  9  8 44 14.0040000  0 13                     
G18  23560093.389   123809175.319        2255.604          40.000  
G 5  23685098.735                       -1722.352          26.000  
C 6  38033580.180   198050801.826         300.771          39.000  
C13  38407458.327   199997693.834         109.656          45.000  
C22  24736133.312   128807522.463        -139.266          38.000  
C16  37958894.858   197661889.980         217.532          40.000  
C 3  37314714.871   194307480.5352       -654.753          32.000  
G15  21630335.942   113668223.335       -1723.925          42.000  
C19  24723849.594   128743561.390       -1714.331          39.000  
G24  22695332.316   119264638.009        2096.457          29.000  
G13  23082829.752   121300885.427       -3488.494          35.000  
G20  24845126.616                       -2242.891          20.000  
G23  25101300.839   131908346.568        1190.710          29.000  
> 2023  7  9  8 44 15.0040000  0 13                     
G18  23559664.332   123806919.930        2255.604          40.000  
G 5  23685415.057                       -1722.227          26.000  
C 6  38033522.472   198050501.234         300.602          39.000  
C13  38407437.354   199997584.241         109.497          46.000  
C22  24736160.345   128807662.117        -139.556          38.000  
C16  37958853.200   197661672.420         217.341          40.000  
C 3  37314840.385   194308134.5843       -653.761          31.000  
G15  21630664.391   113669947.534       -1724.341          42.000  
C19  24724178.879   128745275.717       -1713.775          39.000  
G24  22694927.342   119262541.611        2095.803          28.000  
G13  23083494.155   121304374.388       -3488.728          35.000  
G20  24845560.617                       -2241.281          21.000  
G23  25101072.540   131907155.741        1190.735          29.000  
> 2023  7  9  8 44 16.0040000  0 13                     
G18  23559235.273   123804665.064        2254.636          40.000  
G 5  23685738.331                       -1723.131          25.000  
C 6  38033464.839   198050200.996         300.244          39.000  
C13  38407416.083   199997474.824         109.267          46.000  
C22  24736187.430   128807802.099        -140.108          38.000  
C16  37958811.712   197661455.262         216.531          40.000  
C 3  37314965.995   194308787.9563       -654.552          31.000  
G15  21630992.684   113671672.332       -1725.080          42.000  
C19  24724508.094   128746990.298       -1714.748          39.000  
G24  22694525.581   119260445.865        2095.247          28.000  
G13  23084158.674   121307863.793       -3489.702          35.000  
G20  24845988.920                       -2246.069          25.000  
G23  25100849.076   131905965.036        1191.144          29.000  
> 2023  7  9  8 44 17.0040000  0 13                     
G18  23558806.544   123802410.652        2254.248          40.000  
G 5  23686069.857                       -1722.886          25.000  
C 6  38033407.327   198049901.125         299.576          39.000  
C13  38407395.219   199997365.575         109.006          45.000  
C22  24736214.158   128807942.365        -140.307          38.000  
C16  37958769.918   197661238.434         216.451          40.000  
C 3  37315091.627   194309442.4632       -654.482          32.000  
G15  21631321.221   113673397.702       -1725.376          42.000  
C19  24724837.481   128748705.077       -1715.194          39.000  
G24  22694131.407   119258350.713        2094.758          27.000  
G13  23084823.091   121311353.625       -3490.404          35.000  
G20  24846415.645   130568799.2623      -2246.889          27.000  
G23  25100628.909   131904774.520        1190.784          30.000  
> 2023  7  9  8 44 18.0040000  0 13                     
G18  23558377.981   123800156.712        2253.994          41.000  
G 5  23686398.635                       -1722.685          25.000  
C 6  38033349.835   198049601.607         299.359          39.000  
C13  38407373.991   199997256.417         109.226          45.000  
C22  24736240.946   128808082.934        -140.485          38.000  
C16  37958728.551   197661021.965         216.323          40.000  
C 3  37315217.106   194310096.2263       -654.826          31.000  
G15  21631649.688   113675123.637       -1725.996          43.000  
C19  24725166.700   128750419.989       -1714.757          39.000  
G24  22693734.481   119256256.079        2094.893          28.000  
G13  23085487.798   121314843.863       -3490.120          34.000  
G20  24846839.548   130571046.1492      -2246.832          29.000  
G23  25100402.410   131903584.083        1191.412          31.000  
> 2023  7  9  8 44 19.0040000  0 13                     
G18  23557949.488   123797902.481        2253.957          41.000  
G 5  23686739.088                       -1724.094          25.000  
C 6  38033292.371   198049301.630         299.825          39.000  
C13  38407352.944   199997146.640         109.789          45.000  
C22  24736267.610   128808223.023        -140.229          37.000  
C16  37958686.908   197660805.068         216.683          40.000  
C 3  37315342.490   194310748.3753       -653.701          31.000  
G15  21631978.318   113676849.359       -1725.917          43.000  
C19  24725496.049   128752134.348       -1714.471          39.000  
G24  22693342.192   119254161.377        2094.944          28.000  
G13  23086152.194   121318333.707       -3489.651          35.000  
G20  24847263.423   130573292.6282      -2246.040          31.000  
G23  25100176.691   131902393.044        1190.668          32.000  
> 2023  7  9  8 44 20.0040000  0 13                     
G18  23557521.053   123795648.852        2253.158          41.000  
G 5  23687073.787                       -1725.496          26.000  
C 6  38033234.860   198049002.176         299.263          39.000  
C13  38407331.990   199997037.185         109.087          45.000  
C22  24736294.436   128808363.583        -140.939          37.000  
C16  37958645.232   197660588.707         215.849          40.000  
C 3  37315468.265   194311403.9922       -655.513          32.000  
G15  21632307.036   113678575.828       -1726.898          43.000  
C19  24725825.295   128753849.039       -1715.140          38.000  
G24  22692951.035   119252067.441        2093.280          28.000  
G13  23086817.017   121321824.186       -3491.088          34.000  
G20  24847689.934   130575539.6852      -2247.507          31.000  
G23  25099950.296   131901202.238        1190.582          31.000  
> 2023  7  9  8 44 21.0040000  0 13                     
G18  23557092.921   123793396.146        2252.231          41.000  
G 5  23687405.507                       -1727.037          25.000  
C 6  38033177.678   198048703.494         298.152          39.000  
C13  38407311.001   199996928.246         108.841          45.000  
C22  24736321.323   128808504.842        -141.525          36.000  
C16  37958603.821   197660373.076         215.491          40.000  
C 3  37315593.995   194312058.1183       -654.803          32.000  
G15  21632636.274   113680303.279       -1728.049          43.000  
C19  24726154.705   128755564.343       -1715.801          38.000  
G24  22692558.164   119249974.500        2092.095          27.000  
G13  23087481.749   121325315.483       -3492.111          34.000  
G20  24848117.507   130577787.4952      -2247.776          31.000  
G23  25099718.065   131900012.040        1189.899          31.000  
> 2023  7  9  8 44 22.0040000  0 12                     
G18  23556664.791   123791143.933        2251.903          41.000  
C 6  38033120.174   198048405.201         298.065          39.000  
C13  38407290.039   199996819.519         108.566          46.000  
C22  24736348.145   128808646.466        -141.885          36.000  
C16  37958562.680   197660157.885         215.103          40.000  
C 3  37315719.751   194312713.5673       -655.517          32.000  
G15  21632965.164   113682031.343       -1728.303          43.000  
C19  24726483.988   128757279.863       -1715.527          38.000  
G24  22692166.402   119247882.205        2091.843          27.000  
G13  23088146.755   121328807.226       -3491.885          35.000  
G20  24848545.765   130580035.7932      -2248.858          31.000  
G23  25099492.822                        1187.137          29.000  
> 2023  7  9  8 44 23.0040000  0 12                     
G18  23556237.086   123788892.153        2251.805          41.000  
C 6  38033063.086   198048107.182         298.123          39.000  
C13  38407269.104   199996710.874         108.796          45.000  
C22  24736375.406   128808788.316        -141.463          36.000  
C16  37958521.529   197659943.010         214.470          40.000  
C 3  37315845.590   194313368.1852       -655.715          32.000  
G15  21633294.338   113683759.923       -1728.606          43.000  
C19  24726813.486   128758995.539       -1715.379          38.000  
G24  22691770.221   119245790.491        2091.493          27.000  
G13  23088811.983   121332299.359       -3492.091          34.000  
G20  24848977.109   130582284.3172      -2248.584          30.000  
G23  25099255.270                        1190.448          28.000  
> 2023  7  9  8 44 24.0040000  0 12                     
G18  23555809.238   123786640.432        2252.250          41.000  
C 6  38033005.854   198047809.132         298.594          39.000  
C13  38407248.108   199996601.965         109.616          45.000  
C22  24736402.105   128808930.061        -141.030          36.000  
C16  37958480.126   197659728.027         215.619          40.000  
C 3  37315971.267   194314023.5402       -654.469          32.000  
G15  21633623.855   113685488.656       -1728.188          44.000  
C19  24727142.955   128760710.998       -1714.699          38.000  
G24  22691375.592   119243698.954        2091.486          26.000  
G13  23089477.029   121335791.479       -3490.927          34.000  
G20  24849399.006   130584532.7822      -2247.265          29.000  
G23  25099023.616   131896286.4253       1190.411          28.000  
> 2023  7  9  8 44 25.0040000  0 12                     
G18  23555381.267   123784388.563        2251.514          42.000  
C 6  38032948.610   198047510.800         298.182          39.000  
C13  38407227.134   199996492.584         109.025          45.000  
C22  24736429.064   128809071.489        -141.522          36.000  
C16  37958438.707   197659512.837         214.618          40.000  
C 3  37316097.067   194314678.5143       -654.487          31.000  
G15  21633953.103   113687217.352       -1728.998          44.000  
C19  24727472.497   128762426.040       -1715.186          38.000  
G24  22690978.596   119241607.406        2090.949          26.000  
G13  23090142.406   121339283.390       -3491.700          34.000  
G20  24849815.439   130586780.5691      -2248.242          27.000  
G23  25098792.774   131895095.7402       1190.735          28.000  
> 2023  7  9  8 44 26.0040000  0 12                     
G18  23554953.857   123782137.660        2250.571          42.000  
C 6  38032891.481   198047213.319         297.155          39.000  
C13  38407206.112   199996383.832         108.272          45.000  
C22  24736456.162   128809213.709        -142.641          36.000  
C16  37958397.223   197659298.472         213.906          40.000  
C 3  37316222.956   194315333.2472       -656.634          31.000  
G15  21634282.652   113688947.126       -1730.504          44.000  
C19  24727801.947   128764141.748       -1716.066          38.000  
G24  22690583.829   119239516.850        2090.886          25.000  
G13  23090807.988   121342776.246       -3492.648          33.000  
G20  24850238.548                       -2242.923          24.000  
G23  25098568.185   131893905.7522       1189.551          28.000  
> 2023  7  9  8 44 27.0040000  0 12                     
G18  23554526.065   123779887.585        2249.753          42.000  
C 6  38032834.518   198046916.519         296.390          39.000  
C13  38407185.277   199996275.582         107.964          45.000  
C22  24736483.246   128809356.547        -142.977          36.000  
C16  37958355.994   197659084.801         213.143          40.000  
C 3  37316348.949   194315989.4713       -656.984          31.000  
G15  21634612.578   113690677.783       -1731.105          44.000  
C19  24728131.634   128765858.010       -1716.809          38.000  
G24  22690186.352                        2089.501          24.000  
G13  23091473.764   121346269.911       -3494.640          34.000  
G20  24850665.024                       -2242.923          21.000  
G23  25098353.407   131892716.1792       1189.160          30.000  
> 2023  7  9  8 44 28.0040000  0 13                     
G18  23554098.525   123777637.905        2249.956          43.000  
G 5  23689706.033                       -1724.512          26.000  
C 6  38032777.605   198046620.016         296.389          39.000  
C13  38407164.257   199996167.395         108.356          45.000  
C22  24736510.386   128809499.635        -142.512          35.000  
C16  37958315.076   197658871.436         213.586          40.000  
C 3  37316474.913   194316645.8123       -655.494          31.000  
G15  21634942.372   113692408.977       -1731.071          44.000  
C19  24728460.925   128767574.381       -1716.286          38.000  
G24  22689792.419                        2089.145          25.000  
G13  23092139.373   121349763.847       -3493.550          34.000  
G20  24851091.911                       -2242.923          15.000  
G23  25098146.853   131891526.6702       1189.569          31.000  
> 2023  7  9  8 44 29.0040000  0 13                     
G18  23553671.238   123775388.384        2249.434          43.000  
G 5  23690028.910                       -1726.104          26.000  
C 6  38032720.853   198046323.506         296.658          39.000  
C13  38407143.388   199996059.026         108.237          45.000  
C22  24736537.675   128809642.701        -143.109          35.000  
C16  37958274.131   197658658.087         213.383          40.000  
C 3  37316601.176   194317302.1232       -656.065          31.000  
G15  21635272.202   113694140.408       -1731.753          44.000  
C19  24728790.346   128769290.615       -1716.193          38.000  
G24  22689396.497                        2088.799          24.000  
G13  23092804.878   121353257.901       -3493.611          34.000  
G20  24851518.532                       -2242.923          10.000  
G23  25097924.004   131890337.0032       1189.215          31.000  
> 2023  7  9  8 44 30.0040000  0 12                     
G18  23553243.814   123773139.311        2248.936          43.000  
C 6  38032663.838   198046027.362         295.764          39.000  
C13  38407122.658   199995950.786         108.179          45.000  
C22  24736565.007   128809786.061        -143.458          35.000  
C16  37958233.314   197658445.079         212.541          40.000  
C 3  37316727.208   194317959.5763       -656.274          32.000  
G15  21635602.271   113695872.380       -1732.463          44.000  
C19  24729119.852   128771006.997       -1716.235          38.000  
G24  22689002.079                        2087.431          23.000  
G13  23093470.721   121356752.401       -3495.196          34.000  
G20  24851946.477                       -2244.617          15.000  
G23  25097693.964   131889147.4172       1189.551          31.000  
> 2023  7  9  8 44 31.0040000  0 12                     
G18  23552816.510   123770890.400        2248.890          43.000  
C 6  38032607.063   198045731.228         295.712          39.000  
C13  38407102.099   199995842.368         108.357          45.000  
C22  24736592.196   128809929.387        -143.390          35.000  
C16  37958192.404   197658232.137         212.207          40.000  
C 3  37316853.326   194318615.9062       -656.052          31.000  
G15  21635931.990   113697604.595       -1732.384          44.000  
C19  24729449.386   128772723.290       -1716.148          38.000  
G24  22688605.431                        2086.408          22.000  
G13  23094136.390   121360246.958       -3495.257          33.000  
G20  24852374.986                       -2251.740          19.000  
G23  25097459.030   131887957.1881       1190.009          30.000  
> 2023  7  9  8 44 32.0040000  0 12                     
G18  23552389.491   123768641.687        2248.775          44.000  
C 6  38032550.023   198045435.162         296.011          39.000  
C13  38407081.087   199995733.798         108.627          45.000  
C22  24736620.015   128810072.744        -143.607          36.000  
C16  37958151.260   197658019.213         212.914          40.000  
C 3  37316979.496   194319272.2032       -655.832          31.000  
G15  21636261.887   113699337.109       -1732.508          45.000  
C19  24729779.110   128774439.485       -1715.880          38.000  
G24  22688212.102                        2086.888          23.000  
G13  23094802.475   121363741.653       -3494.725          33.000  
G20  24852807.586                       -2250.820          25.000  
G23  25097219.224   131886767.379        1190.033          29.000  
> 2023  7  9  8 44 33.0040000  0 12                     
G18  23551962.384   123766393.360        2248.140          45.000  
C 6  38032493.209   198045139.361         295.545          39.000  
C13  38407060.443   199995625.318         108.169          45.000  
C22  24736647.673   128810216.316        -144.212          37.000  
C16  37958110.507   197657806.599         212.321          40.000  
C 3  37317105.663   194319930.6283       -656.242          31.000  
G15  21636592.084   113701070.128       -1733.306          45.000  
C19  24730108.782   128776155.804       -1716.641          38.000  
G24  22687819.344                        2088.633          24.000  
G13  23095468.912   121367236.721       -3495.956          33.000  
G20  24853235.286   130604636.0253      -2251.300          27.000  
G23  25096973.476   131885577.569        1190.179          28.000  
> 2023  7  9  8 44 34.0040000  0 12                     
G18  23551535.008   123764145.501        2247.368          44.000  
C 6  38032436.213   198044843.908         294.805          39.000  
C13  38407039.239   199995516.960         108.013          45.000  
C22  24736675.416   128810360.157        -144.396          37.000  
C16  37958069.678   197657594.326         211.948          40.000  
C 3  37317231.840   194320587.2483       -657.168          32.000  
G15  21636922.075   113702803.711       -1733.968          44.000  
C19  24730438.144   128777872.278       -1717.067          38.000  
G24  22687417.403                        2086.164          23.000  
G13  23096135.360   121370732.148       -3495.141          32.000  
G20  24853666.170   130606887.3832      -2251.317          29.000  
G23  25096746.035                        1189.696          26.000  
> 2023  7  9  8 44 35.0040000  0 12                     
G18  23551108.005   123761897.844        2247.880          45.000  
C 6  38032379.552   198044548.539         295.635          39.000  
C13  38407018.195   199995408.474         108.825          45.000  
C22  24736703.330   128810504.041        -143.501          37.000  
C16  37958028.852   197657382.143         212.560          40.000  
C 3  37317357.618   194321241.8402       -656.509          32.000  
G15  21637252.510   113704537.583       -1733.776          45.000  
C19  24730767.524   128779588.681       -1715.901          38.000  
G24  22687012.025                        2087.551          23.000  
G13  23096801.600   121374227.741       -3495.308          31.000  
G20  24854097.999   130609138.9322      -2251.048          31.000  
G23  25096521.567                        1189.227          27.000  
> 2023  7  9  8 44 36.0040000  0 12                     
G18  23550681.060   123759650.337        2247.165          45.000  
C 6  38032322.747   198044253.189         295.136          39.000  
C13  38406997.461   199995299.827         108.530          45.000  
C22  24736731.503   128810647.897        -144.070          37.000  
C16  37957988.248   197657169.996         212.143          40.000  
C 3  37317483.781   194321899.2783       -656.831          32.000  
G15  21637582.834   113706271.698       -1734.605          45.000  
C19  24731097.090   128781304.956       -1716.469          38.000  
G24  22686599.758                        2078.823          23.000  
G13  23097467.635   121377723.494       -3496.803          31.000  
G20  24854528.487   130611390.4792      -2251.062          31.000  
G23  25096302.824   131881920.6233       1190.240          27.000  
> 2023  7  9  8 44 37.0040000  0 12                     
G18  23550253.573   123757403.091        2247.332          46.000  
C 6  38032266.024   198043957.981         295.104          40.000  
C13  38406976.561   199995191.124         108.916          45.000  
C22  24736759.403   128810791.857        -143.781          37.000  
C16  37957947.599   197656957.978         212.432          40.000  
C 3  37317609.932   194322555.7372       -656.142          32.000  
G15  21637912.529   113708006.147       -1734.657          44.000  
C19  24731426.595   128783021.204       -1716.092          38.000  
G24  22686189.839                        2086.198          24.000  
G13  23098134.046   121381219.331       -3495.637          31.000  
G20  24854958.869   130613642.2552      -2251.627          31.000  
G23  25096086.078   131880730.5412       1190.216          28.000  
> 2023  7  9  8 44 38.0040000  0 12                     
G18  23549826.710   123755156.652        2246.265          45.000  
C 6  38032209.349   198043663.442         294.623          39.000  
C13  38406955.651   199995082.849         108.308          44.000  
C22  24736787.462   128810936.401        -144.671          37.000  
C16  37957906.905   197656746.656         211.103          40.000  
C 3  37317736.064   194323212.7003       -657.181          32.000  
G15  21638242.524   113709741.539       -1736.012          44.000  
C19  24731756.127   128784737.982       -1716.950          38.000  
G24  22685784.170                        2084.168          26.000  
G13  23098803.803   121384716.041       -3497.213          30.000  
G20  24855396.659   130615894.6772      -2252.360          30.000  
G23  25095865.247   131879540.8902       1189.313          28.000  
> 2023  7  9  8 44 39.0040000  0 12                     
G18  23549399.602   123752910.816        2245.827          45.000  
C 6  38032152.924   198043369.366         294.215          39.000  
C13  38406934.691   199994974.847         108.145          45.000  
C22  24736815.331   128811081.358        -144.678          37.000  
C16  37957866.278   197656535.820         210.713          40.000  
C 3  37317862.380   194323871.0003       -657.495          32.000  
G15  21638572.770   113711477.587       -1736.194          44.000  
C19  24732085.684   128786455.018       -1716.850          37.000  
G24  22685387.504   119212516.6063       2083.785          27.000  
G13  23099479.082   121388213.194       -3497.596          30.000  
G20  24855837.882   130618147.6612      -2252.719          28.000  
G23  25095639.372   131878351.4982       1189.429          28.000  
> 2023  7  9  8 44 40.0040000  0 12                     
G18  23548972.718   123750665.188        2245.723          45.000  
C 6  38032096.338   198043075.388         294.141          39.000  
C13  38406913.983   199994866.733         108.237          45.000  
C22  24736843.172   128811226.381        -144.706          37.000  
C16  37957825.685   197656325.071         210.659          40.000  
C 3  37317988.503   194324527.3103       -657.472          32.000  
G15  21638902.798   113713213.961       -1736.358          44.000  
C19  24732415.289   128788172.030       -1716.727          37.000  
G24  22684998.259   119210433.4192       2083.608          29.000  
G13  23100151.219   121391710.491       -3496.957          29.000  
G20  24856300.892   130620400.7952      -2252.461          27.000  
G23  25095411.867   131877162.0432       1189.496          27.000  
> 2023  7  9  8 44 41.0040000  0 12                     
G18  23548545.720   123748420.200        2244.747          45.000  
C 6  38032039.775   198042781.923         293.182          39.000  
C13  38406893.296   199994758.893         107.718          45.000  
C22  24736871.393   128811371.862        -145.593          37.000  
C16  37957785.293   197656114.840         209.711          40.000  
C 3  37318114.756   194325184.8782       -657.029          32.000  
G15  21639233.200   113714951.067       -1737.539          43.000  
C19  24732744.872   128789889.398       -1717.753          37.000  
G24  22684611.487   119208350.9862       2083.217          30.000  
G13  23100822.142   121395208.404       -3497.822          28.000  
G20  24856763.284   130622654.5522      -2254.865          26.000  
G23  25095179.444   131875972.8572       1188.965          26.000  
> 2023  7  9  8 44 42.0040000  0 11                     
G18  23548118.303   123746175.723        2244.395          45.000  
C 6  38031983.364   198042488.826         293.488          39.000  
C13  38406872.610   199994651.260         107.863          45.000  
C22  24736899.469   128811517.697        -145.504          37.000  
C16  37957745.182   197655904.977         210.140          40.000  
C 3  37318240.978   194325841.7693       -657.445          32.000  
G15  21639563.342   113716688.760       -1737.577          43.000  
C19  24733074.701   128791606.974       -1717.426          37.000  
G24  22684220.910   119206269.2482       2081.703          31.000  
G13  23101491.381   121398706.801       -3498.995          27.000  
G20  24857191.499   130624908.6042      -2254.449          26.000  
> 2023  7  9  8 44 43.0040000  0 11                     
G18  23547691.781   123743931.689        2243.954          43.000  
C 6  38031927.109   198042196.053         293.143          38.000  
C13  38406851.920   199994543.736         107.561          45.000  
C22  24736928.016   128811663.797        -146.107          37.000  
C16  37957705.029   197655695.480         209.571          40.000  
C 3  37318367.324   194326499.7972       -657.030          32.000  
G15  21639893.764   113718427.014       -1738.257          40.000  
C19  24733404.196   128793324.718       -1717.950          37.000  
G24  22683831.735   119204188.0842       2080.878          30.000  
G13  23102159.123   121402205.588       -3498.569          25.000  
G20  24857609.572   130627162.3831      -2253.761          26.000  
> 2023  7  9  8 44 44.0040000  0 12                     
G 5  23694944.866                       -1729.343          24.000  
G18  23547264.801   123741688.006        2243.018          43.000  
C 6  38031870.737   198041903.504         292.395          38.000  
C13  38406831.295   199994436.220         107.302          45.000  
C22  24736956.517   128811810.027        -146.369          37.000  
C16  37957665.091   197655486.180         208.825          40.000  
C 3  37318493.727   194327157.9752       -658.635          32.000  
G15  21640224.186   113720165.695       -1739.323          40.000  
C19  24733734.088   128795042.511       -1718.303          37.000  
G24  22683428.361   119202107.4652       2079.268          30.000  
G13  23102826.786   121405704.656       -3499.460          23.000  
G20  24858024.178   130629417.024       -2254.866          27.000  
> 2023  7  9  8 44 45.0040000  0 11                     
G 5  23695271.580                       -1729.343          24.000  
G18  23546837.438   123739444.602        2242.781          43.000  
C 6  38031814.574   198041611.153         291.857          38.000  
C13  38406810.525   199994328.662         107.176          45.000  
C22  24736984.859   128811956.436        -147.077          37.000  
C16  37957624.852   197655277.064         208.738          40.000  
C 3  37318620.172   194327816.1683       -658.672          32.000  
G15  21640554.785   113721904.771       -1739.771          40.000  
C19  24734063.334   128796760.309       -1718.207          36.000  
G24  22683034.152   119200027.1602       2079.650          29.000  
G13  23103493.274                       -3498.497          22.000  
> 2023  7  9  8 44 46.0040000  0 12                     
G 5  23695586.972                       -1729.343          24.000  
G18  23546410.463   123737201.229        2243.442          43.000  
C 6  38031758.248   198041318.656         292.833          38.000  
C13  38406789.850   199994220.793         108.072          45.000  
C22  24737013.148   128812102.640        -146.091          38.000  
C16  37957584.661   197655067.853         209.494          40.000  
C 3  37318746.500   194328474.0823       -657.909          32.000  
G15  21640884.721   113723643.937       -1739.088          41.000  
C19  24734392.747   128798477.865       -1717.472          36.000  
G24  22682628.194   119197947.1092       2079.687          29.000  
G13  23104158.836                       -3499.374          22.000  
G20  24858839.112                       -2247.852          30.000  
> 2023  7  9  8 44 47.0040000  0 12                     
G 5  23695913.260                       -1729.343          24.000  
G18  23545983.485   123734957.741        2242.887          43.000  
C 6  38031701.708   198041025.933         292.461          38.000  
C13  38406769.033   199994112.505         107.743          45.000  
C22  24737041.365   128812248.577        -146.351          37.000  
C16  37957544.217   197654858.427         208.904          40.000  
C 3  37318872.978   194329132.6702       -658.817          32.000  
G15  21641215.391   113725383.103       -1739.817          41.000  
C19  24734722.098   128800195.004       -1717.667          36.000  
G24  22682227.446   119195867.0122       2079.497          29.000  
G13  23104826.508                       -3500.838          21.000  
G20  24859264.497   130636316.0453      -2255.002          30.000  
> 2023  7  9  8 44 48.0040000  0 12                     
G 5  23696254.684                       -1729.343          24.000  
G18  23545556.580   123732715.443        2241.994          43.000  
C 6  38031645.572   198040734.249         291.939          38.000  
C13  38406748.529   199994005.051         107.322          45.000  
C22  24737069.942   128812395.504        -147.080          37.000  
C16  37957504.215   197654650.045         208.067          40.000  
C 3  37318999.378   194329791.1123       -658.969          32.000  
G15  21641546.047   113727123.543       -1740.913          41.000  
C19  24735051.686   128801913.069       -1718.428          36.000  
G24  22681823.405   119193788.2692       2078.442          28.000  
G13  23105491.866                       -3500.049          21.000  
G20  24859686.444   130638571.6552      -2255.911          29.000  
> 2023  7  9  8 44 49.0040000  0 11                     
G18  23545130.218   123730473.821        2241.740          43.000  
C 6  38031589.642   198040443.143         291.191          38.000  
C13  38406727.864   199993897.940         107.327          45.000  
C22  24737098.464   128812542.945        -147.566          37.000  
C16  37957464.198   197654442.244         207.688          40.000  
C 3  37319125.780   194330448.9623       -657.726          32.000  
G15  21641877.178   113728864.765       -1741.500          41.000  
C19  24735381.668   128803631.515       -1718.860          36.000  
G24  22681426.657   119191709.9131       2077.202          28.000  
G13  23106154.520                       -3500.750          21.000  
G20  24860115.755   130640827.8222      -2255.814          28.000  
> 2023  7  9  8 44 50.0040000  0 12                     
G 5  23696942.096                       -1730.080          24.000  
G18  23544703.296   123728232.471        2241.574          41.000  
C 6  38031533.535   198040152.186         291.157          38.000  
C13  38406707.167   199993790.749         107.646          45.000  
C22  24737126.825   128812690.479        -147.431          37.000  
C16  37957424.090   197654234.570         207.760          40.000  
C 3  37319252.329   194331108.8842       -658.522          32.000  
G15  21642208.271   113730606.324       -1741.351          40.000  
C19  24735711.525   128805349.919       -1718.270          36.000  
G24  22681029.106   119189632.363        2077.642          27.000  
G13  23106815.747                       -3499.636          21.000  
G20  24860560.237   130643084.1942      -2256.460          27.000  
> 2023  7  9  8 44 51.0040000  0 12                     
G 5  23697277.314                       -1727.062          25.000  
G18  23544276.787   123725991.019        2241.283          42.000  
C 6  38031477.535   198039860.970         291.302          38.000  
C13  38406686.479   199993683.133         107.975          45.000  
C22  24737155.230   128812837.726        -147.431          38.000  
C16  37957384.095   197654026.650         208.266          40.000  
C 3  37319378.696   194331766.3863       -658.436          32.000  
G15  21642540.080   113732347.886       -1741.583          41.000  
C19  24736041.276   128807067.928       -1717.298          36.000  
G24  22680634.253   119187554.933        2077.255          27.000  
G13  23107477.978                       -3494.601          22.000  
G20  24861009.623                       -2256.094          25.000  
> 2023  7  9  8 44 52.0040000  0 10                     
G18  23543850.289   123723750.057        2240.513          42.000  
C 6  38031421.552   198039570.142         290.351          38.000  
C13  38406666.053   199993575.694         107.116          45.000  
C22  24737183.282   128812985.281        -147.997          37.000  
C16  37957344.476   197653819.152         207.233          40.000  
C 3  37319505.032   194332424.0993       -658.455          32.000  
G15  21642871.785   113734090.050       -1742.657          41.000  
C19  24736371.101   128808786.199       -1718.583          36.000  
G24  22680242.175   119185478.051        2076.717          26.000  
G13  23108139.231                       -3502.981          22.000  
> 2023  7  9  8 44 53.0040000  0 10                     
G18  23543424.157   123721509.540        2240.374          41.000  
C 6  38031365.689   198039279.638         290.399          38.000  
C13  38406645.289   199993468.362         107.369          45.000  
C22  24737211.695   128813133.104        -148.087          38.000  
C16  37957304.501   197653611.958         207.143          40.000  
C 3  37319631.832   194333084.1092       -659.945          31.000  
G15  21643203.594   113735832.732       -1742.754          42.000  
C19  24736701.073   128810504.611       -1718.427          36.000  
G24  22679852.395   119183401.836        2075.794          26.000  
G13  23108801.626                       -3490.315          22.000  
> 2023  7  9  8 44 54.0040000  0 10                     
G18  23542997.563   123719269.186        2240.497          40.000  
C 6  38031309.827   198038989.156         290.251          38.000  
C13  38406624.700   199993360.859         107.584          45.000  
C22  24737240.158   128813280.897        -147.585          38.000  
C16  37957264.725   197653404.827         206.975          40.000  
C 3  37319758.430   194333743.8693       -658.871          31.000  
G15  21643535.286   113737575.683       -1743.155          42.000  
C19  24737031.198   128812222.902       -1718.311          36.000  
G24  22679461.630   119181325.823        2076.136          26.000  
G13  23109463.645                       -3497.984          22.000  
> 2023  7  9  8 44 55.0040000  0 11                     
G18  23542571.114   123717029.071        2239.803          40.000  
C 6  38031253.964   198038698.762         290.082          38.000  
C13  38406603.908   199993253.244         107.513          45.000  
C22  24737268.829   128813428.761        -147.931          38.000  
C16  37957224.776   197653197.779         206.830          40.000  
C 3  37319884.838   194334402.7102       -659.540          31.000  
G15  21643867.392   113739318.940       -1743.326          42.000  
C19  24737361.081   128813941.090       -1718.410          36.000  
G24  22679069.721   119179250.223        2075.242          24.000  
G13  23110128.709                       -3502.357          23.000  
G20  24862741.815                       -2257.850          26.000  
> 2023  7  9  8 44 56.0040000  0 11                     
G18  23542144.216   123714789.283        2240.160          42.000  
C 6  38031198.152   198038408.601         290.024          38.000  
C13  38406583.261   199993145.644         108.094          45.000  
C22  24737297.261   128813576.785        -147.743          38.000  
C16  37957185.134   197652990.953         207.071          40.000  
C 3  37320011.147   194335059.5373       -658.945          31.000  
G15  21644199.529   113741062.640       -1743.345          44.000  
C19  24737691.119   128815659.339       -1717.371          36.000  
G24  22678676.720                        2075.440          24.000  
G13  23110797.405                       -3504.273          24.000  
G20  24863162.759   130656801.3133      -2256.706          27.000  
> 2023  7  9  8 44 57.0040000  0 11                     
G18  23541717.258   123712549.436        2239.722          42.000  
C 6  38031142.294   198038118.240         289.987          39.000  
C13  38406562.331   199993037.657         107.735          45.000  
C22  24737325.826   128813724.582        -147.840          38.000  
C16  37957145.129   197652783.940         206.968          41.000  
C 3  37320137.547   194335718.0612       -658.762          32.000  
G15  21644531.684   113742806.392       -1744.132          44.000  
C19  24738021.354   128817377.288       -1718.030          37.000  
G24  22678278.606                        2073.223          22.000  
G13  23111461.487                       -3501.737          25.000  
G20  24863582.515   130659058.5122      -2257.540          28.000  
> 2023  7  9  8 44 58.0040000  0 11                     
G18  23541290.359   123710309.902        2239.430          42.000  
C 6  38031086.543   198037828.037         290.221          38.000  
C13  38406541.591   199992929.612         108.046          45.000  
C22  24737354.207   128813872.464        -147.546          38.000  
C16  37957105.657   197652577.139         206.311          40.000  
C 3  37320263.925   194336375.6293       -658.031          32.000  
G15  21644864.035   113744550.498       -1744.311          45.000  
C19  24738351.282   128819095.224       -1718.072          37.000  
G24  22677879.805                        2073.223          19.000  
G13  23112127.158   121455047.2953      -3502.451          27.000  
G20  24864008.595   130661315.7862      -2257.441          28.000  
> 2023  7  9  8 44 59.0040000  0 11                     
G18  23540863.237   123708070.709        2239.008          40.000  
C 6  38031030.754   198037538.107         289.690          38.000  
C13  38406520.615   199992821.595         107.845          45.000  
C22  24737382.590   128814020.568        -148.694          38.000  
C16  37957065.855   197652370.536         206.520          40.000  
C 3  37320390.443   194337035.2942       -659.036          32.000  
G15  21645196.234   113746295.048       -1744.721          45.000  
C19  24738681.466   128820813.222       -1718.228          37.000  
G24  22677484.544                        2073.223          14.000  
G13  23112794.149   121458549.9302      -3503.477          26.000  
G20  24864435.135   130663573.3782      -2257.402          28.000  
> 2023  7  9  8 45  0.0040000  0  9                     
G18  23540436.092   123705832.254        2237.611          40.000  
C 6  38030974.859   198037248.756         288.498          38.000  
C13  38406500.026   199992714.004         107.129          45.000  
C22  24737411.208   128814169.177        -148.839          38.000  
C16  37957026.303   197652164.543         205.811          40.000  
C 3  37320516.986   194337693.3912       -659.343          32.000  
G15  21645528.412   113748040.444       -1746.004          45.000  
C19  24739011.653   128822531.646       -1718.690          37.000  
G13  23113457.579   121462053.2522      -3503.707          26.000  
> 2023  7  9  8 45  1.0040000  0 10                     
G18  23540009.776   123703594.411        2237.626          41.000  
C 6  38030919.292   198036959.877         288.793          38.000  
C13  38406479.509   199992606.681         107.488          45.000  
C22  24737440.012   128814318.262        -148.988          38.000  
C16  37956986.749   197651959.075         205.327          40.000  
C 3  37320643.763   194338353.8673       -659.449          32.000  
G15  21645860.666   113749786.545       -1746.235          45.000  
C19  24739341.981   128824250.475       -1718.917          37.000  
G24  22676719.800                        2073.223          14.000  
G13  23114125.662   121465557.1742      -3504.340          27.000  
> 2023  7  9  8 45  2.0040000  0 10                     
G18  23539583.440   123701356.864        2237.575          41.000  
C 6  38030863.741   198036671.189         288.431          38.000  
C13  38406458.920   199992499.308         107.320          45.000  
C22  24737468.350   128814467.453        -149.002          37.000  
C16  37956947.355   197651753.775         205.081          41.000  
C 3  37320770.267   194339012.3772       -659.775          32.000  
G15  21646193.148   113751533.029       -1746.821          45.000  
C19  24739672.420   128825969.251       -1718.823          38.000  
G24  22676347.981                        2070.641          18.000  
G13  23114795.743   121469061.2592      -3504.569          27.000  
> 2023  7  9  8 45  3.0040000  0 11                     
G18  23539157.372   123699119.821        2236.693          40.000  
C 6  38030808.486   198036382.851         287.917          38.000  
C13  38406438.225   199992392.108         106.882          45.000  
C22  24737496.981   128814616.962        -149.855          37.000  
C16  37956908.189   197651548.850         204.636          40.000  
C 3  37320897.035   194339673.0773       -659.650          32.000  
G15  21646525.811   113753280.099       -1747.448          45.000  
C19  24740003.043   128827688.270       -1719.447          39.000  
G24  22675982.521                        2069.365          21.000  
G13  23115461.781   121472565.7672      -3504.982          26.000  
G20  24866206.802                       -2258.023          21.000  
> 2023  7  9  8 45  4.0040000  0 11                     
G18  23538731.079   123696883.350        2236.296          40.000  
C 6  38030752.943   198036094.975         287.824          38.000  
C13  38406417.561   199992285.131         106.899          45.000  
C22  24737525.827   128814766.860        -150.026          37.000  
C16  37956868.757   197651344.378         204.216          41.000  
C 3  37321024.005   194340333.1452       -659.892          32.000  
G15  21646858.534   113755027.846       -1747.968          45.000  
C19  24740333.887   128829407.556       -1719.503          39.000  
G24  22675612.386                        2078.151          23.000  
G13  23116127.406   121476070.8092      -3504.657          26.000  
G20  24866640.245                       -2258.023          20.000  
> 2023  7  9  8 45  5.0040000  0 11                     
G18  23538305.360   123694647.096        2235.714          40.000  
C 6  38030697.572   198035807.168         287.507          38.000  
C13  38406396.849   199992178.019         107.180          45.000  
C22  24737554.546   128814916.781        -150.272          36.000  
C16  37956829.748   197651139.972         204.246          41.000  
C 3  37321150.696   194340994.1073       -659.519          32.000  
G15  21647191.285   113756775.877       -1748.422          45.000  
C19  24740664.441   128831126.761       -1719.498          39.000  
G24  22675235.514                        2066.968          24.000  
G13  23116795.103   121479576.0702      -3505.448          26.000  
G20  24867051.040                       -2258.023          21.000  
> 2023  7  9  8 45  6.0040000  0 11                     
G18  23537879.168   123692411.152        2235.896          40.000  
C 6  38030642.039   198035519.567         287.350          37.000  
C13  38406376.256   199992070.949         106.968          45.000  
C22  24737583.275   128815066.873        -150.321          36.000  
C16  37956790.438   197650935.778         204.465          40.000  
C 3  37321277.632   194341654.2003       -660.681          32.000  
G15  21647523.964   113758524.338       -1748.509          45.000  
C19  24740995.060   128832846.011       -1718.879          40.000  
G24  22674852.325                        2068.306          23.000  
G13  23117461.875   121483081.5752      -3505.757          26.000  
G20  24867467.856                       -2258.023          22.000  
> 2023  7  9  8 45  7.0040000  0 12                     
G18  23537453.566   123690175.576        2235.584          39.000  
G23  25089282.565                        1181.564          22.000  
C 6  38030586.680   198035232.184         287.266          38.000  
C13  38406355.520   199991963.882         107.063          45.000  
C22  24737611.810   128815217.119        -150.336          36.000  
C16  37956751.508   197650731.855         203.794          40.000  
C 3  37321404.171   194342313.3103       -660.223          32.000  
G15  21647856.645   113760273.250       -1749.098          45.000  
C19  24741325.591   128834565.333       -1719.425          40.000  
G24  22674460.813                        2070.311          24.000  
G13  23118131.906   121486586.8761      -3505.917          25.000  
G20  24867902.672                       -2258.023          22.000  
> 2023  7  9  8 45  8.0040000  0 11                     
G18  23537027.655   123687939.906        2235.677          39.000  
G23  25089076.314                        1181.564          24.000  
C 6  38030531.408   198034944.581         287.845          37.000  
C13  38406334.769   199991856.394         107.844          45.000  
C22  24737640.547   128815367.079        -149.391          36.000  
C16  37956712.190   197650527.702         204.089          40.000  
C 3  37321530.937   194342974.0662       -659.169          32.000  
G15  21648189.564   113762022.142       -1748.864          44.000  
C19  24741656.276   128836284.293       -1718.884          40.000  
G24  22674061.696                        2069.268          25.000  
G13  23118799.321   121490092.387       -3505.288          24.000  
> 2023  7  9  8 45  9.0040000  0 10                     
G18  23536601.929   123685704.471        2235.111          39.000  
G23  25088869.986                        1189.028          26.000  
C 6  38030476.165   198034657.132         287.061          37.000  
C13  38406314.235   199991748.835         107.143          44.000  
C22  24737669.214   128815517.131        -150.329          35.000  
C16  37956673.157   197650323.681         203.188          40.000  
C 3  37321657.657   194343633.8543       -660.426          32.000  
G15  21648522.382   113763771.383       -1749.961          44.000  
C19  24741986.660   128838003.187       -1719.494          39.000  
G13  23119462.933                       -3511.769          22.000  
> 2023  7  9  8 45 10.0040000  0 11                     
G24  22673187.103                        2067.773          31.000  
G18  23536176.477   123683470.334        2233.800          39.000  
G23  25088644.393                        1188.075          26.000  
C 6  38030421.069   198034370.806         285.904          37.000  
C13  38406293.822   199991642.199         106.316          44.000  
C22  24737697.996   128815668.302        -151.613          35.000  
C16  37956634.361   197650120.807         202.188          40.000  
C 3  37321784.529   194344294.6392       -661.346          32.000  
G15  21648855.296   113765521.967       -1751.013          45.000  
C19  24742317.120   128839723.108       -1720.222          39.000  
G13  23120126.153                       -3512.915          21.000  
> 2023  7  9  8 45 11.0040000  0 11                     
G24  22672800.388                        2066.637          29.000  
G18  23535751.499   123681236.690        2233.160          35.000  
G23  25088412.445                        1188.943          25.000  
C 6  38030366.185   198034084.842         285.891          37.000  
C13  38406273.450   199991535.703         106.323          43.000  
C22  24737726.964   128815819.733        -151.362          35.000  
C16  37956595.499   197649918.305         202.097          40.000  
C 3  37321911.562   194344955.5942       -660.413          32.000  
G15  21649188.233   113767273.149       -1751.436          41.000  
C19  24742647.764   128841443.203       -1720.186          39.000  
G13  23120789.661                       -3503.497          19.000  
> 2023  7  9  8 45 12.0040000  0 11                     
G24  22672394.907   119144239.0543       2065.834          28.000  
G18  23535326.682   123679003.280        2232.674          37.000  
G23  25088178.777                        1188.235          23.000  
C 6  38030311.054   198033798.984         285.872          36.000  
C13  38406252.916   199991429.110         106.612          42.000  
C22  24737755.762   128815971.261        -152.192          34.000  
C16  37956556.680   197649715.927         201.685          39.000  
C 3  37322038.506   194345616.5993       -660.946          31.000  
G15  21649521.412   113769024.706       -1751.660          43.000  
C19  24742978.276   128843163.270       -1720.439          39.000  
G13  23121452.830                       -3510.019          18.000  
> 2023  7  9  8 45 13.0040000  0 12                     
G24  22671973.599   119142172.8152       2066.318          29.000  
G18  23534901.723   123676769.993        2232.758          38.000  
G23  25087946.495                        1188.746          24.000  
C 6  38030256.046   198033513.114         285.890          37.000  
C13  38406232.420   199991322.317         106.653          44.000  
C22  24737784.668   128816122.681        -151.030          35.000  
C16  37956517.623   197649513.530         202.606          40.000  
C 3  37322165.410   194346277.4112       -661.150          32.000  
G15  21649854.853   113770776.426       -1751.982          44.000  
C19  24743308.798   128844883.145       -1719.857          40.000  
G13  23122114.868                       -3506.476          18.000  
G20  24870481.100                       -2261.691          25.000  
> 2023  7  9  8 45 14.0040000  0 13                     
G24  22671557.951   119140106.8502       2065.961          28.000  
G18  23534476.722   123674536.815        2232.847          38.000  
G23  25087719.641                        1188.458          26.000  
C 6  38030201.038   198033227.268         285.454          37.000  
C13  38406211.925   199991215.333         106.802          44.000  
C22  24737813.540   128816274.102        -151.790          35.000  
C16  37956478.733   197649311.151         202.229          40.000  
C 3  37322292.324   194346938.0533       -660.009          32.000  
G15  21650188.384   113772528.357       -1752.158          43.000  
C19  24743639.142   128846602.874       -1719.951          40.000  
G 5  23704820.448                       -1735.779          26.000  
G13  23122777.990                       -3511.020          19.000  
G20  24870896.865   130697444.8563      -2261.821          27.000  
> 2023  7  9  8 45 15.0040000  0 13                     
G24  22671155.182   119138041.2692       2065.366          27.000  
G18  23534051.760   123672303.903        2233.013          38.000  
G23  25087496.473   131835667.2113       1188.165          27.000  
C 6  38030146.298   198032941.535         285.416          37.000  
C13  38406191.294   199991108.285         106.557          44.000  
C22  24737842.246   128816425.607        -152.282          35.000  
C16  37956439.781   197649108.924         201.755          40.000  
C 3  37322419.083   194347598.7313       -660.978          32.000  
G15  21650521.991   113774280.652       -1752.823          43.000  
C19  24743969.551   128848322.574       -1720.047          41.000  
G 5  23705144.089                       -1735.779          26.000  
G13  23123440.988                       -3506.685          20.000  
G20  24871315.244   130699707.1382      -2262.507          28.000  
> 2023  7  9  8 45 16.0040000  0 11                     
G24  22670756.326   119135976.2662       2064.447          28.000  
G18  23533626.885   123670071.380        2232.513          38.000  
G23  25087274.171   131834478.6252       1188.342          28.000  
C 6  38030091.321   198032656.027         285.712          37.000  
C13  38406171.015   199991001.237         107.137          44.000  
C22  24737871.111   128816577.228        -151.345          35.000  
C16  37956400.885   197648906.920         201.825          40.000  
C 3  37322545.909   194348258.5233       -661.265          32.000  
G15  21650855.197   113776033.383       -1753.103          43.000  
C19  24744299.852   128850042.335       -1719.837          41.000  
G13  23124103.438                       -3508.883          21.000  
> 2023  7  9  8 45 17.0040000  0 11                     
G24  22670360.280   119133911.8392       2064.248          28.000  
G18  23533202.215   123667839.396        2231.712          38.000  
G23  25087052.226   131833290.2582       1187.695          29.000  
C 6  38030036.782   198032370.950         285.178          37.000  
C13  38406150.299   199990894.398         106.861          44.000  
C22  24737900.059   128816729.252        -152.323          36.000  
C16  37956362.232   197648705.326         201.728          40.000  
C 3  37322673.169   194348921.5272       -661.095          32.000  
G15  21651188.880   113777786.735       -1753.675          43.000  
C19  24744630.335   128851762.353       -1720.018          41.000  
G13  23124768.791                       -3507.432          21.000  
> 2023  7  9  8 45 18.0040000  0 12                     
G24  22669971.938   119131848.0522       2064.322          28.000  
G18  23532777.864   123665607.877        2231.431          38.000  
G23  25086828.461   131832101.9322       1188.629          28.000  
C 6  38029982.398   198032086.221         284.609          37.000  
C13  38406129.950   199990787.675         107.052          44.000  
C22  24737929.383   128816881.528        -152.093          36.000  
C16  37956323.447   197648504.097         201.042          40.000  
C 3  37322800.057   194349582.7842       -661.674          32.000  
G15  21651522.339   113779540.652       -1753.970          43.000  
C19  24744961.082   128853482.542       -1720.083          41.000  
G13  23125434.650                       -3513.409          21.000  
G20  24872584.505                       -2255.477          27.000  
> 2023  7  9  8 45 19.0040000  0 11                     
G24  22669589.333   119129784.1522       2063.758          29.000  
G18  23532352.909   123663376.018        2232.029          38.000  
G23  25086600.554   131830913.0382       1188.953          29.000  
C 6  38029927.612   198031801.024         285.495          37.000  
C13  38406109.134   199990680.343         107.367          44.000  
C22  24737958.434   128817033.362        -152.159          35.000  
C16  37956284.869   197648302.411         201.859          40.000  
C 3  37322926.638   194350241.4253       -660.389          32.000  
G15  21651855.853   113781294.348       -1753.638          44.000  
C19  24745291.228   128855202.144       -1719.655          40.000  
G13  23126102.824                       -3509.245          22.000  
> 2023  7  9  8 45 20.0040000  0 11                     
G24  22669213.930   119127720.8642       2062.095          30.000  
G18  23531928.242   123661144.674        2230.587          38.000  
G23  25086369.588   131829724.3002       1188.409          29.000  
C 6  38029873.072   198031516.204         284.210          37.000  
C13  38406088.563   199990573.169         106.328          44.000  
C22  24737987.663   128817185.478        -152.686          36.000  
C16  37956246.239   197648101.112         200.754          40.000  
C 3  37323053.319   194350902.3242       -662.318          32.000  
G15  21652189.541   113783048.634       -1755.076          44.000  
C19  24745621.678   128856921.929       -1720.427          41.000  
G13  23126769.208                       -3518.013          23.000  
> 2023  7  9  8 45 21.0040000  0 11                     
G24  22668829.887   119125658.7052       2061.968          31.000  
G18  23531503.969   123658914.416        2230.006          39.000  
G23  25086137.347   131828536.2702       1188.281          29.000  
C 6  38029818.537   198031232.318         283.765          37.000  
C13  38406067.948   199990466.735         106.236          44.000  
C22  24738017.076   128817338.474        -153.224          35.000  
C16  37956207.788   197647900.775         200.156          40.000  
C 3  37323180.608   194351563.9743       -661.173          32.000  
G15  21652523.876   113784804.091       -1755.632          44.000  
C19  24745952.101   128858642.539       -1720.839          41.000  
G13  23127434.284                       -3514.823          24.000  
> 2023  7  9  8 45 22.0040000  0 11                     
G24  22668442.199   119123597.5672       2061.597          32.000  
G18  23531079.589   123656685.004        2228.921          38.000  
G23  25085908.879   131827348.7792       1188.214          28.000  
C 6  38029764.438   198030949.166         283.177          37.000  
C13  38406047.439   199990360.778         106.068          44.000  
C22  24738046.686   128817492.153        -153.983          36.000  
C16  37956169.299   197647701.161         199.399          40.000  
C 3  37323307.867   194352226.2662       -662.255          32.000  
G15  21652858.688   113786560.463       -1756.520          44.000  
C19  24746282.662   128860363.651       -1720.954          41.000  
G13  23128100.204                       -3510.276          23.000  
> 2023  7  9  8 45 23.0040000  0 11                     
G24  22668047.585   119121537.1442       2059.813          33.000  
G18  23530655.498   123654456.100        2228.697          39.000  
G23  25085684.004   131826161.5752       1187.189          28.000  
C 6  38029710.335   198030666.390         282.397          37.000  
C13  38406027.213   199990255.024         105.762          44.000  
C22  24738076.175   128817646.115        -153.813          36.000  
C16  37956131.124   197647501.918         199.326          40.000  
C 3  37323435.143   194352889.7493       -661.892          32.000  
G15  21653193.683   113788317.446       -1756.975          44.000  
C19  24746613.311   128862085.026       -1721.344          40.000  
G13  23128766.426                       -3508.588          23.000  
> 2023  7  9  8 45 24.0040000  0 11                     
G24  22667653.100   119119477.0102       2060.267          33.000  
G18  23530231.768   123652227.427        2228.336          39.000  
G23  25085459.367   131824974.1712       1187.457          28.000  
C 6  38029656.493   198030383.663         283.097          37.000  
C13  38406006.730   199990149.150         105.784          43.000  
C22  24738105.739   128817800.211        -154.113          37.000  
C16  37956092.913   197647302.805         198.822          40.000  
C 3  37323562.592   194353553.2353       -662.981          32.000  
G15  21653528.771   113790074.746       -1757.582          44.000  
C19  24746943.673   128863806.333       -1721.517          40.000  
G13  23129433.743                       -3511.523          25.000  
> 2023  7  9  8 45 25.0040000  0 11                     
G24  22667257.580   119117417.5482       2058.910          33.000  
G18  23529807.783   123649999.260        2227.893          39.000  
G23  25085238.040   131823786.9112       1186.945          28.000  
C 6  38029602.234   198030101.356         282.360          37.000  
C13  38405986.614   199990043.424         105.747          44.000  
C22  24738135.669   128817954.594        -154.873          37.000  
C16  37956054.920   197647104.050         198.467          40.000  
C 3  37323689.742   194354214.8793       -661.377          32.000  
G15  21653863.427   113791832.630       -1758.210          43.000  
C19  24747274.287   128865527.825       -1721.565          40.000  
G13  23130100.730                       -3512.059          25.000  
> 2023  7  9  8 45 26.0040000  0 12                     
G24  22666864.738   119115358.4102       2059.209          33.000  
G18  23529383.683   123647771.274        2227.904          39.000  
G23  25085017.405   131822599.4372       1187.469          29.000  
C 6  38029548.149   198029819.127         282.419          37.000  
C13  38405966.311   199989937.567         106.099          43.000  
C22  24738165.356   128818108.936        -154.395          37.000  
C16  37956016.591   197646905.377         198.511          40.000  
C 3  37323817.378   194354879.5512       -662.188          32.000  
G15  21654198.559   113793590.788       -1758.320          44.000  
C19  24747604.369   128867249.256       -1721.338          40.000  
G13  23130766.588                       -3514.448          24.000  
G 5  23708808.966                       -1738.870          27.000  
> 2023  7  9  8 45 27.0040000  0 12                     
G24  22666473.288   119113299.9932       2058.303          34.000  
G18  23528959.823   123645543.864        2227.519          39.000  
G23  25084788.097   131821412.2252       1187.646          29.000  
C 6  38029494.108   198029537.300         281.922          37.000  
C13  38405945.926   199989831.966         105.704          44.000  
C22  24738195.129   128818263.701        -154.785          37.000  
C16  37955978.555   197646707.120         198.532          40.000  
C 3  37323944.594   194355542.4782       -663.114          32.000  
G15  21654533.510   113795349.619       -1758.956          44.000  
C19  24747934.877   128868970.952       -1721.466          40.000  
G13  23131433.573                       -3514.902          22.000  
G 5  23709140.226   124592369.9422      -1738.469          27.000  
> 2023  7  9  8 45 28.0040000  0 12                     
G24  22666081.277   119111241.9652       2057.372          33.000  
G18  23528536.439   123643316.712        2226.838          40.000  
G23  25084557.576   131820224.9832       1187.201          29.000  
C 6  38029440.077   198029255.613         281.624          37.000  
C13  38405925.597   199989726.286         105.439          44.000  
C22  24738224.927   128818418.545        -155.229          37.000  
C16  37955940.437   197646509.022         198.279          40.000  
C 3  37324071.880   194356205.4322       -663.771          32.000  
G15  21654868.775   113797108.783       -1759.530          45.000  
C19  24748265.307   128870692.603       -1721.625          40.000  
G13  23132099.464                       -3511.580          19.000  
G 5  23709476.400   124594108.7062      -1739.144          27.000  
> 2023  7  9  8 45 29.0040000  0 12                     
G24  22665689.667   119109183.9422       2057.975          33.000  
G18  23528112.831   123641089.391        2227.886          40.000  
G23  25084324.994   131819037.1492       1188.782          28.000  
C 6  38029385.859   198028973.631         282.458          37.000  
C13  38405905.233   199989620.094         106.635          44.000  
C22  24738254.573   128818573.022        -153.324          37.000  
C16  37955902.390   197646310.645         198.827          40.000  
C 3  37324199.263   194356868.8113       -661.106          32.000  
G15  21655203.957   113798867.872       -1758.814          45.000  
C19  24748595.395   128872413.816       -1720.758          40.000  
G13  23132766.430                       -3513.649          20.000  
G 5  23709804.717   124595847.1422      -1738.203          27.000  
> 2023  7  9  8 45 30.0040000  0 13                     
G24  22665297.749   119107125.8602       2058.723          32.000  
G18  23527689.246   123638861.965        2227.661          40.000  
G23  25084082.576                        1185.801          26.000  
C 6  38029331.508   198028691.426         282.440          37.000  
C13  38405884.740   199989513.466         106.639          44.000  
C22  24738284.162   128818727.249        -154.261          38.000  
C16  37955864.254   197646112.043         198.550          40.000  
C 3  37324326.539   194357530.9983       -662.336          32.000  
G15  21655538.838   113800626.935       -1759.297          45.000  
C19  24748925.390   128874134.637       -1720.646          40.000  
G13  23133435.371                       -3517.532          21.000  
G20  24877728.169                       -2266.486          24.000  
G 5  23710137.919   124597585.2982      -1738.533          26.000  
> 2023  7  9  8 45 31.0040000  0 13                     
G24  22664906.061   119105068.3191       2057.004          32.000  
G18  23527265.540   123636635.340        2226.458          40.000  
G23  25083850.718                        1188.120          25.000  
C 6  38029277.346   198028409.876         281.448          37.000  
C13  38405864.297   199989407.240         106.196          44.000  
C22  24738314.199   128818882.077        -155.334          38.000  
C16  37955826.390   197645914.082         198.017          40.000  
C 3  37324453.814   194358193.5983       -662.864          32.000  
G15  21655874.167   113802386.869       -1760.228          45.000  
C19  24749255.522   128875855.934       -1721.571          40.000  
G13  23134103.176                       -3512.881          21.000  
G20  24878166.450                       -2267.709          26.000  
G 5  23710473.871                       -1739.076          25.000  
> 2023  7  9  8 45 32.0040000  0 13                     
G24  22664514.832   119103012.126        2056.599          31.000  
G18  23526842.512   123634409.454        2225.542          41.000  
G23  25083633.944                        1188.391          24.000  
C 6  38029223.499   198028128.946         280.844          37.000  
C13  38405844.148   199989301.467         105.612          44.000  
C22  24738344.420   128819037.441        -155.678          38.000  
C16  37955788.686   197645716.781         197.140          40.000  
C 3  37324581.084   194358856.7062       -663.007          32.000  
G15  21656209.805   113804147.657       -1761.133          45.000  
C19  24749585.849   128877577.705       -1721.703          39.000  
G13  23134769.872                       -3508.149          21.000  
G20  24878603.216   130737914.0913      -2267.731          27.000  
G 5  23710805.627                       -1741.603          23.000  
> 2023  7  9  8 45 33.0040000  0 12                     
G24  22664123.723   119100956.718        2055.295          31.000  
G18  23526419.125   123632184.151        2224.898          40.000  
G23  25083417.582                        1185.242          25.000  
C 6  38029169.910   198027848.464         280.197          37.000  
C13  38405824.008   199989195.933         105.451          44.000  
C22  24738374.732   128819193.206        -155.934          38.000  
C16  37955750.930   197645519.906         196.757          40.000  
C 3  37324708.446   194359520.1093       -663.367          32.000  
G15  21656545.174   113805909.095       -1761.855          46.000  
C19  24749916.504   128879299.761       -1722.224          39.000  
G13  23135438.545                       -3514.948          21.000  
G20  24879039.935   130740182.1502      -2268.846          28.000  
> 2023  7  9  8 45 34.0040000  0 12                     
G24  22663732.819   119098901.942        2054.160          31.000  
G18  23525995.866   123629959.362        2224.874          41.000  
G23  25083196.132                        1185.911          25.000  
C 6  38029116.242   198027568.372         279.959          37.000  
C13  38405803.772   199989090.595         105.626          44.000  
C22  24738405.074   128819349.306        -155.634          39.000  
C16  37955712.993   197645323.430         196.762          40.000  
C 3  37324835.981   194360183.7702       -663.322          33.000  
G15  21656880.664   113807671.134       -1762.011          46.000  
C19  24750246.861   128881022.050       -1722.080          39.000  
G13  23136108.375                       -3511.936          22.000  
G20  24879474.336   130742450.5432      -2268.315          27.000  
> 2023  7  9  8 45 35.0040000  0 12                     
G24  22663341.429   119096847.510        2054.207          31.000  
G18  23525572.979   123627734.822        2224.732          41.000  
G23  25082975.788                        1188.822          25.000  
C 6  38029062.271   198027288.376         280.094          37.000  
C13  38405783.594   199988985.143         105.667          44.000  
C22  24738435.247   128819505.477        -155.932          39.000  
C16  37955675.267   197645127.112         196.128          40.000  
C 3  37324963.311   194360847.4283       -663.437          32.000  
G15  21657216.208   113809433.512       -1762.434          46.000  
C19  24750577.291   128882744.304       -1722.174          39.000  
G13  23136778.323                       -3522.046          22.000  
G20  24879910.427   130744719.1822      -2269.101          26.000  
> 2023  7  9  8 45 36.0040000  0 12                     
G24  22662950.234   119094793.570        2053.185          31.000  
G18  23525150.267   123625510.611        2223.457          41.000  
G23  25082750.934                        1186.791          26.000  
C 6  38029008.532   198027008.592         279.261          37.000  
C13  38405763.313   199988879.666         105.278          44.000  
C22  24738465.587   128819661.783        -156.697          39.000  
C16  37955637.796   197644930.959         195.682          40.000  
C 3  37325090.949   194361512.1053       -663.868          32.000  
G15  21657551.502   113811196.300       -1763.220          45.000  
C19  24750907.749   128884466.552       -1722.585          39.000  
G13  23137450.277                       -3521.227          22.000  
G20  24880350.310                       -2268.897          24.000  
> 2023  7  9  8 45 37.0040000  0 11                     
G24  22662559.232   119092740.120        2053.353          32.000  
G18  23524727.348   123623286.812        2223.611          41.000  
G23  25082524.457                        1185.167          25.000  
C 6  38028954.782   198026729.068         279.338          37.000  
C13  38405742.921   199988774.300         105.269          44.000  
C22  24738496.134   128819818.327        -156.958          39.000  
C16  37955599.812   197644735.106         195.532          40.000  
C 3  37325218.314   194362174.9223       -663.428          32.000  
G15  21657886.595   113812959.599       -1763.571          45.000  
C19  24751238.014   128886188.956       -1722.575          38.000  
G13  23138120.762                       -3521.949          22.000  
> 2023  7  9  8 45 38.0040000  0 12                     
G24  22662168.360   119090687.064        2053.363          32.000  
G18  23524304.469   123621063.214        2223.558          42.000  
G23  25082293.738                        1191.245          23.000  
C 6  38028901.210   198026449.652         279.324          37.000  
C13  38405722.957   199988668.812         105.562          44.000  
C22  24738526.744   128819974.875        -156.582          40.000  
C16  37955562.127   197644539.338         195.613          40.000  
C 3  37325345.809   194362838.7122       -663.451          32.000  
G15  21658221.856   113814723.177       -1763.839          45.000  
C19  24751568.512   128887911.280       -1722.450          38.000  
G13  23138791.158                       -3515.604          21.000  
G20  24881240.350                       -2266.667          25.000  
> 2023  7  9  8 45 39.0040000  0 12                     
G24  22661777.516   119088634.453        2052.362          31.000  
G18  23523881.998   123618839.917        2223.444          42.000  
G23  25082063.694                        1181.906          21.000  
C 6  38028847.525   198026170.395         279.454          37.000  
C13  38405702.549   199988563.266         105.683          44.000  
C22  24738557.424   128820131.564        -156.590          40.000  
C16  37955524.390   197644343.733         195.717          40.000  
C 3  37325473.180   194363501.5223       -663.851          32.000  
G15  21658557.152   113816487.136       -1764.032          45.000  
C19  24751898.791   128889633.587       -1722.450          38.000  
G13  23139460.036                       -3516.888          19.000  
G20  24881680.413   130754112.8713      -2269.237          27.000  
> 2023  7  9  8 45 40.0040000  0 12                     
G24  22661386.758   119086582.194        2052.463          31.000  
G18  23523459.116   123616616.820        2223.079          42.000  
C 6  38028793.761   198025891.196         278.799          37.000  
C13  38405682.729   199988457.590         105.823          44.000  
C22  24738587.676   128820288.264        -156.650          40.000  
C16  37955486.750   197644148.198         195.600          40.000  
C 3  37325600.454   194364165.2523       -663.471          31.000  
G15  21658892.487   113818251.379       -1764.231          44.000  
C19  24752229.245   128891355.785       -1721.909          38.000  
G13  23140127.218                       -3516.888          16.000  
G20  24882107.951   130756382.4362      -2270.182          29.000  
G 5  23713402.590                       -1737.385          26.000  
> 2023  7  9  8 45 41.0040000  0 12                     
G24  22660992.855   119084529.894        2052.169          30.000  
G18  23523036.262   123614393.538        2223.593          42.000  
C 6  38028740.055   198025611.674         280.118          37.000  
C13  38405662.161   199988351.399         106.657          44.000  
C22  24738617.929   128820444.594        -156.011          40.000  
C16  37955449.055   197643952.372         196.337          40.000  
C 3  37325727.711   194364827.5502       -662.845          32.000  
G15  21659227.607   113820015.529       -1763.971          44.000  
C19  24752559.756   128893077.554       -1721.159          38.000  
G13  23140794.132                       -3516.888          14.000  
G20  24882538.588   130758651.6062      -2269.328          31.000  
G 5  23713743.191                       -1740.866          26.000  
> 2023  7  9  8 45 42.0040000  0 11                     
G24  22660590.749   119082477.886        2050.721          29.000  
G18  23522613.411   123612170.384        2222.706          42.000  
C 6  38028686.198   198025332.178         279.279          37.000  
C13  38405641.940   199988244.988         106.084          44.000  
C22  24738648.205   128820600.833        -156.438          40.000  
C16  37955411.283   197643756.556         195.217          40.000  
C 3  37325855.089   194365490.6853       -663.646          32.000  
G15  21659562.823   113821779.883       -1764.900          44.000  
C19  24752890.164   128894799.107       -1721.364          38.000  
G13  23141460.696                       -3516.214          14.000  
G 5  23714079.969                       -1740.722          27.000  
> 2023  7  9  8 45 43.0040000  0 13                     
G24  22660194.623   119080426.852        2049.715          27.000  
G18  23522190.622   123609948.099        2221.780          42.000  
G23  25081207.001   131802631.5713       1187.268          28.000  
C 6  38028632.933   198025053.422         278.121          37.000  
C13  38405621.584   199988139.117         105.431          44.000  
C22  24738678.830   128820757.832        -157.497          40.000  
C16  37955373.881   197643561.491         194.550          40.000  
C 3  37325982.280   194366153.4663       -664.614          32.000  
G15  21659898.335   113823545.201       -1765.840          43.000  
C19  24753220.653   128896521.287       -1722.319          38.000  
G13  23142130.870                       -3516.214          13.000  
G20  24883373.710                       -2270.465          32.000  
G 5  23714422.398   124620072.1653      -1741.429          27.000  
> 2023  7  9  8 45 44.0040000  0 13                     
G24  22659791.958   119078376.563        2050.248          26.000  
G18  23521767.406   123607726.440        2221.486          42.000  
G23  25080979.898   131801444.2802       1187.634          28.000  
C 6  38028579.224   198024775.150         277.746          37.000  
C13  38405601.440   199988033.528         105.633          44.000  
C22  24738709.468   128820915.204        -157.232          40.000  
C16  37955336.441   197643366.898         194.744          40.000  
C 3  37326109.808   194366817.5642       -665.108          32.000  
G15  21660233.562   113825311.222       -1766.082          43.000  
C19  24753551.559   128898243.803       -1722.479          38.000  
G13  23142797.877                       -3516.214          14.000  
G20  24883798.659   130765244.3323      -2270.532          32.000  
G 5  23714748.861   124621813.7742      -1741.894          26.000  
> 2023  7  9  8 45 45.0040000  0 13                     
G24  22659399.172   119076326.712        2050.236          25.000  
G18  23521344.288   123605505.057        2221.093          42.000  
G23  25080741.811   131800256.9682       1187.714          28.000  
C 6  38028525.933   198024496.989         277.950          37.000  
C13  38405581.349   199987927.876         105.582          44.000  
C22  24738739.955   128821072.685        -157.386          40.000  
C16  37955298.997   197643172.465         194.258          40.000  
C 3  37326237.348   194367481.6283       -664.122          32.000  
G15  21660568.959   113827077.607       -1766.462          43.000  
C19  24753882.163   128899966.269       -1722.471          38.000  
G13  23143461.784                       -3516.843          16.000  
G20  24884230.426   130767514.9692      -2270.673          32.000  
G 5  23715087.283   124623555.4472      -1741.230          26.000  
> 2023  7  9  8 45 46.0040000  0 13                     
G24  22659024.611   119074277.389        2048.980          26.000  
G18  23520921.409   123603284.022        2220.697          41.000  
G23  25080503.435   131799069.6722       1186.865          28.000  
C 6  38028472.639   198024219.075         277.797          37.000  
C13  38405561.098   199987822.257         105.499          44.000  
C22  24738770.476   128821230.330        -157.726          40.000  
C16  37955261.265   197642978.260         193.906          40.000  
C 3  37326364.872   194368144.8172       -664.624          32.000  
G15  21660904.701   113828844.436       -1767.286          41.000  
C19  24754212.740   128901688.818       -1723.033          38.000  
G13  23144132.579                       -3520.866          20.000  
G20  24884669.099   130769785.9382      -2271.588          31.000  
G 5  23715424.929                       -1742.605          25.000  
> 2023  7  9  8 45 47.0040000  0 13                     
G24  22658653.928   119072228.440        2048.790          27.000  
G18  23520498.307   123601063.243        2220.446          41.000  
G23  25080259.365   131797882.3182       1187.006          26.000  
C 6  38028419.189   198023941.272         277.830          37.000  
C13  38405541.073   199987716.556         105.527          45.000  
C22  24738800.764   128821388.046        -157.772          40.000  
C16  37955223.789   197642784.182         193.685          40.000  
C 3  37326492.518   194368809.9663       -663.975          32.000  
G15  21661239.998   113830611.567       -1767.663          42.000  
C19  24754543.433   128903411.301       -1722.776          38.000  
G13  23144802.901                       -3515.559          22.000  
G20  24885100.638   130772057.0122      -2271.613          30.000  
G 5  23715755.263                       -1742.561          24.000  
> 2023  7  9  8 45 48.0040000  0 12                     
G24  22658272.191   119070179.913        2047.694          29.000  
G18  23520075.687   123598842.787        2220.299          41.000  
G23  25080016.307                        1186.022          26.000  
C 6  38028366.100   198023663.693         277.525          37.000  
C13  38405520.846   199987610.847         105.696          45.000  
C22  24738831.161   128821545.901        -157.837          40.000  
C16  37955186.628   197642590.301         193.865          40.000  
C 3  37326620.134   194369474.1553       -663.858          32.000  
G15  21661575.184   113832379.125       -1767.695          41.000  
C19  24754874.124   128905133.832       -1722.728          39.000  
G13  23145474.207                       -3516.765          22.000  
G20  24885535.312   130774328.2942      -2271.069          28.000  
> 2023  7  9  8 45 49.0040000  0 12                     
G24  22657893.715   119068131.865        2047.888          29.000  
G18  23519652.724   123596622.662        2220.320          41.000  
G23  25079780.100                        1187.012          25.000  
C 6  38028312.885   198023386.277         277.765          37.000  
C13  38405500.671   199987505.149         105.722          45.000  
C22  24738861.548   128821703.938        -158.175          40.000  
C16  37955149.568   197642396.653         193.552          40.000  
C 3  37326747.699   194370138.4663       -664.814          32.000  
G15  21661910.769   113834147.092       -1767.900          41.000  
C19  24755204.948   128906856.411       -1722.435          39.000  
G13  23146145.751                       -3516.975          23.000  
G20  24885960.749   130776599.8282      -2271.393          26.000  
> 2023  7  9  8 45 50.0040000  0 11                     
G24  22657517.201   119066084.178        2047.556          29.000  
G18  23519230.083   123594402.815        2220.052          41.000  
G23  25079555.264                        1188.173          25.000  
C 6  38028259.855   198023109.021         277.725          37.000  
C13  38405480.187   199987399.361         106.029          45.000  
C22  24738892.075   128821862.018        -158.044          40.000  
C16  37955112.520   197642203.140         193.692          40.000  
C 3  37326875.309   194370803.7112       -663.453          32.000  
G15  21662246.434   113835915.386       -1768.119          41.000  
C19  24755535.845   128908578.957       -1722.090          38.000  
G13  23146817.961                       -3519.318          25.000  
> 2023  7  9  8 45 51.0040000  0 11                     
G24  22657130.718   119064036.986        2048.032          30.000  
G18  23518807.069   123592183.336        2219.173          41.000  
G23  25079338.653                        1187.604          27.000  
C 6  38028206.678   198022831.991         276.984          37.000  
C13  38405459.953   199987293.593         105.803          44.000  
C22  24738922.481   128822020.290        -158.452          40.000  
C16  37955075.570   197642009.864         193.003          39.000  
C 3  37327002.781   194371467.1122       -664.065          32.000  
G15  21662582.134   113837684.161       -1768.967          41.000  
C19  24755866.407   128910301.588       -1722.621          38.000  
G13  23147489.382                       -3517.967          26.000  
> 2023  7  9  8 45 52.0040000  0 11                     
G24  22656759.236   119061990.403        2046.495          30.000  
G18  23518384.368   123589964.236        2218.708          41.000  
G23  25079137.181   131791626.6223       1186.810          31.000  
C 6  38028153.670   198022555.189         276.517          37.000  
C13  38405439.837   199987187.868         105.442          44.000  
C22  24738953.077   128822178.731        -158.835          40.000  
C16  37955038.593   197641816.808         192.696          40.000  
C 3  37327130.505   194372132.5473       -664.173          32.000  
G15  21662918.080   113839453.341       -1769.566          41.000  
C19  24756197.211   128912024.270       -1722.724          38.000  
G13  23148163.908   121644396.4643      -3519.375          27.000  
> 2023  7  9  8 45 53.0040000  0 12                     
G24  22656398.318   119059943.893        2046.221          30.000  
G18  23517962.211   123587745.172        2219.154          41.000  
G23  25078912.256   131790438.8352       1187.634          31.000  
C 6  38028100.457   198022278.309         277.002          37.000  
C13  38405419.570   199987081.811         106.080          44.000  
C22  24738983.511   128822337.050        -158.340          40.000  
C16  37955001.501   197641623.700         193.304          40.000  
C 3  37327257.887   194372795.7982       -664.080          32.000  
G15  21663254.253   113841222.640       -1769.172          39.000  
C19  24756527.903   128913746.717       -1722.414          37.000  
G13  23148835.503   121647915.6022      -3518.835          28.000  
G 5  23717705.547                       -1739.042          24.000  
> 2023  7  9  8 45 54.0040000  0 12                     
G24  22656032.288   119057897.744        2045.925          30.000  
G18  23517539.614   123585526.271        2218.564          41.000  
G23  25078684.338   131789250.9352       1187.634          31.000  
C 6  38028047.306   198022001.473         276.641          37.000  
C13  38405399.177   199986975.582         106.050          44.000  
C22  24739013.969   128822495.338        -158.378          40.000  
C16  37954964.404   197641430.654         192.781          40.000  
C 3  37327385.488   194373459.9363       -663.968          32.000  
G15  21663590.996   113842992.235       -1769.872          41.000  
C19  24756858.590   128915469.045       -1722.632          38.000  
G13  23149507.625   121651434.9522      -3520.260          28.000  
G 5  23718043.741                       -1739.042          25.000  
> 2023  7  9  8 45 55.0040000  0 12                     
G24  22655675.525   119055852.423        2045.066          29.000  
G18  23517117.123   123583308.095        2217.585          41.000  
G23  25078449.510   131788063.3342       1187.756          30.000  
C 6  38027994.232   198021725.233         275.472          37.000  
C13  38405379.062   199986869.768         105.424          44.000  
C22  24739044.590   128822654.177        -159.436          40.000  
C16  37954927.569   197641238.174         191.814          40.000  
C 3  37327513.284   194374124.5432       -665.097          32.000  
G15  21663928.069   113844762.648       -1771.174          41.000  
C19  24757189.644   128917191.813       -1723.547          38.000  
G13  23150181.259   121654954.8382      -3520.839          28.000  
G 5  23718384.255                       -1739.042          25.000  
> 2023  7  9  8 45 56.0040000  0 11                     
G24  22655313.557   119053808.122        2043.842          29.000  
G18  23516694.966   123581090.763        2217.096          40.000  
G23  25078216.125   131786876.3232       1187.030          29.000  
C 6  38027941.088   198021449.682         275.231          37.000  
C13  38405358.897   199986764.451         105.427          45.000  
C22  24739075.132   128822813.635        -159.090          40.000  
C16  37954890.419   197641046.413         191.929          40.000  
C 3  37327640.781   194374789.6943       -664.348          32.000  
G15  21664265.211   113846533.958       -1771.274          41.000  
C19  24757520.880   128918915.097       -1723.144          38.000  
G13  23150851.730   121658475.5462      -3520.993          28.000  
> 2023  7  9  8 45 57.0040000  0 10                     
G18  23516273.200   123578874.125        2216.638          39.000  
G23  25077982.548   131785689.7342       1185.889          27.000  
C 6  38027888.066   198021174.689         275.200          36.000  
C13  38405338.565   199986659.497         104.916          45.000  
C22  24739105.909   128822973.635        -159.918          40.000  
C16  37954853.725   197640855.258         190.681          40.000  
C 3  37327768.680   194375455.3012       -665.643          32.000  
G15  21664602.575   113848306.071       -1772.575          40.000  
C19  24757852.233   128920638.827       -1723.841          38.000  
G13  23151524.125   121661996.8792      -3521.794          27.000  
> 2023  7  9  8 45 58.0040000  0 10                     
G18  23515851.251   123576657.737        2216.355          39.000  
G23  25077759.766   131784502.8642       1187.042          28.000  
C 6  38027834.992   198020899.811         275.027          36.000  
C13  38405318.547   199986554.442         104.996          44.000  
C22  24739136.796   128823133.688        -160.172          40.000  
C16  37954816.940   197640664.156         190.981          39.000  
C 3  37327896.706   194376121.8773       -665.529          32.000  
G15  21664940.335   113850078.480       -1772.395          41.000  
C19  24758183.394   128922362.457       -1723.469          38.000  
G13  23152194.993   121665518.3212      -3521.611          27.000  
> 2023  7  9  8 45 59.0040000  0 12                     
G24  22653941.552                        2043.937          24.000  
G18  23515428.920   123574441.503        2216.179          39.000  
G23  25077542.499   131783315.8852       1186.670          28.000  
C 6  38027782.175   198020624.962         275.032          36.000  
C13  38405298.271   199986449.184         105.304          44.000  
C22  24739167.503   128823293.691        -159.837          39.000  
C16  37954780.433   197640473.101         191.404          40.000  
C 3  37328024.322   194376786.3032       -665.175          32.000  
G15  21665278.325   113851851.154       -1772.617          42.000  
C19  24758514.679   128924085.988       -1723.312          38.000  
G13  23152873.772   121669039.9232      -3521.819          27.000  
G20  24890259.148                       -2275.585          25.000  
> 2023  7  9  8 46  0.0040000  0 12                     
G24  22653550.219                        2040.996          25.000  
G18  23515006.750   123572225.556        2216.101          40.000  
G23  25077321.999   131782128.8222       1186.780          30.000  
C 6  38027729.443   198020350.261         275.200          37.000  
C13  38405278.201   199986343.888         105.706          45.000  
C22  24739198.221   128823453.803        -159.955          40.000  
C16  37954743.727   197640282.245         190.942          40.000  
C 3  37328152.287   194377452.7163       -664.701          32.000  
G15  21665616.671   113853624.193       -1773.134          44.000  
C19  24758845.910   128925809.496       -1723.513          39.000  
G13  23153545.822   121672561.7362      -3522.185          27.000  
G20  24890693.966   130801479.1853      -2274.768          27.000  
> 2023  7  9  8 46  1.0040000  0 12                     
G24  22653189.882   119043316.3053       2042.295          27.000  
G18  23514584.251   123570009.772        2215.952          40.000  
G23  25077102.503   131780941.567        1187.091          32.000  
C 6  38027676.366   198020075.613         274.812          37.000  
C13  38405257.878   199986238.442         105.954          44.000  
C22  24739228.736   128823613.894        -159.722          39.000  
C16  37954707.157   197640091.414         191.242          40.000  
C 3  37328280.101   194378118.1223       -665.297          32.000  
G15  21665955.120   113855397.472       -1772.898          44.000  
C19  24759176.976   128927532.884       -1722.927          39.000  
G13  23154206.888   121676082.9211      -3520.509          27.000  
G20  24891128.665   130803753.6962      -2273.755          27.000  
> 2023  7  9  8 46  2.0040000  0 12                     
G24  22652825.751   119041274.3242       2041.915          32.000  
G18  23514162.185   123567793.885        2215.355          39.000  
G23  25076874.703   131779753.840        1187.537          31.000  
C 6  38027623.456   198019800.712         274.643          36.000  
C13  38405237.733   199986132.536         105.825          45.000  
C22  24739259.207   128823773.712        -160.177          39.000  
C16  37954670.616   197639900.349         190.943          40.000  
C 3  37328407.877   194378784.1002       -665.443          32.000  
G15  21666293.169   113857170.724       -1773.560          44.000  
C19  24759507.790   128929255.861       -1723.126          38.000  
G13  23154872.105   121679604.633       -3521.689          26.000  
G20  24891568.272   130806028.2312      -2275.861          25.000  
> 2023  7  9  8 46  3.0040000  0 11                     
G24  22652442.827   119039233.4162       2040.752          31.000  
G18  23513740.473   123565578.926        2214.516          37.000  
G23  25076645.456   131778566.702        1188.153          27.000  
C 6  38027570.662   198019526.604         273.357          36.000  
C13  38405217.443   199986027.249         104.804          44.000  
C22  24739289.770   128823934.265        -160.877          37.000  
C16  37954634.121   197639710.086         189.722          40.000  
C 3  37328535.807                        -668.408          32.000  
G15  21666631.244   113858944.992       -1774.706          42.000  
C19  24759838.599   128930979.477       -1723.993          38.000  
G13  23155538.489                       -3522.332          24.000  
> 2023  7  9  8 46  4.0040000  0 11                     
G24  22652060.068   119037193.3692       2039.276          31.000  
G18  23513318.687   123563364.637        2214.265          39.000  
G23  25076412.356   131777380.032        1186.469          31.000  
C 6  38027517.911   198019253.068         273.583          36.000  
C13  38405197.621   199985922.290         104.763          44.000  
C22  24739320.621   128824095.313        -161.273          38.000  
C16  37954597.770   197639520.376         189.558          40.000  
C 3  37328663.666   194380115.2423       -665.628          32.000  
G15  21666969.752   113860720.038       -1775.133          45.000  
C19  24760169.789   128932703.497       -1724.460          38.000  
G13  23156210.636                       -3527.730          23.000  
> 2023  7  9  8 46  5.0040000  0 13                     
G24  22651670.844   119035153.9952       2039.362          31.000  
G18  23512897.467   123561150.971        2213.536          37.000  
G23  25076183.145   131776193.582        1186.090          29.000  
C 6  38027465.630   198018979.969         272.835          36.000  
C13  38405177.744   199985817.541         104.707          44.000  
C22  24739351.389   128824256.725        -161.686          37.000  
C16  37954561.478   197639331.120         189.244          40.000  
C 3  37328791.959   194380783.5882       -666.597          32.000  
G15  21667308.267   113862495.731       -1775.921          43.000  
C19  24760500.680   128934427.738       -1723.713          37.000  
G13  23156885.133                       -3531.647          20.000  
G20  24892904.331                       -2274.815          21.000  
G 5  23721756.877                       -1748.000          27.000  
> 2023  7  9  8 46  6.0040000  0 12                     
G24  22651287.345   119033115.1602       2038.038          32.000  
G18  23512476.433   123558937.637        2213.208          40.000  
G23  25075951.386   131775007.025        1186.542          28.000  
C 6  38027412.595   198018707.079         272.629          36.000  
C13  38405157.937   199985712.812         104.923          45.000  
C22  24739382.420   128824418.338        -161.547          37.000  
C16  37954525.342   197639142.104         189.087          40.000  
C 3  37328919.599   194381448.0623       -666.830          33.000  
G15  21667646.537   113864271.878       -1776.498          46.000  
C19  24760831.847   128936152.119       -1724.508          38.000  
G13  23157558.852                       -3531.647          17.000  
G20  24893341.497                       -2275.619          24.000  
> 2023  7  9  8 46  7.0040000  0 13                     
G24  22650886.002   119031076.9572       2037.312          33.000  
G18  23512055.487   123556724.794        2212.630          40.000  
G23  25075730.113   131773820.758        1186.230          31.000  
C 6  38027360.543   198018434.590         272.204          36.000  
C13  38405137.805   199985608.287         104.571          45.000  
C22  24739413.195   128824580.271        -162.136          37.000  
C16  37954489.022   197638953.486         188.282          40.000  
C 3  37329047.724   194382115.6523       -666.130          33.000  
G15  21667984.989   113866048.610       -1776.918          45.000  
C19  24761163.163   128937876.700       -1724.884          38.000  
G13  23158228.339                       -3516.845          18.000  
G20  24893772.394   130817656.7533      -2276.190          30.000  
G 5  23722411.803   124662114.4903      -1744.991          29.000  
> 2023  7  9  8 46  8.0040000  0 13                     
G24  22650494.005   119029039.1772       2037.158          33.000  
G18  23511634.584   123554512.285        2212.525          39.000  
G23  25075505.536   131772634.365        1186.761          31.000  
C 6  38027308.124   198018162.227         272.405          37.000  
C13  38405117.711   199985503.719         104.505          45.000  
C22  24739443.991   128824742.292        -162.544          38.000  
C16  37954453.070   197638765.021         188.166          41.000  
C 3  37329175.908   194382783.4202       -667.561          33.000  
G15  21668323.749   113867825.731       -1777.423          45.000  
C19  24761494.785   128939601.308       -1725.126          38.000  
G13  23158897.985                       -3522.131          18.000  
G20  24894196.400   130819933.9762      -2277.948          31.000  
G 5  23722737.456   124663861.4092      -1747.193          28.000  
> 2023  7  9  8 46  9.0040000  0 13                     
G24  22650105.824   119027002.0612       2036.152          32.000  
G18  23511213.677   123552300.204        2212.098          38.000  
G23  25075289.779   131771448.141        1186.377          30.000  
C 6  38027255.938   198017890.225         271.773          36.000  
C13  38405097.420   199985399.272         104.897          45.000  
C22  24739474.879   128824904.590        -162.134          37.000  
C16  37954416.906   197638576.871         188.510          41.000  
C 3  37329303.694   194383448.2883       -666.898          33.000  
G15  21668662.192   113869603.375       -1777.556          45.000  
C19  24761826.174   128941326.045       -1724.689          38.000  
G13  23159568.470                       -3530.775          17.000  
G20  24894620.324   130822211.4272      -2277.124          31.000  
G 5  23723057.814   124665608.4862      -1746.733          28.000  
> 2023  7  9  8 46 10.0040000  0 13                     
G24  22649716.357   119024965.3912       2035.782          31.000  
G18  23510792.906   123550088.568        2211.400          38.000  
G23  25075062.533   131770261.878        1186.078          32.000  
C 6  38027203.661   198017618.446         271.955          37.000  
C13  38405077.674   199985294.894         104.542          45.000  
C22  24739506.249   128825067.095        -162.660          38.000  
C16  37954380.838   197638389.007         187.998          40.000  
C 3  37329431.752   194384115.2812       -666.697          33.000  
G15  21669000.847   113871381.492       -1778.229          45.000  
C19  24762157.208   128943050.875       -1725.069          37.000  
G13  23160238.868                       -3532.555          17.000  
G20  24895050.830   130824489.2152      -2277.771          31.000  
G 5  23723387.951   124667355.8732      -1747.630          28.000  
> 2023  7  9  8 46 11.0040000  0 13                     
G24  22649328.786   119022929.2362       2036.677          30.000  
G18  23510372.718   123547877.205        2211.025          38.000  
G23  25074837.732   131769075.603        1186.542          31.000  
C 6  38027151.813   198017346.892         271.310          37.000  
C13  38405057.706   199985190.470         104.490          45.000  
C22  24739537.008   128825229.719        -162.610          37.000  
C16  37954344.941   197638201.344         187.586          41.000  
C 3  37329559.678   194384781.3093       -666.405          33.000  
G15  21669339.324   113873160.016       -1778.773          45.000  
C19  24762488.390   128944775.718       -1724.799          38.000  
G13  23160907.684                       -3525.006          16.000  
G20  24895492.418   130826767.1912      -2277.856          31.000  
G 5  23723725.155   124669103.4032      -1747.498          27.000  
> 2023  7  9  8 46 12.0040000  0 13                     
G24  22648935.729   119020893.5452       2035.103          30.000  
G18  23509952.552   123545666.119        2210.953          38.000  
G23  25074610.017   131767889.275        1186.096          31.000  
C 6  38027099.576   198017075.425         271.763          36.000  
C13  38405037.762   199985085.959         104.838          45.000  
C22  24739567.883   128825392.417        -162.536          37.000  
C16  37954309.172   197638013.774         187.995          41.000  
C 3  37329687.639   194385447.3523       -666.862          33.000  
G15  21669677.738   113874938.860       -1778.950          45.000  
C19  24762819.664   128946500.547       -1724.607          38.000  
G13  23161579.601                       -3525.006          14.000  
G20  24895927.781   130829045.3112      -2278.558          31.000  
G 5  23724060.364   124670851.0322      -1747.730          26.000  
> 2023  7  9  8 46 13.0040000  0 12                     
G24  22648552.886   119018857.5982       2034.960          31.000  
G18  23509531.682   123543454.722        2211.468          38.000  
G23  25074383.269   131766702.260        1186.444          31.000  
C 6  38027047.428   198016803.523         271.430          36.000  
C13  38405017.541   199984980.836         104.755          45.000  
C22  24739598.750   128825554.620        -162.723          38.000  
C16  37954273.128   197637825.821         187.266          41.000  
C 3  37329815.488   194386113.8162       -667.123          33.000  
G15  21670016.149   113876717.482       -1779.092          45.000  
C19  24763150.996   128948224.774       -1724.736          38.000  
G13  23162252.221                       -3525.006          14.000  
G20  24896356.704   130831322.9622      -2277.557          30.000  
> 2023  7  9  8 46 14.0040000  0 12                     
G24  22648163.343   119016822.8252       2034.078          30.000  
G18  23509112.011   123541244.361        2210.082          38.000  
G23  25074155.730   131765516.023        1185.138          31.000  
C 6  38026995.446   198016532.556         270.046          37.000  
C13  38404997.572   199984876.366         104.027          45.000  
C22  24739629.540   128825717.663        -163.621          38.000  
C16  37954237.357   197637638.750         186.394          41.000  
C 3  37329943.550   194386781.0472       -668.187          33.000  
G15  21670354.740   113878497.226       -1780.564          45.000  
C19  24763482.488   128949949.726       -1725.694          38.000  
G13  23162920.653                       -3524.437          16.000  
G20  24896774.652   130833601.5582      -2279.199          28.000  
> 2023  7  9  8 46 15.0040000  0 12                     
G24  22647786.036   119014789.2622       2032.395          31.000  
G18  23508692.044   123539035.039        2208.499          38.000  
G23  25073927.860   131764330.339        1185.828          30.000  
C 6  38026943.715   198016262.430         269.601          36.000  
C13  38404977.417   199984772.575         103.413          45.000  
C22  24739660.931   128825881.533        -164.124          39.000  
C16  37954201.955   197637452.557         185.512          41.000  
C 3  37330071.747   194387448.0143       -669.326          33.000  
G15  21670693.374   113880278.061       -1781.281          45.000  
C19  24763814.078   128951675.381       -1726.176          39.000  
G13  23163594.398                       -3527.828          18.000  
G20  24897201.127   130835881.0172      -2279.669          27.000  
> 2023  7  9  8 46 16.0040000  0 12                     
G24  22647394.963   119012756.0682       2033.696          31.000  
G18  23508271.579   123536826.010        2209.066          37.000  
G23  25073700.071   131763144.726        1185.974          30.000  
C 6  38026891.798   198015992.493         269.933          36.000  
C13  38404957.623   199984668.780         103.947          45.000  
C22  24739691.985   128826045.528        -163.873          38.000  
C16  37954166.282   197637266.563         186.135          41.000  
C 3  37330200.236   194388116.9573       -667.944          32.000  
G15  21671032.107   113882059.274       -1781.127          45.000  
C19  24764145.571   128953401.090       -1725.757          38.000  
G13  23164267.541                       -3527.828          17.000  
G20  24897629.067   130838160.7742      -2279.913          27.000  
> 2023  7  9  8 46 17.0040000  0 13                     
G24  22647012.581   119010723.1672       2033.853          31.000  
G18  23507851.574   123534617.011        2209.597          36.000  
G23  25073479.092   131761958.849        1184.747          30.000  
C 6  38026839.901   198015722.527         269.895          36.000  
C13  38404937.698   199984564.695         104.269          45.000  
C22  24739723.131   128826209.461        -164.185          37.000  
C16  37954130.987   197637080.519         186.149          40.000  
C 3  37330328.518   194388784.7292       -667.733          32.000  
G15  21671370.989   113883840.671       -1781.690          45.000  
C19  24764477.171   128955126.556       -1725.347          38.000  
G29  23681670.978                       -2748.267          27.000  
G13  23164943.425                       -3527.828          16.000  
G20  24898062.899   130840440.4592      -2279.803          27.000  
> 2023  7  9  8 46 18.0040000  0 13                     
G24  22646624.553   119008690.7292       2031.359          31.000  
G18  23507431.462   123532408.500        2208.360          36.000  
G23  25073257.403   131760772.883        1184.845          31.000  
C 6  38026788.361   198015452.771         269.228          36.000  
C13  38404917.928   199984460.664         103.830          45.000  
C22  24739754.427   128826373.518        -164.000          36.000  
C16  37954095.325   197636894.740         185.515          41.000  
C 3  37330456.908   194389453.6823       -668.134          32.000  
G15  21671709.992   113885622.509       -1782.192          45.000  
C19  24764808.763   128956852.095       -1725.451          38.000  
G29  23682189.487                       -2748.267          27.000  
G13  23165619.449                       -3528.023          14.000  
G20  24898498.540   130842720.4192      -2279.803          28.000  
> 2023  7  9  8 46 19.0040000  0 13                     
G24  22646234.577   119006658.3341       2031.436          31.000  
G18  23507011.834   123530200.338        2207.749          37.000  
G23  25073037.932   131759587.024        1186.523          32.000  
C 6  38026736.772   198015183.285         269.766          37.000  
C13  38404898.323   199984356.707         103.929          45.000  
C22  24739785.726   128826537.822        -164.518          36.000  
C16  37954059.642   197636709.216         185.783          41.000  
C 3  37330585.120   194390120.7463       -668.460          32.000  
G15  21672048.835   113887404.822       -1782.448          44.000  
C19  24765140.587   128958577.785       -1725.561          39.000  
G29  23682709.242                       -2750.725          27.000  
G13  23166297.511                       -3532.218          16.000  
G20  24898935.034   130845000.781       -2280.725          28.000  
> 2023  7  9  8 46 20.0040000  0 13                     
G24  22645848.080   119004627.080        2031.001          31.000  
G18  23506592.383   123527992.656        2207.116          37.000  
G23  25072814.514   131758401.306        1185.089          32.000  
C 6  38026685.195   198014914.146         268.925          37.000  
C13  38404878.230   199984252.864         103.603          45.000  
C22  24739817.181   128826702.374        -164.871          37.000  
C16  37954024.140   197636524.025         185.260          41.000  
C 3  37330713.447   194390788.8972       -667.839          32.000  
G15  21672387.899   113889187.670       -1783.243          44.000  
C19  24765472.318   128960303.632       -1726.149          39.000  
G29  23683221.700                       -2750.527          26.000  
G13  23166976.876                       -3532.218          16.000  
G20  24899371.283   130847281.411       -2280.804          27.000  
> 2023  7  9  8 46 21.0040000  0 12                     
G24  22645461.633   119002596.339        2030.323          31.000  
G18  23506172.283   123525785.307        2207.280          37.000  
G23  25072581.288   131757215.612        1184.943          32.000  
C 6  38026633.402   198014645.222         268.613          37.000  
C13  38404858.697   199984149.072         103.740          45.000  
C22  24739848.787   128826867.123        -165.044          37.000  
C16  37953988.658   197636339.099         184.995          41.000  
C 3  37330842.001   194391459.2383       -668.367          32.000  
G15  21672727.108   113890970.967       -1783.495          44.000  
C19  24765803.925   128962029.500       -1725.836          38.000  
G13  23167652.597                       -3530.280          16.000  
G20  24899808.771                       -2283.714          25.000  
> 2023  7  9  8 46 22.0040000  0 12                     
G24  22645076.716   119000566.074        2030.259          30.000  
G18  23505752.771   123523578.332        2206.845          36.000  
G23  25072354.323   131756029.932        1184.979          31.000  
C 6  38026582.076   198014376.517         268.835          38.000  
C13  38404838.804   199984045.284         103.953          46.000  
C22  24739880.163   128827032.030        -165.109          38.000  
C16  37953953.284   197636154.372         184.759          42.000  
C 3  37330970.531   194392128.6443       -668.746          33.000  
G15  21673066.108   113892754.692       -1783.740          43.000  
C19  24766135.696   128963755.478       -1725.902          39.000  
G13  23168334.798                       -3530.280          15.000  
G20  24900250.928                       -2279.884          20.000  
> 2023  7  9  8 46 23.0040000  0 12                     
G24  22644693.143   118998535.799        2029.856          31.000  
G18  23505333.292   123521371.211        2206.723          37.000  
G23  25072127.029   131754843.716        1185.535          31.000  
C 6  38026530.508   198014107.553         268.561          37.000  
C13  38404818.812   199983940.971         104.181          46.000  
C22  24739911.873   128827196.564        -164.214          37.000  
C16  37953917.775   197635969.371         184.656          42.000  
C 3  37331098.739   194392795.5862       -668.349          33.000  
G15  21673405.343   113894538.319       -1783.729          43.000  
C19  24766467.398   128965480.968       -1725.632          39.000  
G13  23169017.583                       -3532.474          17.000  
G20  24900693.596                       -2277.337          19.000  
> 2023  7  9  8 46 24.0040000  0 12                     
G24  22644309.117   118996505.294        2030.610          30.000  
G18  23504913.358   123519163.791        2206.499          36.000  
G23  25071898.497   131753656.903        1186.530          30.000  
C 6  38026478.847   198013838.142         268.626          38.000  
C13  38404798.665   199983836.057         104.404          46.000  
C22  24739943.222   128827360.692        -165.113          37.000  
C16  37953882.225   197635783.975         184.735          42.000  
C 3  37331227.030   194393464.0063       -668.672          33.000  
G15  21673744.749   113896321.764       -1784.091          43.000  
C19  24766798.664   128967205.887       -1725.325          39.000  
G13  23169694.946                       -3528.023          17.000  
G20  24901135.122                       -2277.025          21.000  
> 2023  7  9  8 46 25.0040000  0 12                     
G24  22643919.127   118994476.169        2028.564          30.000  
G18  23504493.588   123516957.461        2205.871          36.000  
G23  25071679.167   131752470.869        1185.736          31.000  
C 6  38026427.494   198013569.700         268.001          37.000  
C13  38404778.738   199983731.896         103.757          45.000  
C22  24739974.707   128827525.659        -165.185          37.000  
C16  37953846.815   197635599.543         183.849          41.000  
C 3  37331355.295   194394131.2373       -668.731          33.000  
G15  21674083.879   113898106.376       -1785.190          43.000  
C19  24767130.296   128968931.633       -1726.253          39.000  
G13  23170372.476                       -3528.023          16.000  
G20  24901569.433   130858630.3253      -2281.866          26.000  
> 2023  7  9  8 46 26.0040000  0 12                     
G24  22643533.150   118992448.100        2028.430          29.000  
G18  23504074.055   123514752.152        2204.955          36.000  
G23  25071461.259   131751285.400        1185.339          31.000  
C 6  38026376.361   198013302.110         267.185          37.000  
C13  38404758.799   199983628.379         103.084          46.000  
C22  24740006.890   128827691.448        -165.992          37.000  
C16  37953811.689   197635415.960         182.829          41.000  
C 3  37331483.998   194394802.1312       -669.017          33.000  
G15  21674423.369   113899892.051       -1786.043          43.000  
C19  24767461.754   128970658.036       -1726.732          39.000  
G13  23171041.107                       -3528.023          15.000  
G20  24902002.388   130860912.7212      -2282.288          28.000  
> 2023  7  9  8 46 27.0040000  0 12                     
G24  22643150.669   118990420.654        2026.658          28.000  
G18  23503654.532   123512547.212        2204.679          36.000  
G23  25071237.272   131750099.987        1185.358          32.000  
C 6  38026325.370   198013034.750         267.138          37.000  
C13  38404739.098   199983524.903         103.062          46.000  
C22  24740038.967   128827857.444        -166.409          38.000  
C16  37953776.358   197635232.624         183.018          41.000  
C 3  37331612.402   194395470.1783       -668.712          33.000  
G15  21674763.069   113901678.181       -1786.511          43.000  
C19  24767793.295   128972384.541       -1726.661          39.000  
G13  23171707.294                       -3527.071          16.000  
G20  24902443.310   130863195.4252      -2283.160          30.000  
> 2023  7  9  8 46 28.0040000  0 12                     
G24  22642755.213   118988393.345        2027.048          27.000  
G18  23503235.441   123510342.365        2204.854          36.000  
G23  25071016.074   131748914.302        1185.822          31.000  
C 6  38026274.115   198012767.390         267.093          37.000  
C13  38404719.252   199983421.190         103.765          45.000  
C22  24740070.921   128828023.296        -165.499          37.000  
C16  37953741.245   197635049.262         183.383          41.000  
C 3  37331740.801   194396139.0762       -668.851          33.000  
G15  21675102.921   113903464.478       -1786.333          43.000  
C19  24768124.889   128974110.844       -1726.101          39.000  
G13  23172368.266                       -3533.187          19.000  
G20  24902881.122   130865478.0992      -2282.971          30.000  
> 2023  7  9  8 46 29.0040000  0 13                     
G24  22642359.083                        2028.509          25.000  
G18  23502816.417   123508137.971        2204.205          37.000  
G23  25070787.122   131747728.742        1185.516          32.000  
C 6  38026222.788   198012500.336         266.486          37.000  
C13  38404699.332   199983317.594         103.341          46.000  
C22  24740102.941   128828189.500        -166.910          37.000  
C16  37953706.117   197634866.228         182.829          41.000  
C 3  37331869.314   194396808.1163       -669.506          33.000  
G15  21675442.715   113905251.333       -1787.490          43.000  
C19  24768456.500   128975837.317       -1727.012          39.000  
G 5  23729773.531                       -1750.963          26.000  
G13  23173032.276                       -3533.081          19.000  
G20  24903317.557   130867761.1102      -2283.282          30.000  
> 2023  7  9  8 46 30.0040000  0 12                     
G24  22641968.814                        2029.864          24.000  
G18  23502397.255   123505934.134        2203.805          37.000  
G23  25070560.033   131746543.313        1185.876          31.000  
C 6  38026171.863   198012233.617         266.750          37.000  
C13  38404679.560   199983214.181         103.593          45.000  
C22  24740134.726   128828355.933        -166.147          37.000  
C16  37953671.434   197634683.608         182.762          41.000  
C 3  37331997.957   194397478.4133       -668.608          33.000  
G15  21675782.592   113907038.768       -1787.569          42.000  
C19  24768788.207   128977563.986       -1726.293          39.000  
G 5  23730103.895                       -1751.417          26.000  
G13  23173693.614                       -3536.583          20.000  
> 2023  7  9  8 46 31.0040000  0 12                     
G24  22641585.044                        2021.522          24.000  
G18  23501977.905   123503730.828        2202.950          37.000  
G23  25070333.170   131745358.172        1184.509          30.000  
C 6  38026120.672   198011967.365         266.072          37.000  
C13  38404659.871   199983110.986         103.114          45.000  
C22  24740166.685   128828522.782        -167.241          36.000  
C16  37953636.468   197634501.385         181.886          41.000  
C 3  37332126.558   194398147.9882       -669.024          33.000  
G15  21676122.710   113908826.842       -1788.609          43.000  
C19  24769119.848   128979290.925       -1727.237          39.000  
G 5  23730439.854                       -1752.703          26.000  
G13  23174351.556                       -3535.463          23.000  
> 2023  7  9  8 46 32.0040000  0 13                     
G24  22641205.765                        2021.505          25.000  
G18  23501558.420   123501527.757        2202.821          37.000  
G23  25070104.318   131744172.846        1185.480          29.000  
C 6  38026069.760   198011701.204         266.187          37.000  
C13  38404639.922   199983007.699         103.194          45.000  
C22  24740198.416   128828689.713        -167.548          36.000  
C16  37953601.729   197634319.288         182.084          41.000  
C 3  37332255.339   194398818.5363       -669.371          33.000  
G15  21676463.408   113910615.222       -1788.588          43.000  
C19  24769451.521   128981017.823       -1726.825          39.000  
G 5  23730775.282                       -1752.766          25.000  
G13  23175011.290                       -3532.610          25.000  
G20  24904677.333                       -2284.457          27.000  
> 2023  7  9  8 46 33.0040000  0 11                     
G24  22640826.681                        2025.691          25.000  
G18  23501138.989   123499324.991        2203.359          37.000  
G23  25069878.076   131742987.492        1185.382          28.000  
C 6  38026018.918   198011435.248         265.972          37.000  
C13  38404620.205   199982904.362         103.458          46.000  
C22  24740230.430   128828856.678        -166.777          36.000  
C16  37953566.828   197634137.365         181.853          41.000  
C 3  37332384.111   194399489.1023       -669.008          33.000  
G15  21676804.169   113912403.994       -1788.577          43.000  
C19  24769783.115   128982744.723       -1726.620          39.000  
G13  23175673.031   121788983.7733      -3532.677          27.000  
> 2023  7  9  8 46 34.0040000  0 12                     
G24  22640446.522                        2028.983          25.000  
G18  23500719.628   123497122.414        2202.290          37.000  
G23  25069648.339   131741802.012        1185.358          27.000  
C 6  38025967.840   198011169.272         265.765          37.000  
C13  38404600.492   199982800.813         103.519          46.000  
C22  24740262.260   128829023.650        -166.891          35.000  
C16  37953532.149   197633955.464         181.890          41.000  
C 3  37332512.784   194400158.6023       -670.188          33.000  
G15  21677144.658   113914192.989       -1789.227          43.000  
C19  24770114.911   128984471.458       -1726.901          39.000  
G13  23176339.242   121792516.3012      -3532.991          28.000  
G20  24905513.417                       -2283.766          29.000  
> 2023  7  9  8 46 35.0040000  0 12                     
G24  22640064.686                        2016.121          23.000  
G18  23500300.640   123494920.089        2202.229          37.000  
G23  25069419.695                        1186.378          26.000  
C 6  38025916.976   198010903.441         265.867          37.000  
C13  38404580.762   199982697.220         103.691          46.000  
C22  24740294.438   128829190.722        -167.392          35.000  
C16  37953497.263   197633773.712         181.917          42.000  
C 3  37332641.506   194400829.0492       -669.404          33.000  
G15  21677485.213   113915982.347       -1789.713          43.000  
C19  24770446.852   128986198.205       -1726.716          39.000  
G13  23177008.850   121796048.9962      -3532.694          28.000  
G20  24905941.391   130881605.1863      -2284.949          30.000  
> 2023  7  9  8 46 36.0040000  0 11                     
G24  22639682.269                        2016.984          22.000  
G18  23499881.463   123492717.913        2201.783          37.000  
C 6  38025866.289   198010637.615         265.535          37.000  
C13  38404560.706   199982593.426         103.778          46.000  
C22  24740326.631   128829357.714        -167.080          35.000  
C16  37953462.581   197633591.967         181.942          41.000  
C 3  37332769.970   194401498.3273       -668.979          33.000  
G15  21677825.976   113917771.904       -1789.668          43.000  
C19  24770778.521   128987924.758       -1726.713          39.000  
G13  23177677.681   121799581.7702      -3533.181          28.000  
G20  24906351.788   130883889.6402      -2285.156          31.000  
> 2023  7  9  8 46 37.0040000  0 12                     
G24  22639297.319                        2016.984          19.000  
G18  23499461.982   123490516.328        2201.345          36.000  
G23  25068964.129                        1171.887          24.000  
C 6  38025815.376   198010372.255         264.984          37.000  
C13  38404540.869   199982489.891         103.510          45.000  
C22  24740358.726   128829525.136        -167.777          35.000  
C16  37953427.739   197633410.707         180.980          41.000  
C 3  37332898.910   194402170.0193       -670.324          33.000  
G15  21678166.964   113919562.160       -1790.597          42.000  
C19  24771110.460   128989651.650       -1726.769          39.000  
G13  23178349.578   121803115.0002      -3533.223          28.000  
G20  24906785.727   130886174.5652      -2285.223          29.000  
> 2023  7  9  8 46 38.0040000  0 12                     
G24  22638910.401                        2016.984          16.000  
G18  23499042.379   123488315.325        2201.014          38.000  
G23  25068738.412                        1186.546          25.000  
C 6  38025764.571   198010107.334         265.283          37.000  
C13  38404521.349   199982386.614         103.453          46.000  
C22  24740390.815   128829692.969        -168.204          36.000  
C16  37953392.715   197633229.900         180.775          41.000  
C 3  37333027.519   194402839.9182       -669.549          33.000  
G15  21678507.938   113921353.065       -1790.775          44.000  
C19  24771442.140   128991378.813       -1727.026          39.000  
G13  23179023.383   121806648.8152      -3533.355          28.000  
G20  24907202.312   130888459.9862      -2285.059          28.000  
> 2023  7  9  8 46 39.0040000  0 12                     
G24  22638530.277                        2016.984          14.000  
G18  23498623.335   123486114.624        2200.220          38.000  
G23  25068516.289                        1186.029          27.000  
C 6  38025713.814   198009842.580         264.691          38.000  
C13  38404501.365   199982283.256         103.271          46.000  
C22  24740422.827   128829860.807        -167.932          36.000  
C16  37953358.041   197633049.221         180.927          41.000  
C 3  37333156.273   194403509.9073       -670.007          33.000  
G15  21678849.038   113923144.316       -1791.399          45.000  
C19  24771773.732   128993105.947       -1727.037          39.000  
G13  23179696.896   121810182.7862      -3533.853          28.000  
G20  24907619.136   130890745.5582      -2285.852          27.000  
> 2023  7  9  8 46 40.0040000  0 12                     
G24  22638158.424                        2024.992          17.000  
G18  23498204.017   123483914.332        2200.333          38.000  
G23  25068299.006   131734756.8633       1185.571          28.000  
C 6  38025662.991   198009578.118         264.114          37.000  
C13  38404481.540   199982179.980         103.101          46.000  
C22  24740455.026   128830028.965        -168.540          38.000  
C16  37953323.115   197632868.869         180.152          41.000  
C 3  37333284.933   194404180.0013       -670.152          33.000  
G15  21679190.206   113924936.101       -1792.190          45.000  
C19  24772105.378   128994833.198       -1727.228          40.000  
G13  23180373.555   121813717.1352      -3534.713          30.000  
G20  24908040.121   130893031.3782      -2285.968          26.000  
> 2023  7  9  8 46 41.0040000  0 12                     
G24  22637790.601                        2019.644          23.000  
G18  23497785.275   123481714.455        2199.431          36.000  
G23  25068080.951   131733571.5642       1185.748          30.000  
C 6  38025612.121   198009313.870         264.393          37.000  
C13  38404461.638   199982076.759         103.180          46.000  
C22  24740487.447   128830197.270        -168.586          36.000  
C16  37953288.154   197632688.784         179.547          41.000  
C 3  37333413.448   194404849.1923       -669.442          33.000  
G15  21679531.786   113926728.321       -1792.476          46.000  
C19  24772436.993   128996560.598       -1727.578          40.000  
G13  23181048.843   121817251.7332      -3533.394          30.000  
G20  24908467.929                       -2285.710          24.000  
> 2023  7  9  8 46 42.0040000  0 12                     
G24  22637426.541                        2020.166          24.000  
G18  23497366.448   123479514.722        2199.031          38.000  
G23  25067867.579   131732386.1772       1184.631          31.000  
C 6  38025561.379   198009049.733         263.626          37.000  
C13  38404442.129   199981973.392         102.612          46.000  
C22  24740519.603   128830365.650        -169.220          36.000  
C16  37953253.262   197632508.730         179.473          41.000  
C 3  37333541.906   194405518.3772       -670.756          33.000  
G15  21679873.111   113928520.795       -1793.360          44.000  
C19  24772768.457   128998287.829       -1727.672          39.000  
G13  23181728.209   121820786.4662      -3534.860          30.000  
G20  24908903.214                       -2285.767          24.000  
> 2023  7  9  8 46 43.0040000  0 12                     
G24  22637063.632                        2017.875          25.000  
G18  23496948.354   123477315.316        2198.829          39.000  
G23  25067640.404   131731200.6362       1185.754          33.000  
C 6  38025510.587   198008785.674         263.986          37.000  
C13  38404422.406   199981869.917         103.618          46.000  
C22  24740551.796   128830533.932        -168.179          35.000  
C16  37953218.543   197632328.823         179.902          41.000  
C 3  37333670.667   194406188.4803       -670.342          33.000  
G15  21680214.656   113930313.611       -1792.963          46.000  
C19  24773099.793   129000015.034       -1727.042          38.000  
G13  23182402.284   121824321.0071      -3536.289          30.000  
G20  24909347.110   130899502.1083      -2286.823          27.000  
> 2023  7  9  8 46 44.0040000  0 12                     
G24  22636701.171                        2018.783          25.000  
G18  23496529.714   123475116.209        2198.988          39.000  
G23  25067414.290   131730015.1052       1185.773          31.000  
C 6  38025459.946   198008521.851         263.338          37.000  
C13  38404402.520   199981766.467         103.333          46.000  
C22  24740583.735   128830702.492        -168.496          31.000  
C16  37953184.171   197632149.140         179.285          41.000  
C 3  37333799.192   194406858.6682       -670.406          33.000  
G15  21680556.091   113932106.868       -1793.697          45.000  
C19  24773431.318   129001742.302       -1727.702          38.000  
G13  23183068.331   121827856.117       -3535.390          29.000  
G20  24909789.511   130901788.7502      -2286.749          28.000  
> 2023  7  9  8 46 45.0040000  0 12                     
G24  22636334.358                        2019.595          24.000  
G18  23496111.553   123472917.059        2199.935          38.000  
G23  25067195.128   131728829.2162       1186.530          31.000  
C 6  38025409.025   198008257.832         264.543          37.000  
C13  38404382.190   199981662.672         104.500          45.000  
C22  24740615.950   128830870.792        -167.353          35.000  
C16  37953149.541   197631969.272         180.544          41.000  
C 3  37333927.895   194407528.5352       -669.359          33.000  
G15  21680897.567   113933900.136       -1792.654          47.000  
C19  24773762.718   129003469.223       -1726.151          39.000  
G13  23183725.939   121831391.210       -3534.271          29.000  
G20  24910243.518   130904075.3072      -2285.767          30.000  
> 2023  7  9  8 46 46.0040000  0 12                     
G24  22635966.438                        2016.854          24.000  
G18  23495693.518   123470717.877        2198.937          38.000  
G23  25066956.393   131727642.9382       1186.163          31.000  
C 6  38025358.098   198007993.674         263.566          37.000  
C13  38404362.254   199981558.495         104.000          45.000  
C22  24740648.170   128831038.889        -168.338          35.000  
C16  37953114.654   197631789.262         179.669          41.000  
C 3  37334056.283   194408196.1573       -670.927          33.000  
G15  21681238.702   113935693.449       -1793.671          47.000  
C19  24774093.935   129005195.810       -1726.956          39.000  
G13  23184400.405   121834926.185       -3535.765          29.000  
G20  24910702.026   130906361.7122      -2287.152          31.000  
> 2023  7  9  8 46 47.0040000  0 12                     
G24  22635593.174                        2018.299          25.000  
G18  23495275.433   123468519.686        2198.014          39.000  
G23  25066733.381   131726457.2972       1185.840          30.000  
C 6  38025307.574   198007730.296         263.822          37.000  
C13  38404342.491   199981454.917         103.532          45.000  
C22  24740680.419   128831207.759        -168.903          35.000  
C16  37953080.243   197631610.072         179.077          41.000  
C 3  37334184.855   194408866.3472       -669.593          33.000  
G15  21681580.646   113937487.797       -1794.612          47.000  
C19  24774425.372   129006923.060       -1727.525          38.000  
G13  23185076.018   121838462.002       -3535.957          28.000  
G20  24911148.052   130908648.9682      -2287.115          32.000  
> 2023  7  9  8 46 48.0040000  0 12                     
G24  22635215.712                        2016.893          26.000  
G18  23494857.896   123466322.173        2197.658          39.000  
G23  25066502.851   131725272.0282       1184.918          31.000  
C 6  38025256.993   198007467.502         262.666          37.000  
C13  38404322.664   199981351.689         103.112          45.000  
C22  24740712.807   128831377.122        -169.302          35.000  
C16  37953045.894   197631431.430         178.533          41.000  
C 3  37334313.735   194409537.0483       -670.691          34.000  
G15  21681922.395   113939282.907       -1795.312          47.000  
C19  24774756.650   129008650.719       -1727.687          39.000  
G13  23185746.197   121841998.456       -3536.621          29.000  
G20  24911593.571   130910936.8412      -2287.823          32.000  
> 2023  7  9  8 46 49.0040000  0 12                     
G24  22634828.544   118946844.3463       2016.770          28.000  
G18  23494440.336   123464124.989        2196.912          39.000  
G23  25066279.442   131724086.659        1184.869          31.000  
C 6  38025206.294   198007204.893         262.527          37.000  
C13  38404302.942   199981248.424         103.358          45.000  
C22  24740745.213   128831546.582        -169.440          34.000  
C16  37953011.348   197631252.998         178.352          41.000  
C 3  37334442.500   194410207.7563       -670.386          33.000  
G15  21682264.248   113941078.392       -1795.688          47.000  
C19  24775088.086   129010378.389       -1727.971          38.000  
G13  23186422.924   121845535.114       -3536.851          28.000  
G20  24912047.125                       -2291.113          31.000  
> 2023  7  9  8 46 50.0040000  0 12                     
G24  22634435.163   118944827.9382       2016.537          30.000  
G18  23494022.843   123461927.976        2196.480          39.000  
G23  25066052.782   131722901.130        1185.547          33.000  
C 6  38025155.706   198006942.321         262.706          37.000  
C13  38404283.025   199981144.981         103.485          45.000  
C22  24740777.584   128831716.076        -170.122          35.000  
C16  37952977.184   197631074.615         178.257          40.000  
C 3  37334571.376   194410878.3612       -670.382          33.000  
G15  21682606.068   113942874.152       -1795.898          46.000  
C19  24775419.447   129012105.935       -1727.593          38.000  
G13  23187098.708   121849071.923       -3536.891          28.000  
G20  24912502.925   130916086.1013      -2289.020          32.000  
> 2023  7  9  8 46 51.0040000  0 10                     
G18  23493605.068   123459731.156        2197.189          39.000  
G23  25065831.372   131721715.479        1185.516          34.000  
C 6  38025105.120   198006679.824         262.440          37.000  
C13  38404263.091   199981041.416         103.689          45.000  
C22  24740809.816   128831885.524        -169.686          34.000  
C16  37952942.639   197630896.299         178.547          41.000  
C 3  37334699.926   194411548.9372       -670.446          33.000  
G15  21682947.849   113944670.183       -1796.099          46.000  
C19  24775750.930   129013833.370       -1727.320          38.000  
G13  23187772.632   121852608.758       -3536.700          27.000  
> 2023  7  9  8 46 52.0040000  0 12                     
G24  22633634.913                        2011.816          32.000  
G18  23493187.174   123457534.770        2195.952          39.000  
G23  25065606.957   131720529.849        1185.571          35.000  
C 6  38025054.610   198006417.568         262.323          37.000  
C13  38404243.164   199980937.955         103.475          45.000  
C22  24740842.339   128832055.240        -170.003          34.000  
C16  37952908.213   197630718.272         177.853          41.000  
C 3  37334828.871   194412219.5923       -670.651          33.000  
G15  21683289.846   113946466.704       -1796.822          46.000  
C19  24776082.475   129015560.944       -1727.707          38.000  
G13  23188448.434   121856146.002       -3537.275          27.000  
G20  24913359.400                       -2288.104          34.000  
> 2023  7  9  8 46 53.0040000  0 11                     
G24  22633239.031   118938473.6863       2015.054          32.000  
G18  23492769.728   123455338.517        2196.343          39.000  
G23  25065373.151   131719344.071        1185.498          36.000  
C 6  38025004.233   198006155.382         261.589          37.000  
C13  38404223.529   199980834.308         103.377          45.000  
C22  24740874.890   128832224.895        -170.490          34.000  
C16  37952873.869   197630540.285         177.434          40.000  
C 3  37334957.408   194412890.2122       -671.573          33.000  
G15  21683631.816   113948263.440       -1797.189          47.000  
C19  24776414.072   129017288.377       -1727.899          38.000  
G13  23189121.060   121859683.269       -3537.430          27.000  
> 2023  7  9  8 46 54.0040000  0 12                     
G24  22632862.168   118936459.1622       2015.188          32.000  
G18  23492352.392   123453142.829        2195.181          39.000  
G23  25065144.697   131718158.461        1185.498          36.000  
C 6  38024953.906   198005893.561         261.541          37.000  
C13  38404203.689   199980730.834         103.269          45.000  
C22  24740907.546   128832394.853        -169.696          34.000  
C16  37952839.696   197630362.672         177.436          40.000  
C 3  37335086.130   194413560.9862       -670.760          34.000  
G15  21683974.056   113950060.795       -1797.650          47.000  
C19  24776745.612   129019016.051       -1728.277          38.000  
G13  23189798.484                       -3536.797          26.000  
G20  24914207.985   130925045.9923      -2289.172          34.000  
> 2023  7  9  8 46 55.0040000  0 11                     
G24  22632473.281   118934445.0722       2013.971          31.000  
G18  23491934.769   123450947.341        2195.455          39.000  
G23  25064919.721   131716972.723        1185.742          36.000  
C 6  38024903.327   198005631.833         261.793          36.000  
C13  38404184.126   199980627.242         103.846          45.000  
C22  24740940.374   128832564.909        -170.338          34.000  
C16  37952805.271   197630185.160         177.553          40.000  
C 3  37335214.817   194414228.7923       -671.481          33.000  
G15  21684316.502   113951858.456       -1797.922          47.000  
C19  24777077.428   129020743.628       -1727.738          38.000  
G13  23190471.714                       -3539.056          26.000  
> 2023  7  9  8 46 56.0040000  0 12                     
G24  22632076.819   118932431.2152       2013.856          29.000  
G18  23491517.550   123448751.961        2195.275          39.000  
G23  25064692.823   131715786.728        1186.407          36.000  
C 6  38024853.332   198005370.091         261.342          36.000  
C13  38404164.218   199980523.406         104.000          45.000  
C22  24740973.090   128832734.888        -170.532          35.000  
C16  37952770.986   197630007.648         177.209          40.000  
C 3  37335343.461   194414899.3432       -670.302          33.000  
G15  21684658.686   113953656.249       -1797.865          46.000  
C19  24777409.269   129022471.004       -1727.309          38.000  
G13  23191145.281                       -3538.851          25.000  
G20  24915072.253   130929588.2312      -2288.965          33.000  
> 2023  7  9  8 46 57.0040000  0 11                     
G24  22631682.059   118930417.6452       2012.619          28.000  
G18  23491100.184   123446556.694        2194.885          39.000  
G23  25064466.233   131714600.515        1186.261          36.000  
C 6  38024802.858   198005108.275         261.946          36.000  
C13  38404144.326   199980419.341         103.812          46.000  
C22  24741005.625   128832904.666        -170.173          35.000  
C16  37952736.706   197629830.105         176.831          40.000  
C 3  37335472.109   194415568.7763       -670.735          33.000  
G15  21685000.740   113955454.258       -1798.555          46.000  
C19  24777741.301   129024198.217       -1727.897          38.000  
G13  23191821.684                       -3541.047          22.000  
> 2023  7  9  8 46 58.0040000  0 13                     
G24  22631252.838   118928405.1662       2012.447          26.000  
G18  23490683.126   123444362.405        2193.842          39.000  
G23  25064240.756   131713414.944        1184.821          36.000  
C 6  38024752.862   198004847.346         260.325          36.000  
C13  38404124.239   199980315.903         102.958          46.000  
C22  24741038.564   128833075.334        -171.576          35.000  
C16  37952702.765   197629653.377         176.412          40.000  
C 3  37335600.966   194416239.8933       -671.290          33.000  
G15  21685343.264   113957253.306       -1799.686          46.000  
C19  24778073.203   129025926.043       -1727.885          38.000  
G13  23192500.199                       -3535.480          21.000  
G20  24915950.986                       -2292.725          29.000  
C 8  38026246.254   198012610.5901        108.164          39.000  
> 2023  7  9  8 46 59.0040000  0 13                     
G24  22630848.648   118926393.6072       2011.458          25.000  
G18  23490265.603   123442168.845        2193.151          39.000  
G23  25064014.975   131712229.670        1185.095          37.000  
C 6  38024702.576   198004586.937         260.428          36.000  
C13  38404104.452   199980212.834         103.053          46.000  
C22  24741071.757   128833246.458        -171.616          35.000  
C16  37952669.169   197629477.251         175.814          40.000  
C 3  37335730.169   194416912.4632       -672.165          33.000  
G15  21685685.793   113959053.118       -1800.181          46.000  
C19  24778405.485   129027654.332       -1728.593          39.000  
G13  23193177.872                       -3536.106          21.000  
G20  24916428.358                       -2290.540          29.000  
C 8  38026225.676   198012502.209         107.989          39.000  
> 2023  7  9  8 47  0.0040000  0 12                     
G24  22630456.344   118924382.5282       2011.196          26.000  
G18  23489848.298   123439975.664        2193.068          39.000  
G23  25063789.306   131711044.483        1185.443          37.000  
C 6  38024652.426   198004326.789         260.634          36.000  
C13  38404084.294   199980109.820         103.317          46.000  
C22  24741104.721   128833417.790        -171.561          35.000  
C16  37952635.412   197629301.386         175.634          40.000  
C 3  37335859.167   194417584.0943       -671.557          33.000  
G15  21686028.414   113960853.408       -1800.189          46.000  
C19  24778737.813   129029382.699       -1728.156          39.000  
G13  23193852.228                       -3535.522          22.000  
C 8  38026204.914   198012393.897         108.433          39.000  
> 2023  7  9  8 47  1.0040000  0 12                     
G24  22630074.992   118922371.6302       2010.709          26.000  
G18  23489431.054   123437782.548        2192.669          40.000  
G23  25063564.024   131709858.983        1185.547          38.000  
C 6  38024602.233   198004066.608         259.765          36.000  
C13  38404064.514   199980006.537         103.161          46.000  
C22  24741137.939   128833588.993        -171.591          35.000  
C16  37952601.642   197629125.422         175.667          40.000  
C 3  37335987.991   194418255.5763       -672.269          33.000  
G15  21686371.040   113962653.858       -1801.024          46.000  
C19  24779069.866   129031110.852       -1728.629          39.000  
G13  23194528.483                       -3540.931          23.000  
C 8  38026184.020   198012285.347         108.638          39.000  
> 2023  7  9  8 47  2.0040000  0 13                     
G24  22629694.755   118920361.2542       2009.974          27.000  
G18  23489013.757   123435589.803        2192.323          41.000  
G23  25063338.375   131708673.531        1185.052          39.000  
C 6  38024552.489   198003806.650         259.550          36.000  
C13  38404044.970   199979903.261         102.957          46.000  
C22  24741171.093   128833760.373        -171.410          35.000  
C16  37952567.881   197628949.757         175.179          40.000  
C 3  37336116.852   194418926.0842       -671.618          33.000  
G15  21686714.028   113964454.715       -1801.265          47.000  
C19  24779402.155   129032839.031       -1728.284          40.000  
G13  23195203.114                       -3540.958          25.000  
G20  24917723.231                       -2295.801          29.000  
C 8  38026163.415   198012176.857         108.254          39.000  
> 2023  7  9  8 47  3.0040000  0 13                     
G24  22629315.730   118918351.6592       2008.868          28.000  
G18  23488596.841   123433397.729        2191.360          41.000  
G23  25063112.473   131707488.358        1185.413          39.000  
C 6  38024502.582   198003547.185         259.129          36.000  
C13  38404025.094   199979800.315         102.738          46.000  
C22  24741204.115   128833932.228        -172.490          35.000  
C16  37952534.134   197628774.565         174.807          40.000  
C 3  37336245.808   194419598.0353       -672.362          33.000  
G15  21687056.985   113966256.311       -1801.966          48.000  
C19  24779734.555   129034567.582       -1728.694          40.000  
G13  23195879.130                       -3540.936          25.000  
G20  24918141.117                       -2291.803          29.000  
C 8  38026142.816   198012068.649         108.023          40.000  
> 2023  7  9  8 47  4.0040000  0 12                     
G24  22628937.808   118916342.5062       2008.694          27.000  
G18  23488179.981   123431205.970        2191.376          41.000  
G23  25062886.739   131706303.214        1184.711          38.000  
C 6  38024452.714   198003287.937         259.145          36.000  
C13  38404005.408   199979697.349         102.795          46.000  
C22  24741237.341   128834104.208        -172.439          36.000  
C16  37952500.274   197628599.604         174.635          40.000  
C 3  37336374.887   194420270.0232       -672.175          33.000  
G15  21687399.944   113968058.308       -1802.356          48.000  
C19  24780066.916   129036296.193       -1728.655          40.000  
G13  23196553.460                       -3531.720          25.000  
C 8  38026121.894   198011960.479         107.718          40.000  
> 2023  7  9  8 47  5.0040000  0 12                     
G24  22628561.050   118914333.6522       2008.708          27.000  
G18  23487762.861   123429014.357        2191.206          41.000  
G23  25062660.824   131705117.790        1185.327          37.000  
C 6  38024403.078   198003028.662         259.242          36.000  
C13  38403985.639   199979594.178         103.320          46.000  
C22  24741270.411   128834276.135        -171.980          36.000  
C16  37952466.601   197628424.613         174.866          40.000  
C 3  37336503.892   194420941.8103       -671.257          33.000  
G15  21687742.988   113969860.473       -1802.136          47.000  
C19  24780399.087   129038024.602       -1728.302          40.000  
G13  23197225.054                       -3542.142          24.000  
C 8  38026101.236   198011852.047         108.695          40.000  
> 2023  7  9  8 47  6.0040000  0 13                     
G24  22628185.114   118912325.0512       2009.550          26.000  
G18  23487345.763   123426822.866        2191.661          41.000  
G23  25062434.801   131703932.217        1186.084          36.000  
C 6  38024352.888   198002769.405         259.589          36.000  
C13  38403966.102   199979490.814         103.604          46.000  
C22  24741303.799   128834448.008        -171.920          36.000  
C16  37952432.869   197628249.649         175.109          40.000  
C 3  37336633.037   194421614.5193       -670.835          33.000  
G15  21688085.832   113971662.876       -1802.406          47.000  
C19  24780731.401   129039752.876       -1728.113          40.000  
G13  23197897.908                       -3541.050          24.000  
G20  24919410.746                       -2294.573          25.000  
C 8  38026080.421   198011743.475         108.981          39.000  
> 2023  7  9  8 47  7.0040000  0 13                     
G24  22627801.260   118910316.5202       2008.531          26.000  
G18  23486928.390   123424631.204        2191.895          40.000  
G23  25062208.731   131702746.071        1186.908          36.000  
C 6  38024302.967   198002509.786         259.885          36.000  
C13  38403946.111   199979386.881         104.309          45.000  
C22  24741336.459   128834619.429        -170.810          35.000  
C16  37952399.161   197628074.336         175.615          40.000  
C 3  37336762.015   194422285.7452       -670.612          33.000  
G15  21688429.122   113973465.139       -1802.142          47.000  
C19  24781063.465   129041480.632       -1727.335          40.000  
G13  23198570.217                       -3540.303          25.000  
G20  24919833.207                       -2294.573          22.000  
C 8  38026059.702   198011634.373         109.452          39.000  
> 2023  7  9  8 47  8.0040000  0 13                     
G24  22627420.163   118908308.2572       2008.121          26.000  
G18  23486511.197   123422439.792        2191.042          40.000  
G23  25061982.688   131701559.864        1186.212          36.000  
C 6  38024253.067   198002250.356         258.994          36.000  
C13  38403925.860   199979282.942         103.493          45.000  
C22  24741369.348   128834791.073        -172.256          35.000  
C16  37952365.678   197627899.250         174.409          40.000  
C 3  37336890.872   194422957.0173       -671.717          33.000  
G15  21688772.288   113975267.776       -1803.175          47.000  
C19  24781395.406   129043208.406       -1728.095          40.000  
G13  23199241.695                       -3540.859          24.000  
G20  24920249.110                       -2294.573          20.000  
C 8  38026038.885   198011525.288         108.547          39.000  
> 2023  7  9  8 47  9.0040000  0 13                     
G24  22627035.596   118906301.2612       2006.555          26.000  
G18  23486094.016   123420249.410        2190.409          40.000  
G23  25061756.907   131700374.285        1185.492          36.000  
C 6  38024203.011   198001991.783         258.681          36.000  
C13  38403905.998   199979179.615         103.237          46.000  
C22  24741402.500   128834963.431        -172.732          35.000  
C16  37952332.209   197627724.967         174.370          40.000  
C 3  37337019.935   194423628.9143       -670.592          33.000  
G15  21689115.693   113977071.475       -1803.876          47.000  
C19  24781727.583   129044936.845       -1728.448          40.000  
G13  23199915.558                       -3541.875          25.000  
G20  24920676.326                       -2294.573          20.000  
C 8  38026017.989   198011416.822         108.597          39.000  
> 2023  7  9  8 47 10.0040000  0 13                     
G24  22626647.394   118904295.0172       2005.508          26.000  
G18  23485677.039   123418059.671        2189.342          40.000  
G23  25061531.272   131699188.987        1185.474          36.000  
C 6  38024153.240   198001733.626         258.469          36.000  
C13  38403886.283   199979076.581         102.978          45.000  
C22  24741435.872   128835136.213        -173.127          35.000  
C16  37952298.561   197627551.197         173.366          40.000  
C 3  37337148.937   194424300.2523       -672.725          33.000  
G15  21689459.143   113978875.855       -1804.644          47.000  
C19  24782059.846   129046665.613       -1728.899          40.000  
G13  23200591.179                       -3542.597          25.000  
G20  24921130.928                       -2294.573          23.000  
C 8  38025997.339   198011308.631         108.250          39.000  
> 2023  7  9  8 47 11.0040000  0 13                     
G24  22626267.260   118902289.0932       2006.517          27.000  
G18  23485259.869   123415870.087        2190.321          40.000  
G23  25061305.496   131698003.502        1186.572          36.000  
C 6  38024103.742   198001475.600         258.050          36.000  
C13  38403866.762   199978973.411         103.643          45.000  
C22  24741469.335   128835308.988        -172.594          35.000  
C16  37952264.949   197627377.492         174.109          40.000  
C 3  37337278.062   194424972.4602       -671.463          33.000  
G15  21689802.316   113980680.517       -1804.355          47.000  
C19  24782392.063   129048394.266       -1728.158          40.000  
G13  23201266.694                       -3542.509          26.000  
G20  24921586.171                       -2293.396          26.000  
C 8  38025976.421   198011200.330         108.839          39.000  
> 2023  7  9  8 47 12.0040000  0 13                     
G24  22625888.655   118900283.4682       2004.975          27.000  
G18  23484842.390   123413680.661        2189.261          40.000  
G23  25061079.607   131696817.832        1185.266          37.000  
C 6  38024054.284   198001217.555         257.636          36.000  
C13  38403846.957   199978869.993         103.134          46.000  
C22  24741502.323   128835481.705        -173.339          35.000  
C16  37952231.263   197627203.767         173.132          40.000  
C 3  37337407.212   194425645.5053       -672.366          33.000  
G15  21690145.564   113982485.360       -1805.247          47.000  
C19  24782724.202   129050122.741       -1728.628          41.000  
G13  23201942.984   121927021.8043      -3542.328          27.000  
G20  24922038.759   130966112.4432      -2293.689          30.000  
C 8  38025955.687   198011091.820         108.125          39.000  
> 2023  7  9  8 47 13.0040000  0 14                     
G24  22625512.743   118898278.074        2005.346          27.000  
G18  23484425.357   123411491.391        2189.580          39.000  
G23  25060853.826   131695631.970        1185.608          36.000  
C 6  38024004.573   198000959.531         257.838          36.000  
C13  38403827.098   199978766.420         103.409          45.000  
C22  24741535.690   128835654.404        -172.699          35.000  
C16  37952197.761   197627030.106         173.362          40.000  
C 3  37337536.127   194426316.4783       -672.059          33.000  
G15  21690488.827   113984290.472       -1805.356          46.000  
C19  24783056.177   129051851.132       -1728.456          41.000  
G13  23202617.816   121930564.4262      -3543.140          27.000  
G20  24922485.011   130968405.7712      -2293.134          31.000  
C 8  38025934.883   198010983.161         109.004          39.000  
G29  23711079.153                       -2771.850          28.000  
> 2023  7  9  8 47 14.0040000  0 14                     
G24  22625140.045   118896273.166        2004.375          28.000  
G18  23484008.342   123409302.471        2188.578          39.000  
G23  25060627.949   131694446.113        1184.875          36.000  
C 6  38023955.096   198000701.676         257.949          36.000  
C13  38403807.229   199978662.859         103.223          46.000  
C22  24741568.712   128835827.278        -173.908          35.000  
C16  37952164.308   197626856.633         173.108          40.000  
C 3  37337665.240   194426989.4812       -672.071          33.000  
G15  21690832.368   113986095.978       -1806.124          47.000  
C19  24783388.056   129053579.529       -1728.766          41.000  
G13  23203293.701   121934107.2622      -3543.522          27.000  
G20  24922925.718   130970699.3462      -2293.573          31.000  
C 8  38025914.342   198010874.528         108.425          39.000  
G29  23711593.646                       -2773.870          28.000  
> 2023  7  9  8 47 15.0040000  0 14                     
G24  22624768.579   118894269.156        2003.589          28.000  
G18  23483591.474   123407114.220        2188.313          39.000  
G23  25060402.049   131693260.521        1185.583          35.000  
C 6  38023905.580   198000444.406         257.107          36.000  
C13  38403787.100   199978559.606         103.424          45.000  
C22  24741602.123   128836000.546        -172.918          35.000  
C16  37952131.262   197626683.707         172.987          40.000  
C 3  37337794.313   194427661.9142       -672.354          34.000  
G15  21691175.770   113987902.210       -1806.388          46.000  
C19  24783720.089   129055308.295       -1728.703          41.000  
G13  23203968.130   121937650.6232      -3542.920          29.000  
G20  24923367.507   130972993.5042      -2293.567          31.000  
C 8  38025893.559   198010766.232         108.492          39.000  
G29  23712117.818   124608038.4773      -2773.606          28.000  
> 2023  7  9  8 47 16.0040000  0 14                     
G24  22624395.440   118892265.409        2003.749          28.000  
G18  23483174.720   123404926.252        2187.514          39.000  
G23  25060176.110   131692074.865        1186.029          34.000  
C 6  38023856.061   198000187.212         256.506          35.000  
C13  38403767.184   199978456.289         102.996          45.000  
C22  24741635.285   128836173.964        -173.979          35.000  
C16  37952098.126   197626510.908         172.365          40.000  
C 3  37337923.621   194428334.3062       -672.747          33.000  
G15  21691519.125   113989708.788       -1806.881          46.000  
C19  24784052.137   129057037.003       -1728.928          41.000  
G13  23204636.514   121941194.2172      -3543.824          30.000  
G20  24923805.545   130975287.8222      -2294.104          31.000  
C 8  38025872.902   198010657.871         107.874          39.000  
G29  23712648.148   124610812.6842      -2774.209          29.000  
> 2023  7  9  8 47 17.0040000  0 14                     
G24  22624022.657   118890262.067        2003.384          27.000  
G18  23482757.932   123402738.498        2187.172          39.000  
G23  25059950.292   131690889.149        1185.498          32.000  
C 6  38023806.505   197999930.124         257.199          35.000  
C13  38403747.317   199978352.837         103.316          45.000  
C22  24741668.858   128836347.362        -173.916          36.000  
C16  37952065.196   197626338.194         172.524          40.000  
C 3  37338052.696   194429006.6343       -672.034          33.000  
G15  21691862.593   113991515.642       -1807.083          46.000  
C19  24784383.931   129058765.647       -1728.570          41.000  
G13  23205314.882   121944737.9242      -3543.575          30.000  
G20  24924242.854   130977582.2552      -2294.354          30.000  
C 8  38025851.871   198010549.385         108.269          39.000  
G29  23713178.766   124613587.2282      -2775.180          29.000  
> 2023  7  9  8 47 18.0040000  0 13                     
G24  22623648.527   118888258.917        2002.866          26.000  
G18  23482341.381   123400550.776        2187.676          39.000  
G23  25059724.056   131689703.089        1185.797          32.000  
C 6  38023756.912   197999672.973         257.030          36.000  
C13  38403727.350   199978249.116         103.750          45.000  
C22  24741701.845   128836520.622        -173.201          35.000  
C16  37952032.024   197626165.431         172.794          40.000  
C 3  37338181.936   194429678.7882       -672.792          33.000  
G15  21692206.245   113993322.637       -1807.162          46.000  
C19  24784715.939   129060494.071       -1728.499          41.000  
G13  23205993.998   121948281.6512      -3544.903          30.000  
C 8  38025830.786   198010440.633         108.955          38.000  
G29  23713706.958   124616361.8802      -2775.146          28.000  
> 2023  7  9  8 47 19.0040000  0 14                     
G24  22623276.599                        2001.928          23.000  
G18  23481924.547   123398363.524        2186.935          38.000  
G23  25059498.149   131688517.093        1186.060          33.000  
C 6  38023707.564   197999416.105         256.801          36.000  
C13  38403707.458   199978145.494         103.601          45.000  
C22  24741735.141   128836694.120        -173.588          35.000  
C16  37951999.075   197625992.945         172.554          40.000  
C 3  37338310.963   194430351.0052       -671.571          33.000  
G15  21692550.054   113995130.141       -1807.751          46.000  
C19  24785047.761   129062222.596       -1728.854          41.000  
G13  23206670.585   121951825.677       -3544.758          31.000  
G20  24925109.622                       -2297.607          30.000  
C 8  38025810.063   198010332.023         108.626          38.000  
G29  23714238.595   124619136.9842      -2775.187          28.000  
> 2023  7  9  8 47 20.0040000  0 14                     
G24  22622909.515                        1995.110          21.000  
G18  23481507.558   123396176.993        2186.069          38.000  
G23  25059272.367   131687331.500        1185.077          33.000  
C 6  38023658.519   197999159.819         255.828          36.000  
C13  38403687.489   199978042.219         103.335          45.000  
C22  24741768.427   128836868.177        -174.041          35.000  
C16  37951966.253   197625821.066         171.654          40.000  
C 3  37338440.136   194431023.7842       -672.626          33.000  
G15  21692894.160   113996938.415       -1808.405          46.000  
C19  24785380.008   129063951.540       -1728.919          41.000  
G13  23207352.467   121955370.308       -3544.258          31.000  
G20  24925542.294   130984608.7043      -2295.337          31.000  
C 8  38025789.631   198010223.749         108.572          38.000  
G29  23714767.712   124621912.8952      -2775.700          27.000  
> 2023  7  9  8 47 21.0040000  0 14                     
G24  22622545.545                        1999.143          21.000  
G18  23481091.243   123393991.030        2185.574          38.000  
G23  25059046.621   131686146.080        1184.924          33.000  
C 6  38023609.234   197998903.969         255.136          36.000  
C13  38403667.820   199977939.200         102.813          46.000  
C22  24741801.741   128837042.565        -174.530          35.000  
C16  37951933.506   197625649.625         170.960          40.000  
C 3  37338569.337   194431696.7553       -673.097          33.000  
G15  21693238.012   113998747.352       -1809.433          46.000  
C19  24785712.196   129065680.774       -1729.563          41.000  
G13  23208023.567   121958915.459       -3545.201          30.000  
G20  24925961.070   130986904.5592      -2297.528          31.000  
C 8  38025768.921   198010115.761         107.393          38.000  
G29  23715295.397   124624689.5442      -2777.217          26.000  
> 2023  7  9  8 47 22.0040000  0 14                     
G24  22622176.341   118880338.3353       2000.620          26.000  
G18  23480674.538   123391805.385        2185.133          38.000  
G23  25058820.795   131684960.664        1185.571          33.000  
C 6  38023560.402   197998648.285         255.397          36.000  
C13  38403648.025   199977836.122         103.039          46.000  
C22  24741835.303   128837217.072        -174.099          35.000  
C16  37951900.645   197625478.362         171.147          40.000  
C 3  37338698.412   194432368.8133       -672.687          33.000  
G15  21693582.484   114000556.649       -1809.300          46.000  
C19  24786044.518   129067410.009       -1728.971          41.000  
G13  23208690.614   121962460.890       -3546.143          32.000  
G20  24926402.553   130989200.4222      -2295.483          32.000  
C 8  38025748.324   198010007.714         107.958          38.000  
G29  23715818.707                       -2777.873          25.000  
> 2023  7  9  8 47 23.0040000  0 14                     
G24  22621814.655   118878338.1482       2000.052          30.000  
G18  23480258.145   123389619.868        2185.451          38.000  
G23  25058594.649   131683775.033        1185.291          33.000  
C 6  38023511.371   197998392.623         255.837          36.000  
C13  38403628.409   199977732.889         103.335          45.000  
C22  24741868.715   128837391.628        -174.772          36.000  
C16  37951867.757   197625307.131         171.350          40.000  
C 3  37338827.707   194433042.7472       -673.042          33.000  
G15  21693926.649   114002366.200       -1809.619          46.000  
C19  24786376.559   129069139.125       -1728.947          41.000  
G13  23209365.692   121966006.331       -3545.163          32.000  
G20  24926843.131   130991496.4572      -2295.697          31.000  
C 8  38025727.920   198009899.543         108.455          38.000  
G29  23716343.617                       -2774.437          22.000  
> 2023  7  9  8 47 24.0040000  0 14                     
G24  22621443.707   118876338.3802       2001.271          31.000  
G18  23479841.557   123387434.838        2183.847          32.000  
G23  25058367.945   131682589.456        1185.974          31.000  
C 6  38023462.702   197998137.191         255.148          35.000  
C13  38403608.481   199977629.677         103.002          44.000  
C22  24741902.205   128837566.293        -175.147          35.000  
C16  37951835.251   197625136.156         170.828          40.000  
C 3  37338957.075   194433715.8222       -674.123          33.000  
G15  21694270.683   114004176.189       -1810.697          43.000  
C19  24786708.591   129070868.323       -1729.733          40.000  
G13  23210034.973   121969552.159       -3548.158          31.000  
G20  24927280.666   130993792.7392      -2296.503          25.000  
C 8  38025707.179   198009791.419         107.908          38.000  
G29  23716865.183                       -2776.555          21.000  
> 2023  7  9  8 47 25.0040000  0 13                     
G18  23479425.002   123385249.935        2184.750          35.000  
G23  25058139.170   131681403.822        1185.596          29.000  
C 6  38023413.485   197997881.879         255.035          33.000  
C13  38403588.613   199977526.356         103.343          43.000  
C22  24741935.788   128837740.974        -174.790          33.000  
C16  37951802.513   197624965.259         170.859          38.000  
C 3  37339086.334   194434388.7833       -673.190          31.000  
G15  21694615.389   114005986.462       -1810.328          44.000  
C19  24787040.536   129072597.407       -1729.283          38.000  
G13  23210710.608   121973097.947       -3545.996          31.000  
G20  24927716.131   130996089.1582      -2296.582          25.000  
C 8  38025686.451   198009683.173         108.123          35.000  
G29  23717388.983                       -2779.224          20.000  
> 2023  7  9  8 47 26.0040000  0 12                     
G24  22620682.219                        2003.805          29.000  
G18  23479008.734   123383065.434        2184.127          32.000  
G23  25057909.389   131680218.119        1185.626          29.000  
C 6  38023364.588   197997626.784         254.801          33.000  
C13  38403568.730   199977423.068         103.306          43.000  
C22  24741969.686   128837915.852        -174.792          34.000  
C16  37951770.101   197624794.631         170.472          38.000  
C 3  37339215.377   194435061.3512       -673.249          31.000  
G15  21694959.584   114007797.186       -1811.042          45.000  
C19  24787372.659   129074326.578       -1729.279          39.000  
G13  23211386.922   121976644.086       -3545.780          31.000  
C 8  38025665.883   198009575.011         108.179          35.000  
> 2023  7  9  8 47 27.0040000  0 12                     
G24  22620343.553                        2001.074          29.000  
G18  23478592.229   123380881.111        2184.956          38.000  
G23  25057680.627                        1183.936          32.000  
C 6  38023315.725   197997371.740         255.362          39.000  
C13  38403548.965   199977319.620         103.813          49.000  
C22  24742003.595   128838090.692        -174.590          40.000  
C16  37951737.476   197624624.031         170.800          44.000  
C 3  37339344.628   194435734.3132       -672.320          37.000  
G15  21695304.519   114009608.157       -1810.814          48.000  
C19  24787704.494   129076055.617       -1728.777          45.000  
G13  23212063.523   121980190.339       -3545.649          35.000  
C 8  38025644.943   198009466.656         108.698          41.000  
> 2023  7  9  8 47 28.0040000  0 12                     
G24  22620009.797                        2000.068          28.000  
G18  23478175.446   123378696.697        2184.852          37.000  
G23  25057481.831   131677955.4303       1186.401          31.000  
C 6  38023266.618   197997116.434         255.842          38.000  
C13  38403528.857   199977215.718         104.109          48.000  
C22  24742037.615   128838265.269        -174.062          37.000  
C16  37951705.107   197624453.194         171.087          43.000  
C 3  37339473.760   194436406.9182       -672.420          36.000  
G15  21695649.159   114011419.095       -1811.054          47.000  
C19  24788036.768   129077784.261       -1728.399          44.000  
G13  23212737.220   121983736.396       -3545.945          35.000  
C 8  38025623.996   198009357.929         108.914          41.000  
> 2023  7  9  8 47 29.0040000  0 12                     
G18  23477758.342   123376512.670        2185.231          35.000  
G23  25057249.557   131676769.1232       1186.487          32.000  
C 6  38023217.568   197996861.343         255.572          38.000  
C13  38403509.003   199977111.815         104.453          48.000  
C22  24742071.858   128838439.942        -174.185          38.000  
C16  37951672.492   197624282.577         170.895          42.000  
C 3  37339603.259   194437079.6032       -673.192          35.000  
G15  21695993.813   114013230.437       -1811.181          48.000  
C19  24788368.697   129079512.950       -1728.491          43.000  
G13  23213409.838   121987282.708       -3546.090          35.000  
G20  24929428.237                       -2294.308          22.000  
C 8  38025602.908   198009249.205         108.900          40.000  
> 2023  7  9  8 47 30.0040000  0 12                     
G18  23477341.443   123374328.729        2183.330          37.000  
G23  25057011.609   131675582.3762       1187.512          32.000  
C 6  38023168.804   197996606.208         254.729          38.000  
C13  38403488.731   199977007.671         103.603          48.000  
C22  24742106.379   128838614.557        -175.358          39.000  
C16  37951639.705   197624111.930         169.851          43.000  
C 3  37339732.176   194437752.0522       -673.235          35.000  
G15  21696338.753   114015041.932       -1812.298          48.000  
C19  24788700.603   129081241.405       -1729.002          43.000  
G13  23214084.797   121990829.013       -3546.789          34.000  
G20  24929861.942   131007308.4793      -2297.443          26.000  
C 8  38025581.825   198009140.202         108.539          40.000  
> 2023  7  9  8 47 31.0040000  0 13                     
G24  22618783.246                        1993.994          29.000  
G18  23476925.071   123372146.038        2182.204          37.000  
G23  25056779.934   131674396.8052       1185.535          32.000  
C 6  38023120.097   197996352.229         253.422          38.000  
C13  38403469.244   199976904.473         102.767          48.000  
C22  24742141.132   128838790.256        -176.429          39.000  
C16  37951607.200   197623942.434         168.815          43.000  
C 3  37339861.608   194438425.5442       -674.539          35.000  
G15  21696684.295   114016854.808       -1813.501          48.000  
C19  24789032.831   129082970.887       -1729.938          44.000  
G13  23214760.229   121994376.516       -3548.264          35.000  
G20  24930294.851   131009606.3832      -2298.730          28.000  
C 8  38025560.901   198009032.187         107.469          40.000  
> 2023  7  9  8 47 32.0040000  0 12                     
G18  23476509.348   123369964.379        2181.378          37.000  
G23  25056557.573   131673211.7152       1184.833          31.000  
C 6  38023071.558   197996099.092         253.179          38.000  
C13  38403449.454   199976801.894         102.365          48.000  
C22  24742175.571   128838966.712        -176.316          39.000  
C16  37951575.210   197623773.772         168.541          43.000  
C 3  37339990.790   194439099.7112       -674.290          35.000  
G15  21697029.676   114018668.729       -1814.369          48.000  
C19  24789365.022   129084701.043       -1730.292          44.000  
G13  23215435.204   121997924.936       -3548.265          35.000  
G20  24930729.326   131011905.1452      -2299.023          28.000  
C 8  38025540.171   198008924.810         107.426          40.000  
> 2023  7  9  8 47 33.0040000  0 13                     
G24  22618009.136                        1997.754          31.000  
G18  23476093.986   123367783.271        2181.100          38.000  
G23  25056331.578   131672026.9932       1184.546          29.000  
C 6  38023023.081   197995846.396         252.477          38.000  
C13  38403429.890   199976699.575         101.902          48.000  
C22  24742210.258   128839143.598        -177.235          39.000  
C16  37951543.267   197623605.583         167.714          43.000  
C 3  37340120.351   194439773.7061       -674.380          35.000  
G15  21697374.860   114020483.303       -1815.208          48.000  
C19  24789696.974   129086431.473       -1730.907          44.000  
G13  23216110.646   122001473.878       -3549.634          33.000  
G20  24931159.845   131014204.3942      -2299.646          27.000  
C 8  38025519.605   198008817.717         106.627          40.000  
> 2023  7  9  8 47 34.0040000  0 11                     
G18  23475678.664   123365602.774        2180.173          37.000  
C 6  38022974.866   197995594.140         252.317          38.000  
C13  38403410.133   199976597.447         102.383          48.000  
C22  24742244.793   128839320.827        -177.203          39.000  
C16  37951511.249   197623437.805         167.923          43.000  
C 3  37340250.004   194440448.9563       -674.312          35.000  
G15  21697720.248   114022298.500       -1815.190          48.000  
C19  24790029.403   129088162.149       -1730.429          44.000  
G13  23216786.028   122005023.224       -3549.131          33.000  
G20  24931585.887                       -2299.412          25.000  
C 8  38025499.179   198008710.839         107.217          40.000  
> 2023  7  9  8 47 35.0040000  0 12                     
G18  23475263.720   123363422.515        2180.357          38.000  
G24  22617232.602                        1993.848          29.000  
C 6  38022926.589   197995342.024         251.955          39.000  
C13  38403390.742   199976495.281         102.410          48.000  
C22  24742279.071   128839498.144        -177.067          39.000  
C16  37951478.894   197623270.209         167.648          43.000  
C 3  37340379.758   194441123.7642       -674.364          35.000  
G15  21698065.671   114024114.063       -1815.612          48.000  
C19  24790361.770   129089892.824       -1730.443          44.000  
G13  23217461.488   122008572.833       -3549.449          33.000  
G20  24932019.341                       -2295.919          23.000  
C 8  38025478.636   198008603.949         107.063          39.000  
> 2023  7  9  8 47 36.0040000  0 12                     
G18  23474848.641   123361242.826        2179.244          38.000  
G24  22616824.707                        1991.612          28.000  
C 6  38022878.353   197995090.279         251.608          39.000  
C13  38403371.024   199976393.306         101.951          48.000  
C22  24742313.637   128839675.800        -177.704          40.000  
C16  37951446.906   197623102.993         167.094          43.000  
C 3  37340509.393   194441798.8182       -675.375          35.000  
G15  21698411.884   114025930.207       -1816.333          48.000  
C19  24790694.394   129091623.718       -1730.828          44.000  
G13  23218136.892   122012122.846       -3550.667          33.000  
G20  24932466.268                       -2302.054          25.000  
C 8  38025458.222   198008497.215         106.609          39.000  
> 2023  7  9  8 47 37.0040000  0 12                     
G18  23474433.616   123359063.453        2179.534          37.000  
G24  22616382.936                        1991.146          27.000  
C 6  38022830.221   197994838.724         251.641          39.000  
C13  38403351.561   199976291.302         102.078          48.000  
C22  24742348.178   128839853.575        -177.753          39.000  
C16  37951414.992   197622935.966         166.960          43.000  
C 3  37340638.967   194442473.8652       -674.589          35.000  
G15  21698757.788   114027746.748       -1816.460          48.000  
C19  24791026.625   129093354.634       -1730.848          44.000  
G13  23218812.444   122015673.121       -3550.552          32.000  
G20  24932921.090                       -2300.690          27.000  
C 8  38025437.574   198008390.496         106.892          39.000  
> 2023  7  9  8 47 38.0040000  0 12                     
G18  23474018.936   123356884.537        2178.734          37.000  
G24  22615980.018   118847776.1623       1991.331          28.000  
C 6  38022781.976   197994587.492         251.432          39.000  
C13  38403331.881   199976189.398         101.949          48.000  
C22  24742382.926   128840031.603        -177.929          40.000  
C16  37951383.027   197622769.265         166.652          43.000  
C 3  37340768.657   194443149.1512       -675.569          35.000  
G15  21699103.947   114029563.823       -1817.269          48.000  
C19  24791358.829   129095085.699       -1730.896          44.000  
G13  23219488.116   122019223.761       -3551.051          32.000  
G20  24933394.697   131025685.3033      -2300.970          31.000  
C 8  38025417.133   198008283.897         106.880          39.000  
> 2023  7  9  8 47 39.0040000  0 12                     
G18  23473604.571   123354705.775        2178.155          35.000  
G24  22615609.107   118845784.9952       1990.398          29.000  
C 6  38022733.744   197994336.274         250.701          35.000  
C13  38403312.369   199976087.289         101.800          44.000  
C22  24742417.272   128840209.568        -177.984          35.000  
C16  37951351.094   197622602.565         166.369          39.000  
C 3  37340898.529   194443824.2262       -675.115          31.000  
G15  21699449.996   114031381.077       -1817.920          47.000  
C19  24791691.181   129096816.601       -1731.205          39.000  
G13  23220166.883   122022774.413       -3551.142          30.000  
G20  24933848.557   131027986.1692      -2300.848          31.000  
C 8  38025396.425   198008177.111         106.858          35.000  
> 2023  7  9  8 47 40.0040000  0 12                     
G18  23473189.905   123352527.659        2177.723          37.000  
G24  22615250.495   118843794.5892       1989.947          33.000  
C 6  38022685.611   197994085.556         250.601          37.000  
C13  38403292.931   199975985.520         101.571          46.000  
C22  24742452.021   128840388.022        -178.814          38.000  
C16  37951319.507   197622436.409         165.692          41.000  
C 3  37341028.182                        -673.340          33.000  
G15  21699796.109   114033199.090       -1818.408          48.000  
C19  24792023.378   129098547.864       -1731.315          41.000  
G13  23220846.709   122026325.677       -3552.015          29.000  
G20  24934292.510   131030287.6402      -2301.013          33.000  
C 8  38025375.919   198008070.693         106.144          37.000  
> 2023  7  9  8 47 41.0040000  0 12                     
G18  23472775.633   123350349.939        2177.023          38.000  
G24  22614878.980   118841804.6622       1990.164          33.000  
C 6  38022637.643   197993835.085         250.593          38.000  
C13  38403273.374   199975883.758         101.732          47.000  
C22  24742486.802   128840566.627        -178.706          40.000  
C16  37951287.851   197622270.477         166.071          43.000  
C 3  37341157.974   194445176.3313       -676.110          34.000  
G15  21700142.336   114035017.522       -1818.451          48.000  
C19  24792355.796   129100279.187       -1731.120          42.000  
G13  23221527.774   122029877.206       -3551.655          29.000  
G20  24934737.405   131032589.4162      -2301.422          33.000  
C 8  38025355.207   198007964.295         106.590          38.000  
> 2023  7  9  8 47 42.0040000  0 12                     
G18  23472361.595   123348172.497        2176.186          37.000  
G24  22614508.767   118839815.2302       1988.607          33.000  
C 6  38022589.720   197993584.721         250.053          38.000  
C13  38403254.174   199975781.943         101.328          47.000  
C22  24742521.717   128840745.324        -179.492          40.000  
C16  37951255.838   197622104.706         165.438          43.000  
C 3  37341287.594   194445851.9223       -675.933          34.000  
G15  21700488.529   114036836.317       -1819.597          47.000  
C19  24792688.111   129102010.507       -1731.832          42.000  
G13  23222208.398   122033428.944       -3552.456          29.000  
G20  24935162.390                       -2305.664          31.000  
C 8  38025334.598   198007857.866         105.757          38.000  
> 2023  7  9  8 47 43.0040000  0 12                     
G18  23471947.493   123345995.872        2176.675          38.000  
G24  22614132.823   118837826.7542       1988.240          34.000  
C 6  38022542.006   197993335.137         249.318          38.000  
C13  38403234.409   199975680.626         101.220          47.000  
C22  24742556.804   128840924.679        -179.766          40.000  
C16  37951224.214   197621939.651         164.841          42.000  
C 3  37341417.504   194446528.1203       -677.200          33.000  
G15  21700834.774   114038656.029       -1820.146          47.000  
C19  24793020.599   129103742.363       -1732.064          42.000  
G13  23222890.484   122036981.413       -3552.704          28.000  
G20  24935603.754                       -2303.369          30.000  
C 8  38025314.623   198007751.983         105.175          37.000  
> 2023  7  9  8 47 44.0040000  0 11                     
G18  23471534.232   123343819.742        2175.889          38.000  
G24  22613757.029   118835838.9072       1987.417          34.000  
C 6  38022494.375   197993085.818         249.033          38.000  
C13  38403215.197   199975579.410         101.046          47.000  
C22  24742592.015   128841104.273        -179.995          40.000  
C16  37951192.493   197621774.911         164.455          42.000  
C 3  37341547.382   194447204.4352       -676.539          33.000  
G15  21701181.346   114040476.252       -1820.545          47.000  
C19  24793352.953   129105474.359       -1732.217          42.000  
G13  23223583.226   122040534.307       -3553.262          27.000  
C 8  38025294.123   198007646.170         105.962          37.000  
> 2023  7  9  8 47 45.0040000  0 12                     
G 5  23755181.468                       -1766.850          27.000  
G18  23471120.981   123341643.893        2175.928          38.000  
G24  22613373.723   118833851.4572       1988.254          34.000  
C 6  38022446.893   197992836.633         249.435          38.000  
C13  38403195.588   199975478.123         101.694          47.000  
C22  24742627.177   128841283.961        -179.510          40.000  
C16  37951161.105   197621610.322         164.761          42.000  
C 3  37341677.149   194447880.7463       -675.712          34.000  
G15  21701528.041   114042296.831       -1820.446          47.000  
C19  24793685.438   129107206.346       -1731.750          42.000  
G13  23224264.352                       -3551.179          25.000  
C 8  38025273.710   198007540.299         106.360          37.000  
> 2023  7  9  8 47 46.0040000  0 13                     
G 5  23755519.562                       -1765.485          26.000  
G18  23470708.106   123339468.074        2175.699          39.000  
G24  22612995.460   118831864.1982       1987.623          33.000  
C 6  38022399.240   197992587.364         248.726          38.000  
C13  38403176.138   199975376.551         101.402          47.000  
C22  24742662.616   128841463.481        -179.966          40.000  
C16  37951129.570   197621445.629         164.439          42.000  
C 3  37341807.112   194448556.8793       -676.961          34.000  
G15  21701874.727   114044117.511       -1821.200          47.000  
C19  24794017.766   129108938.055       -1731.879          42.000  
G13  23224943.893                       -3553.861          25.000  
G20  24936959.446                       -2303.508          24.000  
C 8  38025253.333   198007434.139         105.961          37.000  
> 2023  7  9  8 47 47.0040000  0 13                     
G 5  23755866.035                       -1765.057          26.000  
G18  23470295.404   123337292.724        2175.735          40.000  
G24  22612617.340   118829877.5942       1986.271          33.000  
C 6  38022351.643   197992338.408         248.748          38.000  
C13  38403156.554   199975275.090         101.486          47.000  
C22  24742697.659   128841643.283        -180.031          40.000  
C16  37951098.234   197621281.288         164.395          42.000  
C 3  37341937.013   194449233.1552       -676.863          34.000  
G15  21702221.465   114045938.722       -1821.510          47.000  
C19  24794350.140   129110669.939       -1731.916          42.000  
G13  23225615.867                       -3549.739          23.000  
G20  24937385.314                       -2303.508          23.000  
C 8  38025232.735   198007328.196         104.907          36.000  
> 2023  7  9  8 47 48.0040000  0 13                     
G 5  23756221.457                       -1767.304          25.000  
G18  23469882.869   123335117.653        2175.024          41.000  
G24  22612238.754   118827891.3502       1985.803          33.000  
C 6  38022304.086   197992089.597         248.638          37.000  
C13  38403137.035   199975173.536         101.667          46.000  
C22  24742733.022   128841823.112        -179.767          40.000  
C16  37951066.927   197621117.040         164.397          41.000  
C 3  37342066.690   194449908.3703       -675.849          33.000  
G15  21702568.073   114047760.230       -1821.503          47.000  
C19  24794682.497   129112401.752       -1731.615          41.000  
G13  23226291.552                       -3553.182          20.000  
G20  24937801.612                       -2303.508          23.000  
C 8  38025212.129   198007222.124         105.561          36.000  
> 2023  7  9  8 47 49.0040000  0 13                     
G 5  23756574.683                       -1767.430          25.000  
G18  23469470.588   123332942.666        2174.322          41.000  
G24  22611860.349   118825905.2952       1985.278          33.000  
C 6  38022256.302   197991840.688         248.666          37.000  
C13  38403117.312   199975071.721         101.546          46.000  
C22  24742767.815   128842002.826        -180.143          40.000  
C16  37951035.692   197620952.771         163.739          41.000  
C 3  37342196.568   194450585.4443       -676.400          33.000  
G15  21702914.925   114049581.888       -1822.140          47.000  
C19  24795014.850   129114133.346       -1731.992          41.000  
G13  23226962.667                       -3553.182          15.000  
G20  24938207.710                       -2303.508          23.000  
C 8  38025191.473   198007115.767         105.685          35.000  
> 2023  7  9  8 47 50.0040000  0 11                     
G18  23469058.141   123330767.802        2175.374          41.000  
G24  22611481.872   118823919.5692       1986.363          31.000  
C 6  38022208.613   197991591.828         248.883          37.000  
C13  38403097.891   199974969.726         102.446          46.000  
C22  24742802.770   128842182.518        -179.426          40.000  
C16  37951004.093   197620788.511         164.336          41.000  
C 3  37342326.540   194451261.3512       -675.398          33.000  
G15  21703261.630   114051403.768       -1821.785          46.000  
C19  24795347.173   129115864.805       -1731.222          41.000  
G13  23227626.902                       -3553.182          14.000  
C 8  38025170.770   198007009.243         107.007          35.000  
> 2023  7  9  8 47 51.0040000  0 11                     
G18  23468645.683   123328592.659        2174.850          42.000  
G24  22611099.866   118821933.6482       1986.216          31.000  
C 6  38022160.764   197991342.497         248.961          37.000  
C13  38403078.155   199974867.081         102.467          46.000  
C22  24742837.600   128842361.704        -179.211          40.000  
C16  37950972.325   197620623.798         164.604          41.000  
C 3  37342456.306   194451936.6902       -675.309          33.000  
G15  21703608.450   114053225.410       -1821.865          46.000  
C19  24795679.482   129117595.650       -1730.719          41.000  
G13  23228292.426                       -3554.255          16.000  
C 8  38025149.799   198006902.148         106.884          35.000  
> 2023  7  9  8 47 52.0040000  0 11                     
G18  23468233.081   123326418.140        2174.437          43.000  
G24  22610699.716   118819948.6472       1984.161          30.000  
C 6  38022112.877   197991093.660         248.513          37.000  
C13  38403058.622   199974764.721         102.265          46.000  
C22  24742872.413   128842541.317        -180.002          40.000  
C16  37950940.969   197620459.612         163.690          41.000  
C 3  37342586.142   194452613.4053       -676.210          33.000  
G15  21703954.964   114055047.747       -1822.965          46.000  
C19  24796011.811   129119326.842       -1731.434          41.000  
G13  23228955.060                       -3554.546          18.000  
C 8  38025128.953   198006795.299         107.158          35.000  
> 2023  7  9  8 47 53.0040000  0 12                     
G18  23467820.432   123324244.387        2173.479          43.000  
G24  22610319.390   118817964.3952       1984.295          29.000  
C 6  38022065.452   197990845.421         248.018          37.000  
C13  38403039.259   199974662.752         101.662          46.000  
C22  24742907.554   128842721.447        -180.292          40.000  
C16  37950909.622   197620296.012         163.140          41.000  
C 3  37342716.030   194453290.5493       -676.150          33.000  
G15  21704301.954   114056870.861       -1823.587          46.000  
C19  24796343.846   129121058.429       -1731.645          41.000  
G13  23229622.822                       -3557.949          20.000  
G20  24939928.172                       -2303.743          26.000  
C 8  38025107.988   198006688.890         106.796          35.000  
> 2023  7  9  8 47 54.0040000  0 12                     
G18  23467407.906   123322070.998        2173.479          43.000  
G24  22609941.484   118815980.7672       1983.345          29.000  
C 6  38022017.940   197990597.420         248.277          37.000  
C13  38403019.575   199974560.866         102.077          46.000  
C22  24742942.657   128842901.792        -180.206          41.000  
C16  37950878.470   197620132.666         163.532          41.000  
C 3  37342845.693   194453966.8082       -676.125          33.000  
G15  21704648.591   114058694.465       -1823.633          46.000  
C19  24796676.356   129122790.125       -1731.370          41.000  
G13  23230295.571                       -3552.006          22.000  
G20  24940376.075   131062560.8633      -2304.456          27.000  
C 8  38025087.414   198006582.559         106.517          35.000  
> 2023  7  9  8 47 55.0040000  0 12                     
G18  23466995.323   123319898.035        2172.889          43.000  
G24  22609574.231   118813997.625        1983.138          29.000  
C 6  38021970.718   197990349.695         247.866          37.000  
C13  38402999.948   199974458.994         101.993          46.000  
C22  24742977.616   128843082.315        -180.573          41.000  
C16  37950847.128   197619969.594         163.183          41.000  
C 3  37342975.288   194454640.2123       -676.497          33.000  
G15  21704995.501   114060518.526       -1824.343          46.000  
C19  24797008.527   129124521.913       -1731.947          41.000  
G13  23230966.470                       -3554.405          25.000  
G20  24940837.321   131064865.7652      -2305.127          30.000  
C 8  38025066.568   198006476.256         106.208          35.000  
> 2023  7  9  8 47 56.0040000  0 12                     
G18  23466583.032   123317725.465        2172.484          44.000  
G24  22609203.804   118812015.013        1982.992          29.000  
C 6  38021923.092   197990102.225         247.559          37.000  
C13  38402980.322   199974357.175         101.958          46.000  
C22  24743012.439   128843263.058        -180.879          41.000  
C16  37950815.512   197619806.789         162.721          41.000  
C 3  37343105.075   194455315.7152       -677.204          33.000  
G15  21705342.526   114062343.039       -1824.579          46.000  
C19  24797341.044   129126253.781       -1731.788          40.000  
G13  23231643.658                       -3554.982          27.000  
G20  24941292.952   131067170.9822      -2305.591          32.000  
C 8  38025045.797   198006370.017         106.454          35.000  
> 2023  7  9  8 47 57.0040000  0 11                     
G18  23466170.382   123315553.227        2171.888          44.000  
G24  22608830.454   118810032.975        1980.148          30.000  
C 6  38021875.452   197989854.959         246.896          37.000  
C13  38402961.022   199974255.356         101.471          46.000  
C22  24743047.390   128843443.906        -180.913          41.000  
C16  37950784.099   197619644.180         162.163          41.000  
C 3  37343234.955   194455992.2313       -676.874          33.000  
G15  21705689.790   114064167.965       -1825.559          46.000  
C19  24797673.521   129127985.684       -1732.198          40.000  
G13  23232317.341   122086666.7793      -3555.817          27.000  
C 8  38025024.735   198006263.833         105.481          35.000  
> 2023  7  9  8 47 58.0040000  0 12                     
G18  23465757.913   123313381.288        2171.573          44.000  
G24  22608443.805   118808051.161        1981.152          30.000  
C 6  38021827.997   197989607.800         246.735          37.000  
C13  38402941.645   199974153.470         101.906          46.000  
C22  24743082.622   128843624.875        -181.259          41.000  
C16  37950752.594   197619481.715         162.251          41.000  
C 3  37343365.025   194456669.8183       -677.364          33.000  
G15  21706037.063   114065993.228       -1825.445          46.000  
C19  24798005.862   129129717.575       -1732.039          40.000  
G13  23232991.649   122090222.4422      -3555.837          28.000  
G20  24942171.646                       -2305.878          32.000  
C 8  38025004.271   198006157.554         105.732          35.000  
> 2023  7  9  8 47 59.0040000  0 11                     
G18  23465345.452   123311209.621        2171.717          44.000  
G24  22608064.601   118806069.830        1981.678          29.000  
C 6  38021780.343   197989360.802         247.179          37.000  
C13  38402922.027   199974051.492         102.025          46.000  
C22  24743117.527   128843805.891        -180.999          41.000  
C16  37950721.660   197619319.398         162.303          41.000  
C 3  37343495.043   194457346.3272       -676.319          33.000  
G15  21706383.983   114067818.814       -1825.559          45.000  
C19  24798338.433   129131449.435       -1731.785          41.000  
G13  23233665.923   122093778.3212      -3556.046          28.000  
C 8  38024983.493   198006051.181         106.685          35.000  
> 2023  7  9  8 48  0.0040000  0 13                     
G18  23464932.764   123309038.067        2171.425          45.000  
G24  22607673.614   118804088.787        1981.285          28.000  
C 6  38021732.783   197989113.792         246.652          37.000  
C13  38402902.315   199973949.317         102.096          46.000  
C22  24743152.503   128843986.833        -181.181          41.000  
C16  37950690.234   197619157.054         162.090          41.000  
C 3  37343625.173   194458023.7323       -676.979          33.000  
G15  21706731.073   114069644.602       -1826.060          45.000  
C19  24798671.056   129133181.090       -1731.729          41.000  
G23  25050342.631                        1185.614          27.000  
G13  23234348.469   122097334.2122      -3556.061          29.000  
G20  24943086.521                       -2305.969          33.000  
C 8  38024962.797   198005944.686         106.114          34.000  
> 2023  7  9  8 48  1.0040000  0 11                     
G18  23464519.782   123306866.074        2171.641          45.000  
G24  22607287.888                        1981.267          26.000  
C 6  38021685.316   197988866.182         247.427          37.000  
C13  38402882.490   199973846.373         102.698          46.000  
C22  24743187.644   128844167.145        -180.301          42.000  
C16  37950658.712   197618994.161         162.466          41.000  
C 3  37343754.903   194458699.3963       -676.460          33.000  
G15  21707077.868   114071470.016       -1825.670          45.000  
C19  24799003.343   129134912.033       -1731.286          41.000  
G13  23235027.379   122100889.5582      -3555.134          29.000  
C 8  38024941.712   198005837.374         107.211          34.000  
> 2023  7  9  8 48  2.0040000  0 12                     
G18  23464107.174   123304695.119        2170.478          44.000  
G24  22606890.241                        1978.829          25.000  
C 6  38021637.928   197988619.468         245.885          37.000  
C13  38402862.427   199973744.065         102.026          45.000  
C22  24743222.934   128844348.252        -181.438          41.000  
C16  37950627.271   197618832.134         161.487          41.000  
C 3  37343884.548   194459374.7682       -676.091          32.000  
G15  21707424.698   114073296.492       -1827.119          45.000  
C19  24799335.854   129136643.648       -1731.637          40.000  
G13  23235706.349   122104445.8062      -3556.776          29.000  
G20  24943975.610                       -2306.060          33.000  
C 8  38024920.923   198005730.766         106.230          35.000  
> 2023  7  9  8 48  3.0040000  0 12                     
G18  23463694.521   123302525.012        2170.332          44.000  
G24  22606497.522                        1976.484          22.000  
C 6  38021590.254   197988373.424         246.265          37.000  
C13  38402842.795   199973642.276         102.199          45.000  
C22  24743257.820   128844530.030        -181.584          41.000  
C16  37950596.078   197618670.818         161.599          41.000  
C 3  37344014.635   194460051.7503       -676.602          33.000  
G15  21707771.927   114075123.887       -1827.337          45.000  
C19  24799668.316   129138375.832       -1732.161          40.000  
G13  23236388.466   122108002.8902      -3556.645          30.000  
G20  24944401.128   131083711.9673      -2307.050          34.000  
C 8  38024900.597   198005624.684         106.097          35.000  
> 2023  7  9  8 48  4.0040000  0 12                     
G18  23463281.896   123300355.145        2169.920          44.000  
G24  22606106.697                        1976.963          20.000  
C 6  38021543.066   197988127.515         245.656          37.000  
C13  38402823.136   199973540.400         102.195          45.000  
C22  24743292.656   128844711.806        -181.413          41.000  
C16  37950564.830   197618509.619         161.249          41.000  
C 3  37344144.550   194460728.7093       -677.505          33.000  
G15  21708119.205   114076951.580       -1827.693          44.000  
C19  24800000.880   129140107.940       -1732.148          40.000  
G13  23237060.072   122111560.0822      -3556.894          31.000  
G20  24944833.608   131086018.9832      -2307.031          35.000  
C 8  38024880.142   198005518.505         105.762          35.000  
