     3.03           OBSERVATION DATA    M                   RINEX VERSION / TYPE
GnssLogger          OPPO 13             20230818 081033 UTC PGM / RUN BY / DATE
Google GnssLogger                                           MARKER NAME
Unknown                                                     MARKER NUMBER
Unknown             Unknown                                 OBSERVER / AGENCY
Unknown             GnssLogger          v4.5.0.0            REC # / TYPE / VERS
Unknown             Unknown                                 ANT # / TYPE
        0.0000        0.0000        0.0000                  APPROX POSITION XYZ
        0.0000        0.0000        0.0000                  ANTENNA: DELTA H/E/N
G    8 C1C L1C D1C S1C C5I L5I D5I S5I                      SYS / # / OBS TYPES
S    3 C0C D0C S0C                                          SYS / # / OBS TYPES
R    4 C1C L1C D1C S1C                                      SYS / # / OBS TYPES
J    8 C1C L1C D1C S1C C5I L5I D5I S5I                      SYS / # / OBS TYPES
C   11 C2I L2I D2I S2I C0C D0C S0C C7I L7I D7I S7I          SYS / # / OBS TYPES
E    8 C1C L1C D1C S1C C5I L5I D5I S5I                      SYS / # / OBS TYPES
I    3 C0I D0I S0I                                          SYS / # / OBS TYPES
  2023    08    18    08    10   33.0000000     GPS         TIME OF FIRST OBS
 7 R03  5 R04  6 R13 -2 R14 -7 R15  0 R18 -3 R19  3         GLONASS SLOT / FRQ #
G L1C                                                       SYS / PHASE SHIFT
G L5I                                                       SYS / PHASE SHIFT
R L1C                                                       SYS / PHASE SHIFT
J L1C                                                       SYS / PHASE SHIFT
J L5I                                                       SYS / PHASE SHIFT
C L2I                                                       SYS / PHASE SHIFT
C L7I                                                       SYS / PHASE SHIFT
E L1C  0.00000                                              SYS / PHASE SHIFT
E L5I                                                       SYS / PHASE SHIFT

 C1C    0.000 C1P    0.000 C2C    0.000 C2P    0.000        GLONASS COD/PHS/BIS
                                                            END OF HEADER
> 2023 08 18 08 10 33.0009999  0 40                      
G18  20885839.63426     14911.42926     -1193.28326        40.27426  20885857.921 5     10449.504 5      -891.953 5        34.251 5
G23  20992411.65626    -21238.96926      1859.00626        40.26026  20992419.151 5    -14579.912 5      1387.693 5        33.121 5
G24  20882896.27225     22272.03925     -1844.24825        31.78925  20882897.171 6     15175.042 6     -1377.095 6        39.820 6
J03  36197124.55224      2358.09224      -147.21424        26.30024                                                                
J02  37434741.26823         0.00023       287.02123        21.10023  37434813.218 6     -1930.965 6       214.245 6        36.293 6
C43  24501858.31623        -0.00023     -1802.99023        21.40523                                        21.40523                        -0.00022     -1359.38822        16.81422
C14  22808905.72326     -9995.42126       914.43826        37.04926                                                                                                                
C24  22249670.17425    -18582.25525      1648.38525        35.12025                                        35.12025                                                                
C38  35964830.06626     -2510.69126       271.06526        37.98626                                        37.98626  35964855.249 5     -1826.587 5       203.560 5        30.427 5
C06  35984872.39125      -951.74025       137.68725        33.97725                                                                                                                
S37                                        34.00025
C16  36281940.93524      1014.59324       -25.64924        28.40024                                                                                                                
C08  35758221.79825     -7108.84325       652.55625        30.46725                                                                                                                
C03  36125560.19525         0.00025       217.91725        34.06325                                                                                                                
C13  35955184.24425     -9231.94225       834.57225        33.43225                                                                                                                
R14                    -32131.11626      2824.76026        36.00026
R03                       867.56324       -92.73024        29.00024
J07  36572622.40025     -2065.56325       236.66425        30.10025  36572635.591 5     -1517.582 5       176.528 5        32.700 5
J04  38778554.36526    -10448.80926       998.70126        36.56526                                                                
G32                    -14649.64724      1702.40724        29.06224                                                                
G12  23643473.66425    -24881.98325      2330.66125        34.13525                                                                
E33                    -18145.168 5      1656.354 5        33.490 5  25597335.933 4    -12108.546 4      1312.907 4        25.700 4
C60  37512388.41425         0.00025       204.31725        34.82425                                                  37512391.71224         0.00024       119.95324        28.00024
C39  36173777.31525      2346.56325      -163.57825        32.20025                                        32.20025  36173793.204 3      1688.871 3      -124.192 3        21.680 3
C59  37030783.52225         0.00025       218.86225        31.20025                                                                                                                
C11  24725472.01224        -0.00024     -2406.38124        24.92624                                                                                                                
G10                         0.00023      3024.74923        23.02923                                                                
G05  25026999.96825     25380.57225     -2384.46525        33.20425                                                                
G25                         0.00023      3127.74023        20.53523                                                                
E27                    -22275.045 5      2466.743 5        34.770 5  26359825.672 5    -17948.617 5      1933.576 5        33.009 5
E13                        -0.00022     -2682.25722        15.59222                     10737.20323     -2009.08723        19.40023
I03                                        33.70025
C04  38412234.66324         0.00024       238.37324        24.90024                                                                                                                
C02  37467397.66024         0.00024       227.64924        24.17624                                                                                                                
C28                     -3057.29025       326.94825        29.90025                                                                                                                
C09  36857750.51025     -2495.18925       275.39525        35.24425                                                                                                                
E26                      9382.911 6      -797.244 6        41.236 6  23855398.751 5      5282.126 5      -567.007 5        29.575 5
I09                                        19.22523
C21                        -0.00022     -1098.11322        15.09922                                        15.09922                                                                
C26                      4112.95824     -1094.74324        29.00024                                        29.00024                                                                
> 2023 08 18 08 10 34.0009999  0 40                      
G18  20886065.97726     16101.07626     -1183.68226        40.22526  20886084.265 5     11337.799 5      -885.841 5        30.895 5
G23  20992057.00126    -23102.32526      1868.87226        40.21826  20992064.796 5    -15971.420 5      1394.442 5        33.185 5
G24  20883246.72924     24112.65624     -1838.07924        27.68624  20883247.329 6     16548.314 6     -1370.157 6        39.822 6
J03  36197152.13324      2500.15724      -136.98924        25.70024                                                                
J02  37434682.20923         0.00023       296.63623        23.10023  37434757.457 6     -2148.820 6       221.069 6        36.298 6
C43  24502205.47623        -0.00023     -1791.97623        21.37423                                        21.37423                        -0.00022     -1353.65122        16.72822
C14  22808729.44526    -10914.39526       924.10326        37.09126                                                                                                                
C24  22249351.79426    -20234.46226      1657.31926        39.30026                                        39.30026                                                                
C38  35964777.90226     -2785.71226       280.59926        38.03126                                        38.03126  35964802.485 5     -2033.894 5       210.512 5        30.435 5
C06  35984845.41025     -1093.37425       147.35425        33.99325                                                                                                                
S37                                        36.00026
C16  36281944.53225      1036.45125       -15.87525        34.20025                                                                                                                
C08  35758095.58625     -7765.89225       662.86925        30.43325                                                                                                                
C03  36125519.72325         0.00025       212.26225        33.96425                                                                                                                
C13  35955023.85525    -10070.46225       844.10525        33.50525                                                                                                                
R14                    -34959.85026      2833.69426        40.00026
R18                        -0.00023     -2896.47023        20.00023
R03                       953.90724       -82.10024        29.00024
J07  36572576.23225     -2306.99725       246.01625        32.90025  36572589.723 5     -1697.843 5       183.481 5        32.600 5
J04  38778363.39825    -11451.83225      1008.33725        30.30025                                                                
G32                    -16356.61224      1711.69024        29.40924                                                                
G12  23643031.77025    -27216.25025      2339.32825        34.15925                                                                
E33                    -19806.470 5      1666.362 5        30.900 5  25597019.652 4    -13381.429 4      1322.900 4        28.900 4
C60  37512346.44325         0.00025       220.34625        34.82725                                                  37512359.93424     -1419.08924       121.51124        27.00024
C39  36173807.89425      2506.70125      -154.77725        32.31525                                        32.31525  36173823.783 4      1809.370 4      -117.651 4        27.100 4
C59  37030738.55325         0.00025       230.33425        34.70025                                                                                                                
C11  24725933.39324        -0.00024     -2395.74124        24.82424                                                                                                                
G10                         0.00023      3035.24523        21.27223                                                                
G05  25027452.95525     27761.07325     -2375.06425        33.29125                                                                
E27                    -24746.770 5      2476.493 5        34.786 5  26359355.298 5    -19842.515 5      1944.196 5        33.078 5
E13                        -0.00022     -2667.35222        15.52222                        -0.00023     -2000.40823        18.90023
I03                                        33.30025
C04  38412191.49324         0.00024       227.14024        28.50024                                                                                                                
C02  37467353.29124         0.00024       248.68724        24.11224                                                                                                                
C28  25333862.43225     -3388.53425       336.16325        29.60025                                                                                                                
C09  36857697.74725     -2774.73925       284.72825        35.27125                                                                                                                
E26                     10175.040 6      -787.384 6        41.264 6  23855549.547 5      5889.088 5      -556.446 5        29.586 5
I09                                        19.19823
C21                        -0.00023     -1089.79823        18.50023                                        18.50023                                                                
C26                      5203.67025     -1085.25725        30.50025                                        30.50025                                                                
> 2023 08 18 08 10 35.0009999  0 42                      
G18  20886290.22226     17282.77226     -1178.15126        40.23126  20886309.109 5     12220.069 5      -879.314 5        30.895 5
G23  20991702.04726    -24974.06426      1875.33826        40.21926  20991708.643 5    -17369.306 5      1401.024 5        33.269 5
G24  20883591.79024     25945.88124     -1827.35124        29.04624  20883595.688 6     17915.504 6     -1364.332 6        39.802 6
J03  36197176.71624      2633.69624      -129.33424        25.50024                                                                
J02  37434624.94824     -3269.66124       303.90024        25.00024  37434700.496 6     -2373.191 6       227.424 6        36.298 6
C43                        -0.00023     -1784.34123        19.60023                                        19.60023                        -0.00022     -1346.13122        14.20022
C14  22808551.36826    -11841.91426       930.77026        37.04126                                                                                                                
C24  22249032.81526    -21894.73726      1663.58526        39.39526                                        39.39526                                                                
C38  35964723.64026     -3069.12226       286.53126        38.04426                                        38.04426  35964747.923 5     -2247.596 5       216.647 5        30.348 5
C06  35984817.22925     -1243.45825       153.75325        33.97325                                                                                                                
S37                                        37.00026
C16  36281946.63125      1049.85425       -10.14225        34.18025                                                                                                                
C08  35757967.87425     -8431.10825       668.58925        30.52625                                                                                                                
C03  36125479.25125         0.00025       217.38225        31.20025                                                                                                                
C13  35954861.36725    -10917.45325       850.10425        33.53925                                                                                                                
R14                    -37796.73627      2840.09427        42.00027
R18                        -0.00023     -2882.45123        19.00023
R03                      1031.46624       -72.88724        28.00024
J07  36572527.96625     -2557.08225       253.74825        34.90025  36572542.056 5     -1884.697 5       189.836 5        32.695 5
J04  38778170.93125    -12463.49225      1015.64225        33.40025                                                                
G32                    -18072.24424      1719.39824        27.92824                                                                
G12  23642587.17725    -29559.03825      2345.86225        34.15825                                                                
E33                    -21476.025 5      1673.286 5        30.865 5  25596701.872 4    -14660.746 4      1330.065 4        28.500 4
C01  37003439.45224         0.00024       206.64624        27.00024                                                                                                                
C60  37512305.37125         0.00025       223.62125        34.81525                                                  37512312.26724         0.00024       139.77124        28.00024
C39  36173836.97425      2658.35125      -148.17825        32.43925                                        32.43925  36173852.863 4      1923.564 4      -111.065 4        27.110 4
C59  37030688.18826         0.00026       242.87826        39.70026                                                                                                                
C11  24726393.27423        -0.00023     -2391.11323        21.40023                                                                                                                
G10                         0.00024      3040.82324        23.68224                                                                
G05  25027903.24326     30133.15526     -2368.53226        35.80426                                                                
G25                         0.00024      3142.08324        24.59124                                                                
E27                    -27227.097 5      2484.027 5        34.761 5  26358883.425 5    -21743.058 5      1951.816 5        33.129 5
E13                        -0.00021     -2667.56721        10.80021                        -0.00023     -1991.16823        18.86023
I03                                        32.50025
C04  38412145.92524         0.00024       234.06624        28.52024                                                                                                                
C02  37467305.02424         0.00024       254.24024        24.08124                                                                                                                
C28  25333798.57624     -3727.91224       342.99524        28.90024                                                                                                                
C09  36857643.18525     -3062.63425       291.32825        35.31225                                                                                                                
E26                     10958.960 6      -780.293 6        41.280 6  23855698.843 5      6489.710 5      -549.694 5        29.621 5
I09                                        19.17323
C21                        -0.00023     -1078.82523        18.54023                                        18.54023                                                                
C26                      6286.34725     -1079.13825        30.52525                                        30.52525                                                                
> 2023 08 18 08 10 36.0009999  0 42                      
G18  20886513.26826     18456.40326     -1168.15026        40.22926  20886532.454 5     13096.566 5      -873.720 5        30.997 5
G23  20991344.99426    -26854.14426      1885.47126        40.25026  20991350.990 6    -18773.208 6      1406.758 6        36.673 6
G24  20883936.25224     27768.72524     -1817.16424        26.80724  20883942.547 6     19276.778 6     -1358.447 6        39.791 6
J03  36197199.80024      2758.71224      -119.03124        25.50024                                                                
J02  37434565.59024     -3578.50124       314.27424        25.00024  37434641.437 6     -2603.787 6       233.462 6        36.338 6
C43                        -0.00023     -1776.69123        19.30023                                        19.30023                        -0.00022     -1335.26722        14.20022
C14  22808371.19326    -12777.91326       941.43626        36.93826                                                                                                                
C24  22248713.23626    -23563.09326      1673.85326        39.44526                                        39.44526                         0.00024      1262.34324        25.60024
C38  35964668.17826     -3360.97026       297.13126        38.04626                                        38.04626  35964692.162 5     -2467.482 5       222.827 5        30.310 5
C06  35984786.35125     -1401.95525       163.82025        33.99925                                                                                                                
S37                                        38.00026
C16  36281947.53025      1054.84225         0.79325        34.05625                                                                                                                
C08  35757838.66325     -9104.82425       679.07725        30.59425                                                                                                                
C03  36125435.18225         0.00025       239.06325        31.24025                                                                                                                
C13  35954697.38125    -11772.93625       861.76925        33.58225                                                                                                                
R14                    -40641.65027      2850.56127        42.00027
R18                        -0.00023     -2852.78423        18.00023
R03                      1100.52324       -63.37124        25.00024
J07  36572478.20025     -2815.71925       264.61525        34.90025  36572492.590 5     -2077.828 5       196.139 5        32.785 5
J04  38777976.96525    -13483.81725      1025.50825        32.00025                                                                
G32                    -19796.21224      1728.63024        29.22224                         0.00023      1295.49823        23.11323
G12  23642141.98625    -31910.25325      2357.32825        34.14725                                                                
E33                    -23153.776 5      1683.427 5        30.941 5  25596382.893 5    -15946.130 5      1341.395 5        31.200 5
C01  37003384.89025         0.00025       225.02125        30.20025                                                                                                                
C60  37512260.70225         0.00025       239.89625        34.78925                                                  37512262.50124         0.00024       143.95924        26.00024
C39  36173864.25525      2801.50825      -137.57825        32.50225                                        32.50225  36173880.444 4      2031.531 4      -105.478 4        27.124 4
C59  37030640.52126         0.00026       256.68026        39.64026                                                                                                                
C11                        -0.00023     -2377.17023        18.60023                                                                                                                
G10                         0.00023      3050.83423        22.92823                                                                
G05  25028351.43326     32496.80326     -2357.93326        35.80826                                                                
G25                         0.00024      3154.27724        24.25324                                                                
E27                    -29715.888 5      2494.451 5        34.717 5  26358410.052 5    -23649.947 5      1962.929 5        33.222 5
E13                        -0.00021     -2657.38221        10.80021                        -0.00023     -1984.22623        18.81723
I03                                        33.40025
C04  38412095.56024         0.00024       246.58124        28.48924                                                                                                                
C02  37467255.25924         0.00024       261.23024        24.11124                                                                                                                
C28  25333731.72224     -4075.25724       353.08224        28.46624                                                                                                                
C09  36857586.52425     -3359.00325       302.52725        35.27625                                                                                                                
E26                     11734.826 6      -770.385 6        41.316 6  23855846.341 5      7084.326 5      -538.794 5        29.569 5
I09                                        19.14923
C26                      7360.93025     -1068.79125        30.53825                                        30.53825                                                                
C21                                                                                                        22.00023                                                                
> 2023 08 18 08 10 37.0009999  0 45                      
G18  20886735.11426     19621.82826     -1162.08526        40.23726  20886754.001 5     13966.797 5      -867.303 5        31.035 5
G23  20990985.54326    -28742.85326      1892.20426        40.26926  20990991.539 6    -20183.602 6      1413.288 6        36.690 6
G24  20884278.61524     29583.23624     -1811.33024        26.79424  20884287.908 6     20631.809 6     -1352.409 6        39.754 6
J03  36197222.88424      2875.04124      -112.89324        25.10024                                                                
J02  37434505.03124     -3895.76224       321.71824        24.70024  37434497.836 4     -2841.220 4       240.610 4        28.400 4
C43  24503234.06423        -0.00023     -1769.39223        20.00023                                        20.00023                        -0.00022     -1329.51222        13.70022
C14  22808189.51926    -13722.68726       948.36926        36.85626                                                                                                                
C24  22248391.55926    -25239.78726      1680.18726        39.54226                                        39.54226  22248403.55124     -6094.49624      1266.24524        26.40024
C38  35964610.61826     -3661.46626       304.06326        38.02326                                        38.02326  35964634.602 5     -2693.966 5       229.701 5        30.194 5
C06  35984754.57325     -1569.16025       170.41925        34.04425                                                                                                                
S37                                        38.00026
C16  36281946.33125      1051.20725         6.92625        34.02825                                                                                                                
C08  35757708.25425     -9787.22725       686.40825        30.62925                                                                                                                
C03  36125391.11225         0.00025       232.32325        31.23825                                                                                                                
C13  35954531.89625    -12636.95725       867.96825        33.62725                                                                                                                
R14                    -43494.92026      2856.49626        41.00026
R18                        -0.00022     -2865.59022        15.00022
R03                      1160.30224       -56.16324        29.00024
R15                         0.00023      4501.83323        21.00023
J07  36572426.93625     -3083.27025       271.34725        34.80025  36572441.626 5     -2277.572 5       202.556 5        32.885 5
J04  38777780.60125    -14513.17525      1032.64125        33.70025                                                                
G32                    -21528.92924      1735.74824        28.69424  24237337.34124     -7505.13224      1295.88424        24.26724
G12  23641693.49625    -34270.09425      2363.26125        34.23325                                                                
C21                        -0.00023     -1064.19823        18.60023                                        18.60023                                                                
E33                    -24839.955 5      1689.727 5        30.943 5  25596062.115 5    -17238.098 5      1347.698 5        31.150 5
C01  37003325.23125         0.00025       229.44925        33.00025                                                                                                                
C60  37512215.73325         0.00025       239.79425        34.82925                                                  37512226.52624     -1837.67124       152.04324        26.00024
C39  36173890.03726      2936.00226      -130.91226        36.00026                                        36.00026  36173906.226 4      2132.900 4       -98.689 4        27.152 4
C59  37030590.45626         0.00026       258.41626        39.61326                                                                                                                
C11                        -0.00023     -2370.13223        18.60023                                                                                                                
G10                         0.00023      3055.66523        21.00323                                                                
G05  25028799.62326     34851.83726     -2351.13426        35.81226                                                                
G25                         0.00023      3161.32723        21.47923                         0.00023      2353.39923        20.15323
E27                    -32213.544 5      2501.456 5        34.656 5  26357934.582 5    -25563.644 5      1969.422 5        33.305 5
E13                        -0.00022     -2653.12822        16.70022                        -0.00023     -1981.14223        19.80023
I03                                        32.100 5
C04  38412046.99324         0.00024       253.10424        28.41924                                                                                                                
C02  37467205.49324         0.00024       255.99324        24.04024                                                                                                                
C28  25333663.37024     -4431.03424       359.11824        28.54924                                                                                                                
C09  36857527.46525     -3664.01425       308.92725        35.24225                                                                                                                
E26                     12502.253 6      -763.939 6        41.350 6  23855992.340 5      7672.341 5      -532.005 5        29.505 5
I09                                        16.00022
C26                      8427.32725     -1063.25725        30.64625                                        30.64625                                                                
C25                         0.00023      3479.72923        17.90023                                                                                                                
G15                        -0.00023     -1748.70823        23.41123                                                                
> 2023 08 18 08 10 38.0009999  0 45                      
G18  20886954.862 6     20778.561 6     -1152.951 6        40.256 6  20886974.349 5     14830.706 5      -861.477 5        31.052 5
G23  20990623.394 6    -30640.043 6      1901.404 6        40.284 6  20990630.589 6    -21600.710 6      1419.696 6        36.584 6
G24  20884620.378 4     31388.825 4     -1803.896 4        25.127 4  20884631.470 6     21980.268 6     -1345.926 6        39.765 6
J03  36197243.87024      2981.84324      -100.48724        24.70024                                                                
J02  37434442.67524     -4223.20424       332.37824        24.20024  37434435.779 4     -3085.325 4       246.808 4        29.000 4
C43                        -0.00023     -1757.65523        18.80023                                        18.80023                        -0.00022     -1320.72922        13.70022
C14  22808006.34626    -14676.69526       958.10126        36.82326                                                                                                                
C24  22248068.68326    -26925.19626      1689.12126        39.64426                                        39.64426  22248080.07524     -7364.60724      1272.51824        26.50024
C38  35964551.85926     -3970.97826       313.99726        38.00126                                        38.00126  35964575.243 5     -2927.170 5       235.895 5        30.144 5
C06  35984721.29625     -1745.47925       180.35125        34.09125                                                                                                                
S37                                        38.00026
C16  36281944.23325      1038.40325        16.25925        33.93625                                                                                                                
C08  35757576.34525    -10478.59625       695.47625        30.65225                                                                                                                
C03  36125342.24625         0.00025       259.25625        31.26625                                                                                                                
C13  35954364.31225    -13510.10625       877.36825        33.66025                                                                                                                
R14                    -46357.00426      2865.96426        41.00026
R18                        -0.00023     -2856.48223        20.00023
R03                      1210.81624       -46.22524        28.00024
R15                         0.00024      4507.08624        25.00024
J07  36572375.072 5     -3360.061 5       281.347 5        34.760 5  36572389.162 5     -2484.251 5       209.381 5        33.000 5
J04  38777582.438 5    -15551.330 5      1043.174 5        32.900 5                                                                
G32  24236974.59224    -23270.82924      1745.76524        26.89124  24237006.07023     -8805.95823      1305.26823        22.48723
G12  23641242.908 5    -36638.607 5      2373.195 5        34.212 5                                                                
C21                        -0.00023     -1053.16223        19.90023                                        19.90023                                                                
E33                    -26534.933 5      1698.596 5        30.940 5  25595739.538 5    -18536.899 5      1357.825 5        31.047 5
C01  37003276.96425         0.00025       256.69225        32.00025                                                                                                                
C60  37512168.36625         0.00025       250.65925        34.84725                                                  37512187.55324     -1991.28424       163.86824        25.00024
C39  36173914.02026      3061.41226      -121.77926        35.92526                                        35.92526  36173930.509 4      2227.368 4       -91.740 4        27.149 4
C59  37030538.29226         0.00026       271.38026        39.62726                                                                                                                
C11                        -0.00023     -2361.76223        18.60023                                                                                                                
G10                         0.00023      3066.88523        20.82523                                                                
G05  25029245.414 6     37198.352 6     -2342.132 6        35.812 6                                                                
G25                         0.00023      3171.90423        23.44223                     -7277.48624      2367.54424        23.86524
E27                    -34720.423 5      2511.072 5        34.618 5  26357457.612 5    -27484.484 5      1979.550 5        33.349 5
E13                        -0.00022     -2641.00022        14.10022                        -0.00023     -1973.03623        18.80023
I03                                        33.300 5
C04  38411997.82724         0.00024       260.92124        28.34324                                                                                                                
C02  37467154.22924         0.00024       266.93924        24.02824                                                                                                                
C28  25333595.01724     -4795.43724       368.37924        28.78724                                                                                                                
C09  36857467.80625     -3978.08725       318.39325        35.23925                                                                                                                
E26                     13260.806 6      -754.503 6        41.402 6  23856136.840 5      8253.785 5      -523.109 5        29.514 5
I09                                        19.10023
C26                      9484.92825     -1054.12525        30.69325                                        30.69325                        -0.00024      -816.33224        25.50024
C25                         0.00023      3487.56923        18.10023                                                                                                                
G15                        -0.00024     -1743.94824        23.84724                                                                
> 2023 08 18 08 10 39.0009999  0 44                      
G18  20887174.010 6     21926.741 6     -1144.752 6        40.230 6  20887192.597 5     15688.006 5      -853.425 5        31.049 5
G23  20990260.645 6    -32546.712 6      1910.204 6        40.309 6  20990267.840 6    -23024.539 6      1427.544 6        36.510 6
G24  20884960.94224     33186.56824     -1793.13524        25.65024  20884973.234 6     23322.210 6     -1338.229 6        39.684 6
J03  36197262.45724      3080.03324       -94.94124        24.60024                                                                
J02  37434378.81924     -4558.49524       338.74224        24.20024  37434371.624 4     -3336.322 4       254.629 4        27.500 4
C43                        -0.00022     -1751.24222        16.60022                                        16.60022                        -0.00022     -1316.36222        13.70022
C14  22807821.07426    -15639.71626       966.56826        36.77126                                                                                                                
C24  22247744.007 6    -28619.239 6      1697.519 6        39.706 6                                        39.70626  22247754.50024     -8641.28424      1280.38124        26.50024
C38  35964491.001 6     -4289.416 6       322.130 6        38.010 6                                        38.01026  35964514.085 5     -3167.193 5       243.900 5        30.051 5
C06  35984686.220 5     -1930.204 5       188.684 5        34.131 5                                                                                                                
S37                                        38.00026
C16  36281939.136 5      1016.633 5        25.324 5        33.909 5                                                                                                                
C08  35757442.038 5    -11178.448 5       704.076 5        30.749 5                                                                                                                
C03  36125292.48025         0.00025       263.33925        31.29225                                                                                                                
C13  35954195.229 5    -14391.735 5       885.434 5        33.737 5                                                                                                                
R14                    -49227.81527      2874.29727        42.00027
R18                        -0.00024     -2844.71824        24.00024
R03                      1251.94025       -37.42625        30.00025
R15                    -13768.52324      4512.35524        28.00024
J07  36572322.008 5     -3645.976 5       289.081 5        34.762 5  36572334.600 5     -2697.798 5       217.305 5        33.075 5
J04  38777382.777 5    -16599.150 5      1051.573 5        32.600 5                                                                
G32  24236641.52224    -25021.18324      1754.08724        25.65024  24236673.30024    -10113.44024      1311.34124        24.02924
G12  23640791.421 5    -39016.555 5      2381.594 5        34.288 5                                                                
C21                        -0.00023     -1046.70823        21.60023                                        21.60023                                                                
E33                    -28238.748 5      1707.385 5        30.878 5  25595415.163 5    -19842.300 5      1365.118 5        30.954 5
C01  37003229.29725         0.00025       254.22925        32.04525                                                                                                                
C60  37512119.50025         0.00025       255.61025        34.84925                                                  37512132.69124     -2152.92724       158.97524        27.00024
C39  36173936.205 5      3177.726 5      -112.647 5        33.200 5                                        33.20025  36173952.694 4      2315.072 4       -84.229 4        27.031 4
C59  37030486.42826         0.00026       281.38826        39.58026                                                                                                                
C11                        -0.00023     -2355.08023        19.20023                                                                                                                
G10                         0.00023      3074.79823        18.65423                                                                
G05  25029689.706 6     39535.332 6     -2333.866 6        35.785 6                                                                
G25                         0.00023      3180.18823        20.95923  24014800.79924     -9649.29924      2375.67324        27.02224
E27                    -37236.426 5      2519.736 5        34.567 5  26356978.843 5    -29412.245 5      1987.701 5        33.356 5
E13                        -0.00022     -2633.91222        14.40022                        -0.00023     -1964.87123        18.70023
I03                                        33.265 5
C04  38411947.16224         0.00024       266.17524        28.32524                                                                                                                
C02  37467101.16624         0.00024       294.11824        24.03124                                                                                                                
C28  25333524.866 4     -5168.496 4       375.755 4        28.777 4                                                                                                                
C09  36857406.049 5     -4300.526 5       326.326 5        35.177 5                                                                                                                
E26                     14010.677 6      -746.351 6        41.401 6  23856279.242 4      8828.280 4      -514.629 4        29.488 4
I09                                        19.10023
C26                     10533.97725     -1045.19325        30.68825                                        30.68825                                                                
G15                      2721.32424     -1737.26024        25.17924                                                                
> 2023 08 18 08 10 40.0009999  0 44                      
G18  20887390.161 6     23066.447 6     -1133.685 6        40.238 6  20887409.647 5     16539.150 5      -845.938 5        30.942 5
G23  20989896.097 6    -34462.091 6      1921.469 6        40.262 6  20989903.292 6    -24454.792 6      1435.051 6        36.478 6
G24  20885298.80825     34975.05925     -1781.95525        32.05825  20885313.498 6     24657.883 6     -1330.912 6        39.672 6
J03  36197279.24524        -0.00024       -83.98324        24.50024                                                                
J02  37434309.26723         0.00023       353.03423        20.80023  37434305.969 4     -3593.896 4       262.696 4        28.400 4
C43                        -0.00022     -1738.93122        16.60022                                        16.60022                        -0.00021     -1312.09821        11.80021
C14  22807634.30326    -16611.69426       978.30126        36.76726                                                                                                                
C24  22247417.234 6    -30321.817 6      1708.786 6        39.795 6                                        39.79526  22247427.72624     -9924.19324      1287.61724        26.90024
C38  35964428.644 6     -4616.665 6       333.263 6        38.054 6                                        38.05426  35964451.129 5     -3413.773 5       251.447 5        29.958 5
C06  35984649.945 5     -2124.338 5       200.350 5        34.199 5                                                                                                                
S37                                        37.00026
C16  36281932.241 5       985.990 5        36.791 5        33.823 5                                                                                                                
C08  35757305.632 5    -11887.715 5       716.209 5        30.811 5                                                                                                                
C03  36125241.51625         0.00025       277.56325        31.37225                                                                                                                
C13  35954023.747 5    -15282.654 5       896.633 5        33.730 5                                                                                                                
R14                    -52107.17827      2885.23027        42.00027
R18                        -0.00023     -2835.21823        23.00023
R03                      1283.86925       -25.98225        30.00025
R15                    -18287.64624      4524.69124        27.00024
J07  36572264.448 5     -3940.943 5       300.747 5        34.688 5  36572278.538 5     -2918.050 5       225.077 5        33.141 5
J04  38777180.716 5    -17656.183 5      1063.107 5        32.605 5                                                                
G32  24236311.15124    -26781.01524      1765.77924        25.45424  24236338.43224    -11427.73924      1320.50624        24.02524
G12  23640337.535 5    -41403.419 5      2392.527 5        34.387 5                                                                
C21                        -0.00023     -1035.34023        21.60023                                        21.60023                                                                
E33                    -29951.160 5      1718.155 5        30.899 5  25595089.288 5    -21154.321 5      1377.549 5        30.866 5
C01  37003178.33325         0.00025       280.72425        32.06225                                                                                                                
C60  37512068.23625         0.00025       263.21425        34.90125                                                  37512075.43124         0.00024       175.04124        28.00024
C39  36173956.591 5      3285.200 5      -101.380 5        33.260 5                                        33.26025  36173973.379 4      2396.015 4       -76.003 4        27.059 4
C59  37030430.66626         0.00026       291.38426        39.53626                                                                                                                
C11  24728644.71523        -0.00023     -2342.56423        22.40023                                                                                                                
G10                         0.00023      3088.75923        19.21323                                                                
G05  25030131.900 6     41863.512 6     -2321.999 6        35.724 6                                                                
G25                         0.00023      3198.87023        20.19723  24014194.61924    -12027.99224      2383.62524        26.95224
G15                        -0.00023     -1723.89423        22.88023                                                                
E27                    -39761.480 5      2530.966 5        34.453 5  26356498.276 5    -31346.911 5      2000.549 5        33.373 5
E13                        -0.00022     -2618.57622        14.48522                        -0.00023     -1958.07523        19.70023
I03                                        33.271 5
C04  38411895.29824         0.00024       276.51224        28.35324                                                                                                                
C02  37467046.30424         0.00024       293.09424        23.98424                                                                                                                
C28  25333451.117 4     -5550.181 4       387.706 4        25.200 4                                                                                                                
C09  36857342.493 5     -4632.424 5       337.992 5        35.163 5                                                                                                                
E26                     14751.944 6      -735.464 6        41.425 6  23856420.144 5      9396.340 5      -501.743 5        29.528 5
I09                                        15.40022
C26                     11574.57125     -1035.24325        30.72825                                        30.72825                                                                
> 2023 08 18 08 10 41.0009999  0 44                      
G18  20887605.711 6     24197.716 6     -1126.552 6        40.225 6  20887624.898 5     17383.902 5      -840.426 5        30.900 5
G23  20989529.151 6    -36386.303 6      1928.536 6        40.191 6  20989537.246 6    -25891.818 6      1440.952 6        36.455 6
G24  20885635.77525     36754.99125     -1774.50725        30.11625  20885652.264 6     25987.069 6     -1325.428 6        39.691 6
J03  36197293.63524      3250.03224       -75.21124        25.10024                                                                
J02  37434245.11123         0.00023       358.29323        23.30023  37434238.516 4     -3858.593 4       268.831 4        29.300 4
C43                        -0.00022     -1732.69122        16.60022                                        16.60022                        -0.00021     -1305.21221        11.80021
C14  22807445.73426    -17592.63826       986.03426        36.75326                                                                                                                
C24  22247089.261 6    -32032.841 6      1715.652 6        39.845 6                                        39.84526  22247099.15424    -11213.90424      1294.61824        26.92024
C38  35964364.788 6     -4952.772 6       340.795 6        38.121 6                                        38.12126  35964386.673 5     -3667.067 5       257.280 5        29.890 5
C06  35984610.972 5     -2327.327 5       208.083 5        34.199 5                                                                                                                
S37                                        38.00026
C16  36281923.847 5       946.572 5        43.930 5        31.100 5                                                                                                                
C08  35757168.028 5    -12605.683 5       723.808 5        30.875 5                                                                                                                
C03  36125188.15325         0.00025       276.49625        31.41325                                                                                                                
C13  35953851.666 5    -16182.593 5       905.565 5        33.808 5                                                                                                                
R14                    -54995.21627      2892.76427        43.00027
R18                     56752.91524     -2827.13824        25.00024
R03                      1306.41425       -17.42125        31.00025
R15                    -22816.10024      4534.29924        29.00024
J07  36572206.588 5     -4245.010 5       308.747 5        34.668 5  36572220.678 5     -3145.124 5       231.129 5        33.193 5
J04  38776978.057 5    -18722.323 5      1071.316 5        32.679 5                                                                
G32  24235975.68324         0.00024      1774.42624        23.96624  24236001.76524    -12748.36124      1323.98824        24.05024
G12  23639883.349 5    -43799.034 5      2400.407 5        30.002 5                                                                
C21                        -0.00023     -1027.03823        21.64523                                        21.64523                                                                
E33                    -31672.153 5      1726.078 5        31.200 5  25594761.915 5    -22473.046 5      1384.790 5        30.842 5
C01  37003123.17125         0.00025       292.55025        32.00325                                                                                                                
C60  37512018.17025         0.00025       266.84525        34.95025                                                  37512030.76124     -2500.55224       187.57524        28.00024
C39  36173974.878 5      3383.738 5       -93.180 5        33.302 5                                        33.30225  36173992.566 4      2470.309 4       -70.318 4        27.126 4
C59  37030373.10626         0.00026       297.69126        39.53426                                                                                                                
C11  24729092.90524     43437.56324     -2334.03124        24.60024                                                                                                                
G10                         0.00022      3099.09122        16.16422                                                                
G05  25030572.895 6     44182.873 6     -2314.533 6        35.746 6                                                                
G15                      -639.69924     -1717.60824        26.16324                                                                
E27                    -42295.529 4      2539.042 4        28.000 4  26356016.210 5    -33288.551 5      2008.056 5        33.449 5
E13                        -0.00022     -2613.93522        14.60022                        -0.00023     -1952.06123        19.70023
I03                                        33.177 5
C04  38411839.83724         0.00024       275.88024        28.39024                                                                                                                
C02  37466988.74324         0.00024       307.32124        23.96924                                                                                                                
C28  25333375.569 4     -5940.190 4       394.207 4        25.195 4                                                                         0.00023       294.69123        18.60023
C09  36857276.838 5     -4973.166 5       345.858 5        35.169 5                                                                                                                
E26                     15484.535 6      -727.659 6        41.443 6  23856559.547 5      9957.726 5      -495.423 5        29.531 5
I09                                        15.40022
C26                     12606.59925     -1029.18525        30.70625                                        30.70625                                                                
G25                                                                  24013586.64024    -14413.43424      2390.23224        26.34324
> 2023 08 18 08 10 42.0009999  0 44                      
G18  20887819.763 6     25320.561 6     -1118.086 6        40.214 6  20887838.650 5     18222.347 5      -834.121 5        30.867 5
G23  20989160.407 6    -38319.381 6      1937.735 6        40.141 6  20989169.700 6    -27335.300 6      1447.914 6        36.443 6
G24  20885974.54125     38526.63325     -1768.04225        29.84525  20885989.231 6     27309.882 6     -1318.618 6        39.655 6
J03  36197307.72524        -0.00024       -66.55424        24.90024                                                                
J02  37434176.45924         0.00024       369.72924        23.70024  37434169.264 4     -4129.701 4       275.370 4        29.200 4
C43  24504924.89423        -0.00023     -1723.29323        20.60023                                        20.60023                        -0.00021     -1295.75721        12.20021
C14  22807255.66526    -18582.54026       994.96826        36.66526                                                                                                                
C24  22246759.789 6    -33752.457 6      1724.253 6        39.922 6                                        39.92226  22246779.875 4    -12509.669 4      1300.385 4        26.954 4
C38  35964301.532 6     -5297.709 6       349.795 6        38.189 6                                        38.18926  35964320.419 4     -3926.980 4       264.243 4        27.300 4
C06  35984570.500 5     -2539.118 5       216.682 5        34.214 5                                                                                                                
S37                                        37.00026
C16  36281914.553 5       898.177 5        53.997 5        31.140 5                                                                                                                
C08  35757028.324 5    -13332.458 5       731.274 5        30.881 5                                                                                                                
C03  36125132.69125         0.00025       291.38325        31.41225                                                                                                                
C13  35953676.887 5    -17091.273 5       913.496 5        33.872 5                                                                                                                
R14                    -57891.90627      2901.69727        43.00027
R18                     59575.55324     -2817.32324        27.00024
R03                      1319.65425        -7.12125        30.00025
R15                    -27353.75724      4543.02524        26.00024
J07  36572146.630 5     -4558.227 5       318.413 5        34.679 5  36572161.020 6     -3378.984 6       238.508 6        36.300 6
J04  38776773.898 5    -19797.622 5      1080.411 5        33.400 5                                                                
G32  24235636.01824    -30327.95324      1782.85124        25.95624  24235663.29924    -14075.88024      1331.49924        24.04924
G12  23639427.365 5    -46203.679 5      2409.466 5        34.390 5                                                                
C21                        -0.00023     -1016.95623        21.55223                                        21.55223                                                                
E33                    -33401.924 5      1734.928 5        29.700 5  25594432.743 5    -23798.375 5      1394.525 5        30.744 5
C01  37003067.40925         0.00025       284.60725        31.97225                                                                                                                
C60  37511963.00825         0.00025       275.48925        34.95225                                                  37511969.90424     -2685.08824       198.75024        28.00024
C39  36173991.966 5      3473.476 5       -85.113 5        33.361 5                                        33.36125  36174009.654 4      2537.942 4       -63.196 4        27.164 4
C59  37030312.54826         0.00026       305.66526        39.46226                                                                                                                
C11  24729541.39524     45767.60924     -2324.59524        24.90024                                                                                                                
G10                         0.00022      3104.58322        16.92022                                                                
G05  25031011.791 6     46493.384 6     -2305.668 6        35.749 6                                                                
G15                      1074.20624     -1709.56324        25.81724                                                                
E27                    -44838.601 6      2548.227 6        36.300 6  26355532.345 5    -35237.103 5      2017.943 5        33.541 5
E13                        -0.00022     -2599.79122        14.63022                        -0.00023     -1944.35523        19.70023
I03                                        33.238 5
C04  38411785.27424         0.00024       295.15224        28.36524                                                                                                                
C02  37466929.38524         0.00024       297.81224        24.00024                                                                                                                
C28  25333298.52224     -6339.11624       404.78724        25.19524                                                                         0.00022       304.90022        17.10022
C09  36857209.385 5     -5322.700 5       354.458 5        35.160 5                                                                                                                
E26                     16208.534 6      -718.872 6        41.460 6  23856697.452 4     10512.562 4      -485.647 4        29.474 4
I09                                        15.40022
C26                     13630.15225     -1019.48225        30.75525                                        30.75525                                                                
G25                                                                  24012976.86224    -16805.76524      2397.41924        26.26224
> 2023 08 18 08 10 43.0009999  0 46                      
G18  20888031.417 6     26434.480 6     -1109.219 6        40.222 6  20888050.603 5     19054.214 5      -828.097 5        30.889 5
G23  20988789.264 6    -40261.650 6      1946.869 6        40.041 6  20988800.056 6    -28785.718 6      1454.648 6        36.514 6
G24  20886311.50725     40288.97925     -1757.70725        31.50225  20886324.698 6     28626.021 6     -1312.073 6        39.627 6
J03  36197319.41723        -0.00023       -56.76023        23.10023                                                                
J02  37434106.30723         0.00023       377.09023        23.30023  37434098.213 4     -4407.923 4       282.486 4        29.180 4
C43  24505261.26123        -0.00023     -1714.38923        20.10023                                        20.10023                        -0.00021     -1289.35321        12.20021
C14  22807063.49826    -19581.87426      1004.70126        36.66126                                                                                                                
C24  22246428.818 6    -35480.993 6      1733.185 6        40.015 6                                        40.01526  22246448.005 4    -13812.244 4      1306.702 4        26.966 4
C38  35964234.079 6     -5651.915 6       358.928 6        38.224 6                                        38.22426  35964252.666 5     -4193.942 5       271.080 5        30.000 5
C06  35984527.930 5     -2760.264 5       226.212 5        34.203 5                                                                                                                
S37                                        37.00026
C16  36281903.761 5       840.485 5        62.331 5        31.173 5                                                                                                                
C08  35756887.122 5    -14068.614 5       741.024 5        30.916 5                                                                                                                
C03  36125077.52925         0.00025       288.05825        31.43125                                                                                                                
C13  35953500.609 5    -18009.284 5       922.961 5        33.928 5                                                                                                                
R14                    -60797.51827      2910.23027        44.00027
R18                     62389.15324     -2808.72624        25.00024
R03                      1323.44925         1.05925        31.00025
R15                    -31901.08224      4552.79424        29.00024
J07  36572084.273 5     -4880.746 5       327.613 5        34.650 5  36572099.562 6     -3619.895 6       245.166 6        36.235 6
J04  38776567.341 5    -20882.457 5      1089.876 5        32.400 5                                                                
G32  24235294.55524    -32114.97824      1791.90324        25.74624  24235323.33524    -15410.54524      1339.03324        24.03324
G12  23638969.282 6    -48617.646 6      2418.999 6        36.823 6                                                                
C21                        -0.00023     -1010.68523        21.62423                                        21.62423                                                                
E33                    -35140.705 5      1743.843 5        32.200 5  25594101.772 5    -25130.582 5      1403.259 5        30.766 5
C01  37003014.04625         0.00025       295.80825        31.97325                                                                                                                
C60  37511908.14625         0.00025       301.88325        34.93425                                                  37511921.93724         0.00024       204.80724        27.00024
C39  36174007.556 5      3553.805 5       -75.447 5        33.427 5                                        33.42725  36174025.243 4      2598.402 4       -56.379 4        27.155 4
C59  37030257.38626         0.00026       312.21726        39.39826                                                                                                                
C11  24729987.48624     48088.66324     -2315.15224        24.70024                                                                                                                
G10                         0.00022      3111.33322        16.92422                                                                
G05  25031448.889 6     48794.618 6     -2296.067 6        35.700 6                                                                
G15  22983065.65524        -0.00024     -1698.75024        24.94524                                                                
E27                    -47391.087 5      2557.687 5        32.400 5  26355046.681 5    -37192.805 5      2026.904 5        33.633 5
E13                        -0.00022     -2593.39422        14.65822                        -0.00022     -1937.17122        16.50022
E30                         0.00023      1063.38123        19.20023                                                                
I03                                        33.181 5
C04  38411725.61624         0.00024       308.46724        28.46124                                                                                                                
C02  37466870.02624         0.00024       298.75224        23.94524                                                                                                                
C28  25333219.67724     -6746.64524       412.89124        25.16524                                                                         0.00023       312.14423        17.70023
C09  36857140.133 5     -5681.507 5       363.592 5        35.127 5                                                                                                                
E26                     16923.492 6      -709.835 6        41.457 6  23856833.558 4     11060.480 4      -476.643 4        29.495 4
I09                                        19.90023
C26                     14644.61025     -1008.94125        30.65725                                        30.65725                                                                
C25                         0.00022      3528.65622        17.30022                                                                                                                
G25                                                                  24012365.58524    -19205.19824      2403.75424        26.37924
> 2023 08 18 08 10 44.0009999  0 45                      
G18  20888241.271 6     27539.652 6     -1100.152 6        40.197 6  20888260.758 5     19879.570 5      -821.453 5        30.911 5
G23  20988418.120 6    -42213.050 6      1956.670 6        39.957 6  20988428.913 6    -30242.820 6      1461.473 6        36.470 6
G24  20886647.875 5     42043.105 5     -1748.178 5        30.857 5  20886658.367 6     29935.579 6     -1305.476 6        39.564 6
J03  36197328.41123        -0.00023       -47.24223        22.30023                                                                
J02                         0.00023       385.94723        17.70023  37434025.363 4     -4693.123 4       289.500 4        29.106 4
C43                        -0.00023     -1705.99323        19.90023                                        19.90023                        -0.00021     -1283.64721        12.20021
C14  22806870.43226    -20590.39226      1013.90126        36.69226                                                                                                                
C24  22246095.748 6    -37218.305 6      1742.186 6        40.119 6                                        40.11926  22246114.336 4    -15121.553 4      1313.169 4        27.032 4
C38  35964164.827 6     -6015.195 6       368.193 6        38.292 6                                        38.29226  35964182.814 5     -4467.697 5       278.376 5        29.885 5
C06  35984484.460 5     -2990.569 5       235.746 5        34.202 5                                                                                                                
S37                                        37.00026
C16  36281890.870 5       773.716 5        71.989 5        31.204 5                                                                                                                
C08  35756744.721 5    -14813.870 5       750.158 5        31.010 5                                                                                                                
C03  36125018.17025         0.00025       303.81925        31.40425                                                                                                                
C13  35953322.833 5    -18936.409 5       932.161 5        33.946 5                                                                                                                
R14                    -63712.09527      2919.29927        43.00027
R18                     65193.46524     -2799.54624        27.00024
R03                      1317.56624        11.43024        29.00024
R15                    -36457.85924      4561.39524        29.00024
J07  36572019.218 5     -5212.764 5       337.346 5        34.632 5  36572036.306 6     -3867.753 6       252.256 6        36.178 6
J04  38776358.386 5    -21976.704 5      1100.075 5        32.800 5                                                                
G32  24234951.592 4    -33911.335 4      1801.736 4        29.412 4  24234981.27224    -16751.87024      1345.47324        23.99624
G12  23638507.002 6    -51040.732 6      2427.866 6        38.477 6                                                                
C21                        -0.00023      -999.73223        21.59723                                        21.59723                                                                
E33                    -36888.424 5      1752.687 5        29.500 5  25593769.302 5    -26469.689 5      1412.970 5        30.687 5
C01  37002958.88525         0.00025       306.37025        31.98925                                                                                                                
C60  37511849.68725         0.00025       307.55625        34.99225                                                  37511858.38124         0.00024       188.03024        29.00024
C39  36174021.346 5      3624.965 5       -66.047 5        33.480 5                                        33.48025  36174039.034 4      2652.117 4       -49.153 4        27.202 4
C59  37030195.62926         0.00026       323.62326        39.39826                                                                                                                
C11  24730432.97824     50400.58524     -2307.19824        28.20024                                                                                                                
G10                         0.00022      3119.62122        16.96422                                                                
G05  25031885.686 6     51086.754 6     -2287.133 6        35.661 6                                                                
G15                      4473.73624     -1689.81624        24.70624                                                                
E27                    -49952.829 5      2566.670 5        33.000 5  26354559.218 5    -39155.676 5      2037.032 5        33.736 5
E13                        -0.00022     -2588.73622        14.71022                        -0.00022     -1932.01522        17.10022
E30                         0.00022      1070.82722        17.20022                                                                
I03                                        33.151 5
C04  38411665.95724         0.00024       310.35224        28.39224                                                                                                                
C02  37466811.56624         0.00024       313.80224        23.90224                                                                                                                
C28  25333138.73324     -7163.14324       421.21024        25.13124                                                                         0.00022       318.40522        16.50022
C09  36857068.782 5     -6049.552 5       372.925 5        35.075 5                                                                                                                
E26                     17629.570 6      -701.224 6        41.459 6  23856967.865 5     11601.570 5      -467.089 5        29.525 5
I09                                        19.90023
C26                     15650.54424     -1000.37824        26.30024                                        26.30024                                                                
G25                                                                  24011752.51024    -21611.70224      2409.87424        26.41324
> 2023 08 18 08 10 45.0009999  0 46                      
G18  20888450.227 6     28636.754 6     -1094.152 6        40.161 6  20888469.713 5     20698.784 5      -816.529 5        30.967 5
G23  20988043.979 6    -44172.788 6      1963.204 6        39.853 6  20988055.971 6    -31706.341 6      1466.169 6        36.447 6
G24  20886981.544 5     43788.564 5     -1742.844 5        33.269 5  20886990.537 6     31238.982 6     -1300.893 6        39.505 6
J03  36197336.50524      3478.78024       -40.16624        25.20024                                                                
J02                         0.00023       392.64323        19.90023  37433951.015 4     -4984.845 4       294.350 4        29.125 4
C43  24505918.40623        -0.00023     -1698.99123        21.80023                                        21.80023                        -0.00021     -1277.46921        10.30021
C14  22806675.26726    -21607.53726      1020.56826        36.71726                                                                                                                
C24  22245761.480 6    -38963.826 6      1748.919 6        40.228 6                                        40.22826  22245779.168 4    -16437.025 4      1318.244 4        26.995 4
C38  35964094.675 6     -6386.943 6       375.326 6        38.342 6                                        38.34226  35964111.764 5     -4747.833 5       282.471 5        29.825 5
C06  35984438.592 5     -3229.318 5       242.612 5        34.176 5                                                                                                                
S37                                        37.00026
C16  36281876.480 5       698.346 5        79.322 5        31.218 5                                                                                                                
C08  35756600.221 5    -15567.620 5       756.490 5        31.039 5                                                                                                                
C03  36124956.71325         0.00025       314.58025        31.41325                                                                                                                
C13  35953143.856 5    -19872.050 5       938.961 5        33.983 5                                                                                                                
R14                    -66634.83527      2925.96627        43.00027
R18                        -0.00024     -2792.27324        24.00024
R03                      1302.78824        19.20924        27.00024
R15                    -41023.70924      4569.15824        29.00024
J07  36571955.362 5     -5553.351 5       344.081 5        34.580 5  36571971.551 6     -4122.126 6       256.952 6        36.094 6
J04  38776147.332 5    -23079.657 5      1106.541 5        31.900 5                                                                
G32  24234610.428 4    -35716.329 4      1809.260 4        28.542 4  24234637.70924    -18099.65824      1350.52224        24.06524
G12  23638043.823 6    -53472.303 6      2434.865 6        37.768 6                                                                
C21                        -0.00023      -995.86023        21.49723                                        21.49723                                                                
E33                    -38644.417 5      1759.193 5        31.000 5  25593435.034 4    -27815.214 4      1420.160 4        27.300 4
C01  37002900.42525         0.00025       316.32125        32.01425                                                                                                                
C60  37511790.92825         0.00025       319.72125        34.98725                                                  37511806.81724     -3277.93024       200.47824        26.00024
C39  36174033.338 5      3687.606 5       -59.047 5        33.556 5                                        33.55625  36174051.026 4      2699.320 4       -44.649 4        27.226 4
C59  37030131.77326         0.00026       339.26526        39.34826                                                                                                                
C11  24730876.37124     52703.59824     -2299.21624        28.17524                                                                                                                
G10                         0.00022      3132.82022        17.00222                                                                
G05  25032320.685 6     53370.373 6     -2280.068 6        35.649 6                                                                
G15                        -0.00024     -1683.11324        25.12724                                                                
E27                    -52523.313 5      2574.150 5        31.700 5  26354069.957 5    -41125.202 5      2044.069 5        33.809 5
E13                        -0.00022     -2582.73922        14.20022                        -0.00022     -1927.11622        17.10022
E30                         0.00022      1076.54322        15.80022                                                                
I03                                        34.100 5
C04  38411605.09924         0.00024       332.54924        28.30724                                                                                                                
C02  37466749.50924         0.00024       329.13124        23.88124                                                                                                                
C28  25333057.18924     -7587.65524       428.03424        24.90024                                                                         0.00022       322.36422        16.47522
C09  36856995.933 5     -6426.017 5       379.859 5        35.011 5                                                                                                                
E26                     18327.361 6      -694.402 6        41.456 6  23857100.673 5     12136.232 5      -459.801 5        29.593 5
I09                                        19.81523
C26                     16648.24924      -994.49624        26.20524                                                                                                                
G25                                                                  24011137.63524    -24024.96424      2415.80224        26.38224
C25                                                                                                                                         0.00024      2679.68424        26.80024
> 2023 08 18 08 10 46.0009999  0 47                      
G18  20888657.084 6     29725.502 6     -1086.552 6        40.164 6  20888676.870 5     21511.792 5      -811.046 5        31.036 5
G23  20987668.639 6    -46141.258 6      1971.004 6        39.756 6  20987681.530 6    -33176.288 6      1471.614 6        36.446 6
G24  20887314.913 5     45525.641 5     -1735.177 5        32.269 5  20887320.909 6     32536.113 6     -1295.371 6        39.450 6
J03  36197341.60224        -0.00024       -31.07224        24.40024                                                                
J02                         0.00023       401.07423        19.40023  37433875.167 4     -5283.167 4       299.906 4        29.148 4
C43  24506250.87623        -0.00023     -1689.81623        21.10023                                        21.10023                        -0.00021     -1271.96721        10.30021
C14  22806478.90326    -22633.50826      1027.96726        36.76626                                                                                                                
C24  22245425.412 6    -40717.702 6      1755.852 6        40.301 6                                        40.30126  22245442.201 4    -17758.751 4      1323.208 4        27.035 4
C38  35964022.725 6     -6767.406 6       382.724 6        38.414 6                                        38.41426  35964038.614 5     -5034.648 5       289.279 5        29.753 5
C06  35984390.925 5     -3476.861 5       250.345 5        34.187 5                                                                                                                
S37                                        37.00026
C16  36281860.291 5       614.246 5        86.456 5        31.222 5                                                                                                                
C08  35756453.922 5    -16330.060 5       764.890 5        31.092 5                                                                                                                
C03  36124895.25525         0.00025       320.44125        31.43725                                                                                                                
C13  35952962.482 5    -20816.494 5       946.692 5        34.013 5                                                                                                                
R14                    -69566.04827      2933.50027        44.00027
R18                     70776.60424     -2785.58324        25.00024
R19                        -0.00022       -83.21322        15.00022
R03                      1278.92724        26.00424        25.00024
R15                    -45598.63225      4577.24925        30.00025
J07  36571889.108 5     -5902.947 5       351.881 5        34.606 5  36571904.997 6     -4383.221 6       263.156 6        35.994 6
J04  38775935.379 5    -24191.683 5      1114.406 5        33.400 5                                                                
G32  24234263.568 4    -37530.039 4      1815.716 4        28.474 4  24234292.34924    -19454.08824      1356.67824        24.06524
G12  23637580.044 6    -55912.706 6      2442.732 6        38.229 6                                                                
C21                        -0.00023      -984.15923        21.47723                                        21.47723                                                                
E33                    -40408.890 5      1766.764 5        31.200 5  25593099.266 4    -29167.128 4      1427.795 4        27.405 4
C01  37002839.86725         0.00025       327.61425        32.04825                                                                                                                
C60  37511730.07025         0.00025       328.65425        34.99225                                                  37511739.66324     -3489.12824       200.86124        28.00024
C39  36174044.130 5      3741.434 5       -51.980 5        33.573 5                                        33.57325  36174061.518 4      2739.953 4       -39.740 4        27.274 4
C59  37030066.11926         0.00026       345.91426        39.34026                                                                                                                
C11  24731317.96524     54997.86824     -2292.11124        28.19624                                                                                                                
G10                         0.00022      3135.18422        17.07722                                                                
G05  25032753.286 6     55645.323 6     -2272.668 6        35.650 6                                                                
G15  22984029.48723        -0.00023     -1675.78223        22.88023                                                                
E27                    -55102.634 5      2581.690 5        32.400 5  26353579.197 5    -43101.535 5      2052.273 5        33.903 5
E13                        -0.00023     -2575.86723        17.50023                                                                
E30                         0.00022      1089.77222        14.10022                                                                
I03                                        34.200 5
C04  38411541.54324         0.00024       333.02824        28.30624                                                                                                                
C02  37466685.95324         0.00024       347.74424        23.90124                                                                                                                
C28  25332972.34823         0.00023       436.53323        21.50023                                                                         0.00022       329.00122        16.45122
C09  36856922.184 5     -6811.195 5       387.661 5        35.010 5                                                                                                                
E26                     19016.671 6      -687.224 6        41.448 6  23857231.682 5     12664.517 5      -452.595 5        29.633 5
I09                                        19.73423
C26                        -0.00023      -985.18623        19.90023                                                                                                                
G25                                                                  24010520.96224    -26444.83324      2420.58124        26.41124
C25                                                                                                                                     -9553.02025      2679.73525        29.80025
> 2023 08 18 08 10 47.0009999  0 48                      
G18  20888862.142 6     30806.191 6     -1075.953 6        40.157 6  20888882.228 5     22318.812 5      -803.781 5        31.039 5
G23  20987292.700 6    -48118.111 6      1981.337 6        39.649 6  20987305.291 6    -34652.512 6      1479.448 6        36.475 6
G24  20887646.783 5     47254.480 5     -1724.645 5        34.138 5  20887649.781 6     33827.168 6     -1287.879 6        39.448 6
J03  36197344.90024      3539.71724       -21.68824        24.90024                                                                
J02                         0.00022       407.63822        17.20022  37433797.521 4     -5587.940 4       308.069 4        29.200 4
C43  24506574.65123        -0.00023     -1681.73623        20.00023                                        20.00023                        -0.00022     -1264.19222        12.60022
C14  22806280.44126    -23668.08326      1039.83326        36.77726                                                                                                                
C24  22245087.846 6    -42479.736 6      1766.918 6        40.360 6                                        40.36026  22245104.035 4    -19086.452 4      1330.407 4        27.043 4
C38  35963948.976 6     -7156.310 6       393.390 6        38.473 6                                        38.47326  35963963.966 5     -5327.615 5       296.065 5        29.695 5
C06  35984342.058 5     -3732.820 5       261.010 5        34.227 5                                                                                                                
S37                                        37.00026
C16  36281842.603 5       521.696 5        97.387 5        31.295 5                                                                                                                
C08  35756305.525 5    -17100.910 5       775.823 5        31.147 5                                                                                                                
C03  36124831.99925         0.00025       327.96025        31.43525                                                                                                                
C13  35952779.908 5    -21769.337 5       957.292 5        33.992 5                                                                                                                
R14                    -72505.41627      2944.16527        44.00027
R18                     73555.34524     -2773.54124        26.00024
R19                        -0.00022       -72.79622        15.00022
R03                         0.00024        37.69324        24.00024
R15                    -50182.43325      4589.20025        30.00025
J07  36571821.954 5     -6261.153 5       363.015 5        34.555 5  36571836.944 6     -4650.674 6       270.838 6        35.899 6
J04  38775721.926 5    -25312.398 5      1125.271 5        33.000 5                                                                
G32  24233918.208 5    -39352.258 5      1827.230 5        30.501 5  24233945.78824    -20814.79124      1364.04424        24.03624
G12  23637114.466 6    -58361.553 6      2453.797 6        38.181 6                                                                
C21                        -0.00023      -974.91023        21.46323                                        21.46323                                                                
E33                    -42181.692 5      1777.969 5        30.400 5  25592762.000 4    -30525.424 4      1438.844 4        27.499 4
C01  37002776.61125         0.00025       338.23725        31.97025                                                                                                                
C60  37511666.81325         0.00025       323.18725        35.00225                                                  37511670.41124     -3708.04824       232.01424        29.00024
C39  36174052.824 5      3786.754 5       -40.180 5        33.639 5                                        33.63925  36174070.212 4      2774.107 4       -30.937 4        27.260 4
C59  37029999.26526         0.00026       355.15626        39.35326                                                                                                                
C11  24731758.96024     57283.55324     -2280.56624        28.18624                                                                                                                
G10                         0.00022      3148.09422        17.07322                                                                
G05  25033183.488 6     57911.778 6     -2261.802 6        35.599 6                                                                
G25                         0.00023      3257.59223        18.45423  24009902.79024    -28871.34524      2429.73524        26.51824
G15                        -0.00023     -1664.65723        21.09423                                                                
E27                    -57690.607 5      2592.886 5        32.420 5  26353086.638 5    -45084.433 5      2063.031 5        33.967 5
E13                        -0.00023     -2563.24523        18.70023  26217887.73423     38170.78923     -1915.38023        22.00023
E30                         0.00022      1099.49022        15.50022                                                                
I03                                        33.700 5
C04  38411477.68724         0.00024       340.42824        28.28524                                                                                                                
C02  37466620.89824         0.00024       345.43924        23.92524                                                                                                                
C28  25332885.70823         0.00023       447.41523        20.90023                                                                         0.00022       334.41822        16.41322
C09  36856845.737 5     -7204.852 5       398.460 5        34.984 5                                                                                                                
E26                     19697.753 6      -675.965 6        41.440 6  23857361.492 5     13186.460 5      -442.456 5        29.631 5
I09                                        19.65723
C62                         0.00026       389.07526        36.40026                                                                                                                
C26                        -0.00023      -975.65023        19.81023                                        19.81023                                                                
C25                                                                                                                                    -12237.17425      2687.49325        29.70025
> 2023 08 18 08 10 48.0009999  0 48                      
G18  20889066.900 6     31878.917 6     -1068.153 6        40.129 6  20889086.386 5     23119.863 5      -797.476 5        31.134 5
G23  20986914.661 6    -50103.328 6      1989.869 6        39.575 6  20986927.552 6    -36134.995 6      1485.932 6        36.549 6
G24  20887976.255 5     48975.277 5     -1716.045 5        33.072 5  20887977.154 6     35112.117 6     -1281.395 6        39.399 6
J03  36197347.89724      3557.34924       -12.77324        25.60024                                                                
J02  37433743.55923         0.00023       419.96823        21.20023  37433718.076 4     -5899.179 4       315.424 4        29.230 4
C43  24506896.32923        -0.00023     -1671.91123        20.04023                                        20.04023                        -0.00022     -1255.78722        12.60022
C14  22806080.77926    -24711.15526      1048.03326        36.81826                                                                                                                
C24  22244748.781 6    -44249.791 6      1774.384 6        40.422 6                                        40.42226  22244764.070 4    -20420.486 4      1337.302 4        27.110 4
C38  35963874.028 6     -7553.576 6       402.255 6        38.544 6                                        38.54426  35963887.819 5     -5626.989 5       302.599 5        29.625 5
C06  35984291.094 5     -3997.210 5       269.211 5        34.205 5                                                                                                                
S37                                        36.00026
C16  36281822.517 5       420.684 5       105.988 5        31.315 5                                                                                                                
C08  35756156.228 5    -17880.240 5       784.689 5        31.119 5                                                                                                                
C03  36124767.84425         0.00025       336.42925        31.37825                                                                                                                
C13  35952595.536 5    -22730.571 5       966.091 5        34.042 5                                                                                                                
R14                    -75452.91627      2952.09827        44.00027
R18                     76325.82724     -2765.40424        29.00024
R19                        -0.00022       -62.14022        15.00022
R03                      1204.31124        45.55324        25.00024
R15                    -54775.03825      4597.47825        30.00025
J07  36571753.002 5     -6628.013 5       371.615 5        34.552 5  36571767.092 6     -4924.620 6       277.625 6        35.859 6
J04  38775507.874 5    -26441.803 5      1133.936 5        33.400 5                                                                
G32  24233571.348 5    -41183.019 5      1835.448 5        31.538 5  24233597.13024    -22181.82324      1370.34724        24.06824
G12  23636646.490 6    -60818.778 6      2461.929 6        38.191 6                                                                
C21                        -0.00023      -966.02423        21.43923                                        21.43923                                                                
E33                    -43962.567 5      1785.365 5        29.900 5  25592422.934 4    -31889.988 4      1446.365 4        27.599 4
C01  37002713.05525         0.00025       342.97025        31.98625                                                                                                                
C60  37511604.75625         0.00025       342.13525        35.00125                                                  37511614.94924         0.00024       227.84924        28.00024
C39  36174060.319 5      3823.645 5       -31.648 5        33.667 5                                        33.66725  36174077.407 4      2801.867 4       -24.229 4        27.382 4
C59  37029930.91226         0.00026       360.52226        39.32526                                                                                                                
C11  24732197.85624     59560.66424     -2272.68024        28.17624                                                                                                                
G10                         0.00022      3154.57822        17.02222                                                                
G05  25033613.690 6     60169.881 6     -2253.336 6        35.561 6                                                                
G25  24009315.49723         0.00023      3264.80123        20.82523  24009282.52024    -31304.35124      2436.60524        26.57124
G15                        -0.00023     -1653.33823        19.98823                                                                
E27                    -60287.125 5      2601.174 5        32.444 5  26352592.580 5    -47073.959 5      2071.348 5        33.993 5
E13                        -0.00022     -2558.26322        15.90022  26218376.99523     40082.00523     -1908.01323        20.30023
E30                         0.00022      1104.77522        15.90022                                                                
I03                                        33.700 5
C04  38411413.83224         0.00024       338.36124        28.16524                                                                                                                
C02  37466551.34624         0.00024       367.78124        23.85824                                                                                                                
C28  25332798.46923         0.00023       454.12223        21.00023                                                                         0.00022       343.86722        16.47222
C09  36856768.390 5     -7606.948 5       407.060 5        34.934 5                                                                                                                
E26                     20370.702 6      -668.608 6        41.438 6  23857489.504 5     13702.110 5      -434.101 5        29.704 5
I09                                        19.62923
C62                         0.00025       402.84425        35.10025                                                                                                                
C26                        -0.00022      -965.17222        15.80022                                        15.80022                                                                
C25                                                                                                                                    -14927.68825      2694.14025        29.60025
> 2023 08 18 08 10 49.0009999  0 48                      
G18  20889269.859 6     32943.665 6     -1060.488 6        40.115 6  20889289.046 5     23914.974 5      -792.748 5        31.160 5
G23  20986535.424 6    -52096.832 6      1997.669 6        39.484 6  20986548.315 6    -37623.646 6      1490.969 6        36.536 6
G24  20888302.129 5     50688.007 5     -1709.179 5        33.115 5  20888303.029 6     36391.122 6     -1276.698 6        39.388 6
J03  36197347.59824      3566.45624        -5.04824        24.50024                                                                
J02  37433669.51024         0.00024       428.64624        23.70024  37433637.132 4     -6216.702 4       320.026 4        29.278 4
C43  24507216.50723        -0.00023     -1662.77223        22.60023                                        22.60023                        -0.00022     -1253.85222        12.60022
C14  22805879.31826    -25762.67526      1055.76726        36.84726                                                                                                                
C24  22244407.917 6    -46027.892 6      1782.252 6        40.465 6                                        40.46526  22244422.607 4    -21760.365 4      1341.669 4        27.014 4
C38  35963797.281 6     -7959.173 6       409.921 6        38.616 6                                        38.61626  35963809.873 5     -5932.807 5       308.700 5        29.503 5
C06  35984239.230 5     -4269.935 5       276.411 5        34.249 5                                                                                                                
S37                                        37.00026
C16  36281801.531 5       311.416 5       113.256 5        31.374 5                                                                                                                
C08  35756005.133 5    -18667.760 5       791.790 5        31.188 5                                                                                                                
C03  36124701.58925         0.00025       351.63125        31.35425                                                                                                                
C13  35952409.365 5    -23700.212 5       973.624 5        34.084 5                                                                                                                
R14                    -78408.49127      2959.36627        43.00027
R18                     79088.04324     -2758.44924        29.00024
R19                        -0.00022       -55.15622        14.00022
R03                      1154.15324        53.50324        24.00024
R15                    -59376.49625      4606.00525        30.00025
J07  36571681.652 5     -7003.384 5       379.948 5        34.529 5  36571695.742 6     -5204.925 6       282.473 6        35.801 6
J04  38775290.225 5    -27579.872 5      1142.135 5        33.800 5                                                                
G32  24233223.588 5    -43022.177 5      1842.337 5        29.830 5  24233246.97224    -23555.33024      1375.31424        24.06524
G12  23636176.715 6    -63284.417 6      2469.664 6        38.208 6                                                                
C21                        -0.00023      -957.78723        21.33723                                        21.33723                                                                
E33                    -45751.603 5      1792.858 5        31.200 5  25592082.370 4    -33260.784 4      1455.023 4        27.714 4
C01  37002650.39825         0.00025       341.26325        31.96625                                                                                                                
C60  37511537.00325         0.00025       356.86925        34.99525                                                  37511542.69924     -4160.26524       227.10124        28.00024
C39  36174065.715 5      3852.175 5       -24.316 5        33.693 5                                        33.69325  36174082.804 4      2823.417 4       -19.028 4        27.377 4
C59  37029860.46126         0.00026       365.06226        39.30326                                                                                                                
C11  24732634.35424     61829.20324     -2263.50124        28.12224                                                                                                                
G10                         0.00022      3163.35022        16.97322                                                                
G05  25034042.393 6     62419.689 6     -2245.206 6        35.514 6                                                                
G25  24008700.92224         0.00024      3273.75924        24.59524  24008661.05024    -33743.79024      2441.94424        26.58124
G15                        -0.00023     -1643.99623        20.58823                                                                
E27                    -62892.137 5      2608.747 5        32.511 5  26352097.023 5    -49069.927 5      2080.499 5        34.028 5
E13                        -0.00023     -2547.15423        18.00023  26218863.55823     41987.00223     -1902.86223        22.40023
E30                         0.00022      1111.79422        16.70022                                                                
I03                                        33.100 5
C04  38411348.17724         0.00024       329.51324        28.16124                                                                                                                
C02  37466478.79624         0.00024       390.65924        23.83024                                                                                                                
C28  25332709.13023         0.00023       463.10923        20.80023                                                                         0.00022       346.23822        16.46322
C09  36856689.845 5     -8017.359 5       414.660 5        34.937 5                                                                                                                
E26                     21035.507 6      -660.876 6        41.431 6  23857616.016 5     14211.558 5      -425.486 5        29.733 5
I09                                        19.67723
C62                         0.00026       415.93326        36.40026                                                                                                                
C26                        -0.00022      -959.10022        12.60022                                        12.60022                                                                
C25                                                                                                                                    -17624.60624      2699.68724        29.20024
> 2023 08 18 08 10 50.0009999  0 48                      
G18  20889471.620 6     34001.061 6     -1053.489 6        40.111 6  20889490.207 5     24704.597 5      -786.833 5        31.128 5
G23  20986154.987 6    -54098.041 6      2005.001 6        39.434 6  20986167.579 6    -39118.066 6      1497.339 6        36.545 6
G24  20888628.004 5     52393.299 5     -1702.113 5        33.160 5  20888627.704 6     37664.529 6     -1270.556 6        39.410 6
J03  36197346.69823         0.00023         3.38123        23.20023                                                                
J02  37433592.16324     -8837.57124       435.44724        25.60024  37433554.689 4     -6540.144 4       326.336 4        29.354 4
C43  24507535.78623        -0.00023     -1656.51323        22.55523                                        22.55523                        -0.00021     -1245.15521        12.10021
C14  22805676.35926    -26822.04126      1062.90126        36.87426                                                                                                                
C24  22244065.554 6    -47813.420 6      1789.185 6        40.501 6                                        40.50126  22244079.944 4    -23106.066 4      1348.564 4        27.078 4
C38  35963718.736 6     -8372.470 6       416.986 6        38.715 6                                        38.71526  35963730.428 4     -6244.137 4       314.313 4        26.300 4
C06  35984185.567 5     -4550.494 5       284.276 5        34.281 5                                                                                                                
S37                                        38.00026
C16  36281778.148 5       194.265 5       120.963 5        31.335 5                                                                                                                
C08  35755852.239 5    -19463.071 5       798.790 5        31.203 5                                                                                                                
C03  36124633.83625         0.00025       357.29125        34.10025                                                                                                                
C13  35952221.395 5    -24677.650 5       981.490 5        34.099 5                                                                                                                
R14  20571184.66527    -81371.54627      2966.63327        44.00027
R18  21469094.55524     81842.54624     -2749.80924        28.00024
R19                        -0.00022       -52.48722        13.00022
R03  21553597.35524      1095.86824        60.85024        25.00024
R15  23495572.85325    -63985.99125      4613.47425        30.00025
J07  36571608.802 5     -7386.751 5       387.014 5        34.522 5  36571622.593 6     -5491.216 6       289.184 6        35.710 6
J04  38775072.276 5    -28725.946 5      1150.401 5        33.765 5                                                                
G32  24232873.131 5    -44869.217 5      1850.375 5        31.809 5  24232905.209 4    -24934.589 4      1382.577 4        24.118 4
G12  23635705.142 6    -65757.833 6      2476.730 6        38.181 6                                                                
C21                        -0.00023      -950.76223        21.24023                                        21.24023                                                                
E33                    -47548.256 5      1799.577 5        29.500 5  25591740.607 4    -34637.384 4      1461.544 4        27.808 4
C01  37002583.84425         0.00025       349.47625        34.80025                                                                                                                
C60  37511470.74925         0.00025       356.34825        35.04525                                                  37511483.64024     -4395.37224       233.07224        26.00024
C39  36174069.913 5      3872.902 5       -16.984 5        33.778 5                                        33.77825  36174086.701 4      2838.906 4       -12.138 4        27.458 4
C59  37029789.11026         0.00026       378.85526        39.31726                                                                                                                
C11  24733069.65224     64089.88424     -2256.02324        28.05524                                                                                                                
G10                         0.00022      3171.88822        16.92722                                                                
G05  25034468.998 5     64661.674 5     -2238.139 5        35.446 5                                                                
G25  24008075.55524         0.00024      3280.09924        25.02224  24008047.674 4    -36189.246 4      2448.326 4        26.653 4
G15  22985285.01823        -0.00023     -1639.27423        20.77923                                                                
E27                    -65505.079 5      2616.869 5        32.530 5  26351599.667 5    -51072.010 5      2087.172 5        34.086 5
E13                        -0.00023     -2540.05423        17.70023  26219348.02323     43886.14723     -1896.03323        20.20023
E30                         0.00022      1118.19622        16.90022                                                                
I03                                        32.000 5
C04  38411278.02625         0.00025       361.42925        31.00025                                                                                                                
C02  37466405.94724         0.00024       384.93124        23.81824                                                                                                                
C28  25332618.29323         0.00023       471.39423        20.10023                                                                         0.00022       356.54722        16.44422
C09  36856609.800 5     -8435.481 5       421.859 5        34.960 5                                                                                                                
E26                     21692.813 6      -653.735 6        41.439 6  23857741.030 5     14715.177 5      -418.778 5        29.726 5
I09                                        19.72323
C62                         0.00026       423.73926        39.40026                                                                                                                
C26  23589685.80023        -0.00023      -951.78023        20.30023                                        20.30023                                                                
C25                                                                                                                                    -20327.42024      2705.82124        29.23524
> 2023 08 18 08 10 51.0009999  0 48                      
G18  20889671.581 6     35051.178 6     -1046.554 6        40.121 6  20889689.869 5     25488.671 5      -780.589 5        31.113 5
G23  20985772.152 6    -56106.868 6      2012.133 6        39.401 6  20985785.343 6    -40618.156 6      1502.959 6        36.579 6
G24  20888953.279 5     54091.203 5     -1694.913 5        33.265 5  20888950.580 6     38932.388 6     -1264.821 6        39.387 6
J03  36197345.19923      3560.19123        11.00323        23.32023                                                                
J02  37433511.81924     -9278.82324       444.50924        26.40024  37433470.747 4     -6869.540 4       332.569 4        29.381 4
C43  24507853.56623     47859.81823     -1651.96623        22.62223                                        22.62223                        -0.00021     -1239.36421        12.10021
C14  22805471.60126    -27889.28826      1070.76726        36.87526                                                                                                                
C24  22243721.992 6    -49606.310 6      1796.453 6        40.530 6                                        40.53026  22243735.482 4    -24457.227 4      1354.457 4        27.074 4
C38  35963638.991 6     -8793.473 6       424.586 6        38.824 6                                        38.82426  35963649.484 4     -6561.479 4       320.463 4        26.400 4
C06  35984130.405 5     -4838.768 5       292.209 5        34.306 5                                                                                                                
S37                                        38.00026
C16  36281753.864 5        69.382 5       128.277 5        31.348 5                                                                                                                
C08  35755698.145 5    -20266.101 5       806.590 5        31.247 5                                                                                                                
C03  36124563.38525         0.00025       363.48325        31.40025                                                                                                                
C13  35952031.327 5    -25662.700 5       988.357 5        34.114 5                                                                                                                
R14  20570627.951 7    -84341.518 7      2974.033 7        43.000 7
R18  21469609.898 4     84589.376 4     -2741.918 4        27.000 4
R19                        -0.00021       -41.28721        11.00021
R03  21553587.16224      1029.50824        71.27724        24.00024
R15  23494711.250 5    -68603.570 5      4621.835 5        30.000 5
J07  36571534.753 5     -7777.959 5       394.614 5        34.595 5  36571548.244 6     -5783.398 6       295.335 6        35.614 6
J04  38774851.929 5    -29879.926 5      1158.335 5        33.701 5                                                                
G32  24232525.072 5    -46724.008 5      1858.375 5        31.010 5  24232552.053 4    -26319.613 4      1388.219 4        24.112 4
G12  23635232.669 6    -68238.922 6      2484.530 6        38.185 6                                                                
E33                    -49352.462 5      1808.079 5        29.600 5  25591397.344 4    -36019.666 4      1470.620 4        27.917 4
C01  37002514.59225         0.00025       364.82525        34.78025                                                                                                                
C60  37511401.19725         0.00025       360.37325        35.06225                                                  37511408.99224         0.00024       253.73924        29.00024
C39  36174072.311 5      3885.827 5        -8.719 5        33.889 5                                        33.88925  36174089.099 4      2848.700 4        -6.681 4        27.450 4
C59  37029717.46026         0.00026       382.47626        39.23626                                                  37029709.96524         0.00024       307.69524        26.00024
C11  24733503.152 4     66343.346 4     -2249.867 4        27.962 4                                                                                                                
G10                         0.00022      3182.11722        16.94322                                                                
G05  25034892.005 5     66896.029 5     -2230.253 5        32.302 5                                                                
G25                    -68130.37424      3286.91224        25.79424  24007422.907 4    -38640.809 4      2455.648 4        26.600 4
G15                        -0.00023     -1630.63323        21.60523                                                                
E27                    -68125.896 5      2624.638 5        32.578 5  26351100.813 5    -53080.092 5      2096.399 5        34.111 5
E13                        -0.00023     -2529.44923        17.72023  26219830.08923     45779.32723     -1890.68423        20.70023
E30                         0.00023      1128.16523        20.00023                                                                
I03                                        33.800 5
C04  38411205.77625         0.00025       361.64625        31.00525                                                                                                                
C02  37466332.19824         0.00024       371.15624        23.81224                                                                                                                
C28  25332524.15823         0.00023       481.54123        20.08023                                                                         0.00022       362.50522        16.42622
C09  36856528.256 5     -8861.373 5       429.457 5        34.937 5                                                                                                                
E26                     22342.626 6      -646.114 6        41.437 6  23857864.544 5     15213.158 5      -409.424 5        29.684 5
I09                                        16.70022
C62  38528806.86226         0.00026       420.64226        37.80026                                                                                                                
C26  23589869.27323        -0.00023      -947.61823        20.42023                                        20.42023  23589863.877 3     -3788.179 3      -711.890 3        22.000 3
C21                                                                                                        25.00024                                                                
C25                                                                                                                  25083787.555 4    -23036.082 4      2711.850 4        29.228 4
> 2023 08 18 08 10 52.0009999  0 48                      
G18  20889870.044 6     36094.578 6     -1041.089 6        40.134 6  20889888.331 5     26267.862 5      -777.248 5        31.125 5
G23  20985388.118 6    -58122.776 6      2018.266 6        39.337 6  20985401.909 6    -42123.606 6      1507.376 6        36.603 6
G24  20889275.256 5     55782.233 5     -1688.780 5        33.349 5  20889272.258 6     40195.206 6     -1261.087 6        39.377 6
J03  36197340.70224      3546.37224        17.27424        26.70024                                                                
J02  37433427.87725     -9727.10625       450.78825        30.30025  37433385.307 4     -7204.369 4       337.007 4        29.431 4
C43  24508170.14723        -0.00023     -1642.53723        22.59523                                        22.59523                        -0.00021     -1237.17721        12.10021
C14  22805265.04426    -28963.72226      1077.16726        36.89126                                                                                                                
C24  22243376.631 6    -51405.971 6      1801.920 6        40.543 6                                        40.54326  22243389.822 4    -25813.537 4      1358.031 4        27.000 4
C38  35963557.447 6     -9221.604 6       430.518 6        38.887 6                                        38.88726  35963567.340 4     -6884.064 4       324.563 4        26.485 4
C06  35984073.744 5     -5134.121 5       297.407 5        34.360 5                                                                                                                
S37                                        38.00026
C16  36281728.382 5       -62.618 5       133.899 5        31.385 5                                                                                                                
C08  35755542.553 5    -21076.244 5       811.855 5        31.324 5                                                                                                                
C03  36124490.53625         0.00025       357.09525        31.41025                                                                                                                
C13  35951840.659 5    -26655.035 5       994.756 5        34.188 5                                                                                                                
R14  20570069.137 7    -87318.772 7      2979.633 7        43.000 7
R18  21470123.743 4     87329.294 4     -2736.879 4        26.000 4
R19                        -0.00021       -35.01521        12.00021
R03  21553572.77223         0.00023        76.17623        23.00023
R15  23493846.648 5    -73228.703 5      4628.055 5        30.000 5
J07  36571458.606 5     -8176.485 5       400.880 5        34.645 5  36571472.396 6     -6081.012 6       299.563 6        35.638 6
J04  38774630.382 5    -31041.318 5      1163.868 5        33.710 5                                                                
G32  24232167.719 5    -48586.134 5      1865.218 5        29.902 5  24232197.399 4    -27710.067 4      1392.343 4        24.072 4
G12  23634760.196 6    -70727.244 6      2490.463 6        38.064 6                                                                
E33                    -51163.418 5      1813.744 5        32.400 5  25591052.583 4    -37407.275 4      1476.544 4        28.036 4
C01  37002444.74125         0.00025       358.76525        34.67125                                                                                                                
C60  37511329.84725         0.00025       377.57225        35.04825                                                  37511346.33524         0.00024       260.27024        27.00024
C39  36174073.810 5      3891.623 5        -3.185 5        33.959 5                                        33.95925  36174090.298 4      2853.136 4        -2.687 4        27.402 4
C59  37029644.01126         0.00026       387.11026        39.12426                                                  37029642.81224         0.00024       244.99324        26.00024
C11  24733935.453 4     68588.847 4     -2242.271 4        27.913 4                                                                                                                
G10                         0.00022      3186.44222        16.95922                                                                
G05  25035316.811 5     69123.252 5     -2224.919 5        32.283 5                                                                
G25                    -71420.67824      3293.78624        27.16224  24006796.940 4    -41097.764 4      2459.090 4        26.554 4
G15                        -0.00023     -1628.00323        18.18023                                                                
E27                    -70754.008 5      2630.994 5        32.579 5  26350601.058 5    -55093.758 5      2102.436 5        34.145 5
E13                        -0.00023     -2524.11023        17.68423  26220311.25623        -0.00023     -1885.95123        21.40023
E30                         0.00023      1134.16623        19.20023                                                                
I03                                        33.795 5
C04  38411132.32625         0.00025       377.47725        30.90425                                                                                                                
C02  37466262.94624         0.00024       379.77924        23.76124                                                                                                                
C28  25332430.62323         0.00023       483.05523        20.04623                                                                         0.00022       363.83022        16.47922
C09  36856444.914 5     -9294.355 5       435.524 5        34.915 5                                                                                                                
E26                     22985.578 6      -640.242 6        41.435 6  23857986.859 5     15705.916 5      -404.016 5        29.654 5
I09                                        16.70022
C62  38528720.82225         0.00025       436.95325        35.10025                                                                                                                
C26  23590051.84724     23398.69724      -941.30724        24.90024                                        24.90024  23590043.753 4     -3077.112 4      -709.958 4        23.900 4
C21                                                                                                        24.00024                                                                
C25                                                                                                                  25083095.934 4    -25750.125 4      2715.770 4        29.241 4
> 2023 08 18 08 10 53.0009999  0 47                      
G18  20890067.307 6     37130.988 6     -1034.089 6        40.168 6  20890085.595 5     27041.842 5      -772.142 5        31.147 5
G23  20985003.484 6    -60146.040 6      2025.599 6        39.259 6  20985016.975 6    -43634.413 6      1512.883 6        36.612 6
G24  20889596.034 5     57466.251 5     -1681.789 5        33.271 5  20889592.736 6     41452.769 6     -1255.769 6        39.364 6
J03  36197335.30623         0.00023        24.25223        22.10023                                                                
J02  37433342.73625    -10182.87025       459.21825        31.30025  37433298.667 4     -7544.745 4       341.905 4        29.394 4
C43  24508485.22923        -0.00023     -1634.55323        22.58023                                        22.58023                        -0.00022     -1231.46522        17.00022
C14  22805057.58726    -30045.61226      1084.29926        36.87126                                                                                                                
C24  22243029.471 6    -53212.670 6      1808.987 6        40.495 6                                        40.49526  22243042.962 4    -27174.930 4      1363.190 4        27.000 4
C38  35963474.705 6     -9657.037 6       438.251 6        38.992 6                                        38.99226  35963483.399 4     -7212.256 4       330.375 4        26.470 4
C06  35984015.884 5     -5436.879 5       305.607 5        34.402 5                                                                                                                
S37                                        38.00026
C16  36281701.401 5      -202.010 5       142.097 5        31.465 5                                                                                                                
C08  35755386.361 5    -21893.699 5       820.059 5        31.297 5                                                                                                                
C03  36124418.58525         0.00025       382.23925        31.51425                                                                                                                
C13  35951648.791 5    -27654.662 5      1002.222 5        34.203 5                                                                                                                
R14  20569508.825 7    -90303.092 7      2986.566 7        43.000 7
R18  21470635.78824        -0.00024     -2728.85724        24.00024
R03                         0.00023        83.62023        19.00023
R15  23492982.047 5    -77861.565 5      4635.554 5        31.000 5
J07  36571381.859 5     -8582.610 5       408.680 5        34.642 5  36571395.050 6     -6384.240 6       305.183 6        35.601 6
J04  38774408.536 5    -32210.363 5      1171.668 5        33.669 5                                                                
G32  24231813.664 4    -50455.452 4      1872.156 4        26.048 4  24231841.545 4    -29106.026 4      1397.945 4        24.004 4
G12  23634287.123 6    -73222.966 6      2497.663 6        38.026 6                                                                
E33                    -52981.572 5      1820.725 5        29.500 5  25590706.622 5    -38800.374 5      1484.240 5        30.800 5
C01  37002373.39025         0.00025       367.65525        34.70225                                                                                                                
C60  37511257.89725         0.00025       381.24425        35.06025                                                  37511268.08924         0.00024       263.34924        26.00024
C39  36174074.110 5      3890.027 5         4.415 5        34.081 5                                        34.08125  36174089.999 4      2851.890 4         3.065 4        27.391 4
C59  37029566.36526         0.00026       397.31926        39.13726                                                  37029558.57024         0.00024       253.02724        24.00024
C11  24734365.655 4     70827.034 4     -2236.460 4        27.847 4                                                                                                                
G10                         0.00021      3197.25821        11.70021                                                                
G05  25035738.619 5     71343.228 5     -2217.081 5        31.035 5                                                                
G25                    -74718.57424      3301.62524        28.42324  24006169.175 4    -43560.539 4      2464.889 4        26.675 4
G15                        -0.00022     -1614.19122        17.00522                                                                
E27                    -73389.532 5      2638.203 5        35.100 5  26350099.206 5    -57113.138 5      2110.436 5        34.172 5
E13                        -0.00023     -2517.28323        17.70423  26220791.22423     49548.56323     -1880.26323        23.10023
E30                         0.00023      1138.84423        19.20023                                                                
I03                                        33.725 5
C04  38411058.27825         0.00025       393.91225        30.88825                                                                                                                
C02  37466188.89724         0.00024       374.08824        23.71224                                                                                                                
C28  25332334.39023         0.00023       489.89823        20.10823                                                                         0.00022       368.93022        16.45022
C09  36856360.073 5     -9734.732 5       443.390 5        34.884 5                                                                                                                
E26                     23621.483 6      -633.625 6        41.403 6  23858107.976 5     16193.174 5      -396.473 5        29.646 5
I09                                        16.70022
C62  38528644.67426         0.00026       445.76226        38.10026                                                                                                                
C26  23590232.62224     24335.30524      -933.11724        24.97524                                        24.97524  23590223.928 3     -2371.206 3      -704.848 3        22.400 3
C21                                                                                                        26.00024                                                                
C25                                                                                                                  25082403.114 4    -28469.833 4      2721.656 4        29.268 4
> 2023 08 18 08 10 54.0009999  0 47                      
G18  20890263.372 6     38160.888 6     -1027.622 6        40.190 6  20890281.659 5     27810.935 5      -766.242 5        31.193 5
G23  20984616.153 6    -62176.066 6      2032.397 6        39.194 6  20984630.842 6    -45150.365 6      1518.784 6        36.667 6
G24  20889916.212 5     59143.637 5     -1675.002 5        33.287 5  20889912.015 6     42705.373 6     -1249.830 6        39.342 6
J03  36197327.81124         0.00024        30.93924        23.60024                                                                
J02  37433256.39624    -10645.80424       465.55624        28.70024  37433210.228 4     -7890.398 4       348.450 4        29.389 4
C43  24508797.91223        -0.00023     -1627.77223        22.61623                                        22.61623                        -0.00022     -1225.17222        16.95522
C14  22804849.53126    -31134.57926      1091.56426        36.88726                                                                                                                
C24  22242680.812 6    -55025.991 6      1815.453 6        40.500 6                                        40.50026  22242694.603 4    -28541.598 4      1369.581 4        27.085 4
C38  35963389.863 6    -10099.391 6       444.717 6        39.087 6                                        39.08726  35963398.557 4     -7545.599 4       336.253 4        26.571 4
C06  35983955.926 5     -5746.570 5       312.074 5        34.426 5                                                                                                                
S37                                        38.00026
C16  36281674.120 5      -348.362 5       148.963 5        31.511 5                                                                                                                
C08  35755228.370 5    -22718.107 5       826.953 5        31.352 5                                                                                                                
C03  36124344.53725         0.00025       390.77325        31.48325                                                                                                                
C13  35951456.624 5    -28661.276 5      1009.154 5        34.252 5                                                                                                                
R14  20568947.914 7    -93294.024 7      2992.900 7        43.000 7
R18  21471146.93423        -0.00023     -2723.52123        23.00023
R03  21553539.19523         0.00023        92.72823        22.00023
R15  23492111.150 5    -82501.746 5      4642.376 5        32.000 5
J07  36571303.314 5     -8995.813 5       415.611 5        34.634 5  36571316.205 6     -6692.851 6       311.690 6        35.570 6
J04  38774186.389 5    -33386.592 5      1178.067 5        33.650 5                                                                
G32  24231457.511 4    -52331.852 4      1878.163 4        29.274 4  24231484.492 4    -30507.297 4      1405.166 4        24.008 4
G12  23633809.554 6    -75725.538 6      2504.597 6        38.057 6                                                                
E33                    -54806.395 5      1826.765 5        29.570 5  25590359.463 5    -40198.585 5      1490.178 5        30.815 5
C01  37002301.44025         0.00025       381.91025        31.80025                                                                                                                
C60  37511184.44725         0.00025       378.92125        35.04725                                                  37511188.64424         0.00024       257.76624        29.00024
C39  36174073.210 5      3881.404 5        10.747 5        34.171 5                                        34.17125  36174088.500 4      2845.359 4         9.319 4        27.446 4
C59  37029490.81726         0.00026       404.62426        39.11526                                                                                                                
C11  24734795.258 4     73057.947 4     -2229.038 4        27.754 4                                                                                                                
G10                         0.00021      3200.42621        11.70021                                                                
G05  25036160.427 5     73556.221 5     -2210.830 5        30.527 5                                                                
G25                    -78023.58525      3306.62125        30.43425  24005540.210 4    -46028.726 4      2471.125 4        26.743 4
G15                        -0.00022     -1605.47522        16.83322                                                                
E27                    -76032.164 5      2645.194 5        35.005 5  26349596.454 5    -59137.989 5      2116.754 5        34.178 5
E13                        -0.00023     -2513.83923        19.70023  26221269.39323     51425.69223     -1873.35523        23.05023
E30                         0.00023      1148.31523        19.20023                                                                
I03                                        33.723 5
C04  38410983.03025         0.00025       381.20025        30.94825                                                                                                                
C02  37466114.84824         0.00024       393.12024        23.70124                                                                                                                
C28  25332237.85723         0.00023       495.17323        20.21223                                                                         0.00022       373.31422        16.48222
C09  36856274.032 5    -10182.045 5       450.255 5        34.839 5                                                                                                                
E26                     24250.651 6      -627.108 6        41.402 6  23858227.593 5     16675.381 5      -390.647 5        29.618 5
I09                                        16.66022
C62  38528556.23626         0.00026       441.25626        38.08526                                                                                                                
C26  23590412.79724     25265.39024      -928.10024        27.50024                                        27.50024  23590402.604 3     -1670.268 3      -698.515 3        23.200 3
C21                                                                                                        24.00024                                                                
C25                                                                                                                  25081708.794 4    -31194.776 4      2727.939 4        29.289 4
> 2023 08 18 08 10 55.0009999  0 48                      
G18  20890458.237 6     39184.356 6     -1018.755 6        40.212 6  20890476.524 5     28575.167 5      -760.084 5        31.210 5
G23  20984228.221 6    -64212.943 6      2041.797 6        39.117 6  20984243.211 6    -46671.421 6      1525.314 6        36.715 6
G24  20890234.891 5     60814.524 5     -1666.002 5        33.278 5  20890229.795 6     43953.085 6     -1243.528 6        39.321 6
J03  36197320.01723         0.00023        40.32923        22.20023                                                                
J02  37433169.45624    -11115.93924       476.28524        26.60024  37433120.890 4     -8241.443 4       355.626 4        29.394 4
C43  24509109.39723        -0.00023     -1619.57223        22.62023                                        22.62023                        -0.00022     -1220.37322        16.99222
C14  22804639.37726    -32230.56326      1101.16526        36.88726                                                                                                                
C24  22242330.955 6    -56845.864 6      1824.586 6        40.505 6                                        40.50526  22242345.045 4    -29912.919 4      1375.782 4        27.135 4
C38  35963304.722 6    -10548.575 6       454.051 6        39.157 6                                        39.15726  35963312.217 4     -7884.018 4       342.628 4        26.637 4
C06  35983894.768 5     -6063.179 5       321.274 5        34.459 5                                                                                                                
S37                                        37.00026
C16  36281644.740 5      -501.612 5       158.230 5        31.605 5                                                                                                                
C08  35755068.881 5    -23549.404 5       836.487 5        31.439 5                                                                                                                
C03  36124268.68925         0.00025       404.54325        31.44825                                                                                                                
C13  35951262.059 5    -29674.747 5      1018.754 5        34.254 5                                                                                                                
R14  20568384.903 6    -96291.569 6      3002.234 6        41.000 6
R18  21471658.08024        -0.00024     -2712.49324        24.00024
R19                        -0.00023       -15.79823        19.00023
R03  21553520.00923         0.00023       101.18823        20.00023
R15  23491238.454 5    -87149.235 5      4652.891 5        31.000 5
J07  36571221.770 5     -9416.110 5       425.078 5        34.622 5  36571236.460 6     -7006.665 6       318.183 6        35.526 6
J04  38773961.545 5    -34570.000 5      1188.532 5        33.532 5                                                                
G32  24231099.859 4    -54215.302 4      1888.584 4        25.454 4  24231125.941 4    -31913.658 4      1410.403 4        23.984 4
G12  23633329.886 6    -78234.993 6      2514.463 6        38.118 6                                                                
E33                    -56637.935 5      1836.464 5        29.656 5  25590010.804 5    -41601.862 5      1499.519 5        30.764 5
C01  37002228.29025         0.00025       392.08325        31.81025                                                                                                                
C60  37511110.09925         0.00025       395.66525        35.07425                                                  37511122.39024     -5664.32724       254.67324        27.00024
C39  36174070.812 5      3865.813 5        20.613 5        34.242 5                                        34.24225  36174085.502 4      2833.695 4        16.074 4        27.483 4
C59  37029413.47026         0.00026       417.31926        39.03926                                                                                                                
C11  24735222.46223        -0.00023     -2219.47023        23.30023                                                                                                                
G10                         0.00021      3210.16521        11.70021                                                                
G05  25036579.237 5     75762.274 5     -2200.076 5        30.270 5                                                                
G25                    -81336.09825      3318.02725        31.14925  24004909.747 4    -48502.430 4      2479.470 4        26.802 4
G15                        -0.00022     -1594.06222        16.83322                                                                
E27                    -78681.884 5      2654.775 5        34.969 5  26349092.203 5    -61168.176 5      2126.285 5        34.229 5
E13                        -0.00023     -2505.88423        19.20023  26221746.66323     53297.87723     -1867.91223        22.96723
E30                         0.00023      1155.29323        19.24023                                                                
I03                                        33.726 5
C04  38410908.68125         0.00025       396.40525        31.00525                                                                                                                
C02  37466039.90024         0.00024       391.74824        23.69024                                                                                                                
C28  25332140.12423         0.00023       504.60523        20.30123                                                                         0.00022       378.85522        16.51222
C09  36856186.793 5    -10636.207 5       459.055 5        34.847 5                                                                                                                
E26                     24873.166 6      -617.702 6        41.376 6  23858346.011 5     17152.432 5      -381.018 5        29.637 5
I09                                        16.62222
C62  38528466.89726         0.00026       459.33926        38.07526                                                                                                                
C26  23590591.47324     26188.96524      -918.35924        27.54024                                        27.54024  23590580.081 3      -974.365 3      -691.869 3        21.500 3
C21                                                                                                        23.00023                                                                
C25                                                                                                                  25081013.276 4    -33925.000 4      2734.534 4        29.379 4
> 2023 08 18 08 10 56.0009999  0 48                      
G18  20890651.303 6     40201.715 6     -1013.954 6        40.220 6  20890670.190 5     29334.953 5      -757.223 5        31.116 5
G23  20983838.791 6    -66256.282 6      2046.797 6        39.027 6  20983854.680 6    -48197.263 6      1528.457 6        36.734 6
G24  20890552.072 5     62479.182 5     -1661.267 5        33.284 5  20890546.376 6     45196.166 6     -1240.574 6        39.270 6
J03  36197311.62323         0.00023        46.50623        21.60023                                                                
J02  37433082.216 4    -11592.658 4       481.817 4        26.700 4  37433030.053 4     -8597.325 4       358.858 4        29.379 4
C43  24509419.98223        -0.00023     -1614.01823        22.57423                                        22.57423                        -0.00022     -1214.62522        17.00222
C14  22804427.72326    -33333.10526      1106.16426        36.93726                                                                                                                
C24  22241980.497 6    -58671.924 6      1829.719 6        40.484 6                                        40.48426  22241994.588 4    -31288.994 4      1379.090 4        27.193 4
C38  35963217.782 6    -11004.289 6       459.718 6        39.239 6                                        39.23926  35963224.678 4     -8227.489 4       346.323 4        26.750 4
C06  35983833.011 5     -6386.346 5       326.940 5        34.481 5                                                                                                                
S37                                        38.00026
C16  36281614.461 5      -661.387 5       164.097 5        31.674 5                                                                                                                
C08  35754908.792 5    -24387.161 5       841.310 5        31.492 5                                                                                                                
C03  36124191.64325         0.00025       404.05125        31.57025                                                                                                                
C13  35951066.594 5    -30694.734 5      1023.487 5        34.326 5                                                                                                                
R14  20567821.294 7    -99295.391 7      3007.234 7        42.000 7
R18  21472166.82823        -0.00023     -2706.75923        23.00023
R19                        -0.00023        -7.14923        18.00023
R03                         0.00023       107.46323        19.00023
R15  23490368.157 5    -91803.573 5      4657.316 5        31.000 5
J07  36571139.327 5     -9843.131 5       430.278 5        34.700 5  36571154.916 5     -7325.535 5       321.780 5        35.494 5
J04  38773734.302 5    -35760.155 5      1193.998 5        33.485 5                                                                
G32  24230742.50624         0.00024      1894.51224        24.05424  24230766.190 4    -33324.963 4      1414.020 4        23.948 4
G12  23632807.348 6    -80751.055 6      2520.064 6        40.407 6                                                                
E33                    -58475.733 5      1841.068 5        29.768 5  25589661.246 5    -43009.988 5      1504.737 5        30.705 5
C01  37002152.14325         0.00025       391.38525        35.40025                                                                                                                
C60  37511036.65025         0.00025       405.36125        35.04025                                                  37511040.54724     -5933.52924       271.85824        27.00024
C39  36174066.615 5      3843.730 5        25.946 5        34.309 5                                        34.30925  36174081.305 4      2817.053 4        18.914 4        27.418 4
C59  37029331.32726         0.00026       422.70526        38.93226                                                                                                                
C11  24735647.56823        -0.00023     -2213.59623        23.22523                                                                                                                
G10                         0.00022      3216.12022        16.36422                                                                
G05  25036996.848 4     77962.023 4     -2195.194 4        29.351 4                                                                
G25  24004280.78225    -84655.31525      3322.88525        30.42025  24004278.384 4    -50980.825 4      2481.354 4        26.882 4
G15                        -0.00022     -1588.26522        16.81922                                                                
E27                    -81338.180 5      2659.590 5        35.035 5  26348586.753 5    -63203.553 5      2132.374 5        34.262 5
E13                        -0.00022     -2498.21322        16.90022  26222222.43323     55164.47323     -1863.50223        22.88323
E30                         0.00023      1158.94923        19.26823                                                                
I03                                        33.724 5
C04  38410830.13625         0.00025       395.35825        31.10925                                                                                                                
C02  37465964.05324         0.00024       384.45624        23.60024                                                                                                                
C28  25332041.79223         0.00023       509.91523        20.41023                                                                         0.00022       384.57622        16.50622
C09  36856097.754 5    -11096.887 5       464.455 5        34.824 5                                                                                                                
E26                     25489.455 6      -613.003 6        41.357 6  23858463.230 5     17624.709 5      -375.345 5        29.655 5
I09                                        16.58522
C62  38528377.25926         0.00026       470.21226        37.99626                                                                                                                
C26  23590768.65124     27106.41524      -914.66024        27.56324                                        27.56324  23590756.059 3      -282.952 3      -688.503 3        22.300 3
C21                                                                                                        24.00024                                                                
C25                                                                                                                  25080316.258 4    -36660.168 4      2737.668 4        29.375 4
> 2023 08 18 08 10 57.0009999  0 49                      
G18  20890844.070 6     41213.151 6     -1007.755 6        40.232 6  20890862.657 5     30090.211 5      -753.982 5        31.045 5
G23  20983448.461 6    -68305.856 6      2053.529 6        38.929 6  20983464.650 6    -49727.801 6      1531.874 6        36.765 6
G24  20890867.753 5     64137.827 5     -1654.762 5        33.261 5  20890862.057 6     46434.754 6     -1237.423 6        39.217 6
J03  36197300.53023         0.00023        52.24123        21.30023                                                                
J02  37432994.377 4    -12075.729 4       488.892 4        28.000 4  37432938.016 4     -8958.152 4       362.669 4        29.375 4
C43  24509729.06823        -0.00023     -1607.23923        22.53523                                        22.53523                        -0.00022     -1211.83422        17.01122
C14  22804214.87126    -34442.11126      1112.76526        36.94026                                                                                                                
C24  22241628.541 6    -60503.942 6      1835.851 6        40.509 6                                        40.50926  22241642.631 4    -32669.561 4      1381.291 4        27.188 4
C38  35963129.643 6    -11466.250 6       465.652 6        39.337 6                                        39.33726  35963135.939 4     -8575.651 4       349.178 4        26.797 4
C06  35983770.054 5     -6715.777 5       333.139 5        34.496 5                                                                                                                
S37                                        38.00026
C16  36281583.582 5      -827.511 5       170.096 5        31.760 5                                                                                                                
C08  35754746.904 5    -25231.216 5       848.042 5        31.522 5                                                                                                                
C03  36124113.99625         0.00025       408.57625        31.55125                                                                                                                
C13  35950869.631 5    -31721.050 5      1030.419 5        34.379 5                                                                                                                
R14  20567255.585 7   -102305.137 7      3013.300 7        42.000 7
R18  21472674.07723        -0.00023     -2700.97623        21.00023
R19                        -0.00023        -4.25723        18.00023
R03                         0.00023       113.54223        18.00023
R15  23489495.161 5    -96464.469 5      4664.649 5        31.000 5
J07  36571057.484 5    -10276.638 5       437.410 5        34.700 5  36571072.473 5     -7649.275 5       325.158 5        35.429 5
J04  38773505.561 5    -36956.841 5      1200.530 5        33.430 5                                                                
G32  24230385.15323         0.00023      1902.54123        22.49023  24230405.240 4    -34741.049 4      1417.303 4        23.952 4
G12  23632331.277 6    -83273.330 6      2526.130 6        40.646 6                                                                
E33                    -60319.601 5      1847.280 5        29.869 5  25589310.189 5    -44422.802 5      1511.267 5        30.684 5
C01  37002077.49525         0.00025       402.73225        32.60025                                                                                                                
C60  37510957.50425         0.00025       405.43925        35.05825                                                  37510971.89524         0.00024       276.20024        27.00024
C39  36174060.919 5      3815.302 5        32.345 5        34.368 5                                        34.36825  36174075.609 4      2795.520 4        23.261 4        27.387 4
C59  37029250.68326         0.00026       424.37226        38.92026                                                                                                                
C11  24736072.07423        -0.00023     -2208.09523        20.20023                                                                                                                
G10                         0.00023      3221.56123        19.93723                                                                
G05  25037412.660 4     80155.506 4     -2190.677 4        27.835 4                                                                
G25  24003646.72125    -87981.05725      3329.66125        30.90925  24003645.522 4    -53464.445 4      2485.156 4        26.986 4
G15                        -0.00022     -1579.22822        15.95422                                                                
E27                    -84000.957 5      2666.425 5        35.033 5  26348080.104 5    -65243.800 5      2138.715 5        34.253 5
E13                        -0.00022     -2494.36922        16.60022  26222697.60423     57026.64323     -1860.54023        22.84823
E30                    -20357.28823      1167.40823        23.00023                                                                
I03                                        33.747 5
C04  38410753.08925         0.00025       404.06725        31.13825                                                                                                                
C02  37465885.20724         0.00024       401.32324        23.51524                                                                                                                
C28  25331942.26123         0.00023       514.04923        20.48423                                                                         0.00022       385.86022        16.46022
C09  36856008.117 5    -11563.903 5       470.721 5        34.842 5                                                                                                                
E26                     26099.686 6      -606.730 6        41.339 6  23858579.549 5     18092.396 5      -369.863 5        29.682 5
I09                                        16.59522
C62  38528287.02226         0.00026       469.20726        37.94626                                                                                                                
C26  23590944.629 4     28017.839 4      -907.941 4        27.544 4                                        27.54424  23590931.138 3       403.950 3      -685.594 3        22.310 3
C07                         0.00022       573.12722        13.60022                                                                                                                
C21                                                                                                        23.00023                                                                
C25                                                                                                                  25079618.042 4    -39400.180 4      2741.519 4        29.366 4
> 2023 08 18 08 10 58.0009999  0 49                      
G18  20891035.037 6     42218.830 6     -1004.621 6        40.242 6  20891053.924 5     30841.171 5      -750.166 5        31.058 5
G23  20983056.632 6    -70361.523 6      2056.928 6        36.427 6  20983073.421 6    -51262.917 6      1536.039 6        36.805 6
G24  20891181.336 5     65790.583 5     -1651.297 5        33.147 5  20891176.539 6     47668.934 6     -1233.219 6        39.188 6
J03  36197289.13823         0.00023        56.25223        22.50023                                                                
J02  37432905.039 4    -12565.220 4       493.621 4        28.700 4  37432844.781 4     -9323.607 4       366.815 4        29.356 4
C43  24510036.95423        -0.00023     -1602.78923        22.44823                                        22.44823                        -0.00022     -1207.28422        17.03522
C14  22804000.51926    -35557.42726      1116.69926        37.00326                                                                                                                
C24  22241275.685 6    -62341.805 6      1838.920 6        40.533 6                                        40.53326  22241289.775 4    -34054.676 4      1386.211 4        27.168 4
C38  35963040.605 6    -11934.378 6       469.519 6        39.410 6                                        39.41026  35963046.001 4     -8928.418 4       353.557 4        26.777 4
C06  35983705.599 5     -7051.487 5       337.338 5        34.486 5                                                                                                                
S37                                        38.00026
C16  36281551.205 5      -999.826 5       173.228 5        34.600 5                                                                                                                
C08  35754584.416 5    -26081.448 5       851.376 5        31.605 5                                                                                                                
C03  36124035.15125         0.00025       422.01825        31.54825                                                                                                                
C13  35950671.768 5    -32753.565 5      1034.020 5        34.445 5                                                                                                                
R14  20566689.277 7   -105320.733 7      3016.966 7        42.000 7
R18                        -0.00023     -2698.93123        18.00023
R19                         0.00023         0.55923        19.00023
R03                         0.00023       117.09323        18.00023
R15  23488621.865 5   -101132.040 5      4669.631 5        31.000 5
J07  36570974.741 5    -10716.490 5       441.343 5        34.680 5  36570988.831 5     -7977.809 5       329.665 5        35.382 5
J04  38773276.219 5    -38160.015 5      1205.062 5        33.333 5                                                                
G32  24230025.70223         0.00023      1904.33423        20.82523  24230043.390 4    -36161.870 4      1421.663 4        24.009 4
G12  23631852.509 6    -85801.856 6      2529.462 6        41.406 6                                                                
E33                    -62169.430 5      1851.235 5        29.970 5  25588958.233 5    -45840.167 5      1515.467 5        30.699 5
C01  37002000.74825         0.00025       408.65525        32.57025                                                                                                                
C60  37510878.95925         0.00025       412.84625        35.00025                                                  37510887.65324     -6487.11524       289.29724        29.00024
C39  36174054.024 5      3780.610 5        36.011 5        34.439 5                                        34.43925  36174068.713 4      2769.348 4        27.502 4        27.372 4
C59  37029169.14026         0.00026       428.89926        38.85426                                                                                                                
C11  24736495.08123        -0.00023     -2202.12823        20.20523                                                                                                                
G10                         0.00023      3227.66523        20.05723                                                                
G05  25037827.573 4     82342.647 4     -2185.527 4        28.143 4                                                                
G25  24003013.55925    -91313.45925      3334.08525        30.38025  24003011.461 4    -55952.926 4      2490.066 4        27.067 4
G15                        -0.00022     -1578.00922        13.20022                                                                
E27                    -86670.135 5      2670.454 5        35.011 5  26347572.255 5    -67288.969 5      2143.374 5        34.265 5
E13                        -0.00022     -2489.20322        15.80022  26223170.97623     58884.15123     -1856.77823        22.78523
E30                    -21527.04924      1170.89524        27.00024                                                                
I03                                        33.764 5
C04  38410672.74525         0.00025       410.76225        31.18625                                                                                                                
C02  37465803.96424         0.00024       431.69924        23.52424                                                                                                                
C28  25331842.13123         0.00023       520.15023        20.58923                                                                         0.00022       390.45922        16.39222
C09  36855916.380 5    -12037.128 5       474.654 5        34.844 5                                                                                                                
E26                     26703.934 6      -602.801 6        41.322 6  23858694.370 5     18555.367 5      -365.309 5        29.667 5
I09                                        16.60522
C62  38528198.88326         0.00026       473.37126        37.90326                                                                                                                
C26  23591119.10824     28923.50024      -902.58624        24.20024                                        24.20024  23591105.018 3      1086.198 3      -682.163 3        22.269 3
C07                         0.00022       574.51722        13.60022                                                                                                                
C21                                                                                                        22.00023                                                                
C25                                                                                                                  25078918.626 4    -42144.982 4      2745.813 4        29.397 4
> 2023 08 18 08 10 59.0009999  0 48                      
G18  20891224.806 6     43218.532 6      -995.820 6        40.262 6  20891244.293 5     31587.811 5      -743.959 5        31.041 5
G23  20982663.604 6    -72423.581 6      2065.994 6        36.443 6  20982681.292 6    -52802.708 6      1543.266 6        36.865 6
G24  20891497.01825     67437.36325     -1643.32425        33.09125  20891489.823 6     48898.636 6     -1226.295 6        39.191 6
J03                         0.00023        63.26823        19.60023                                                                
J02  37432812.103 5    -13061.127 5       500.791 5        30.400 5  37432750.346 4     -9694.028 4       374.167 4        29.358 4
C43  24510343.04323        -0.00023     -1593.00923        22.38023                                        22.38023                        -0.00022     -1200.71722        17.12822
C14  22803785.26826    -36679.20926      1126.16426        37.04726                                                                                                                
C24  22240921.630 6    -64185.782 6      1848.119 6        40.571 6                                        40.57126  22240935.721 4    -35444.292 4      1392.842 4        27.154 4
C38  35962950.068 6    -12408.924 6       478.117 6        39.519 6                                        39.51926  35962954.864 4     -9286.012 4       360.860 4        26.828 4
C06  35983639.944 5     -7393.519 5       346.270 5        34.501 5                                                                                                                
S37                                        39.00026
C16  36281517.928 5     -1178.601 5       183.359 5        34.530 5                                                                                                                
C08  35754420.430 5    -26938.077 5       860.575 5        31.659 5                                                                                                                
C03  36123956.00625         0.00025       429.90825        31.54525                                                                                                                
C13  35950472.406 5    -33792.466 5      1043.287 5        34.467 5                                                                                                                
R14  20566122.370 7   -108342.366 7      3025.966 7        43.000 7
R18  21473683.47823        -0.00023     -2690.52223        22.00023
R19                         0.00022         9.10322        17.00022
R03                         0.00023       128.41523        18.00023
R15  23487749.170 5   -105806.235 5      4678.109 5        32.000 5
J07  36570890.499 5    -11162.923 5       450.342 5        34.726 5  36570903.990 5     -8311.127 5       336.893 5        35.362 5
J04  38773045.979 5    -39369.834 5      1213.927 5        33.376 5                                                                
G32  24229660.25524         0.00024      1913.62724        23.83624  24229680.042 4    -37587.409 4      1429.265 4        24.028 4
G12  23631371.942 7    -88336.805 7      2539.394 7        41.845 7                                                                
C21                        -0.00023      -886.67823        18.60023                                        18.60023                                                                
E33                    -64025.389 5      1859.952 5        29.966 5  25588605.077 5    -47262.196 5      1524.770 5        30.734 5
C01  37001921.30325         0.00025       422.17625        32.57125                                                                                                                
C60  37510800.71325         0.00025       414.42725        34.99025                                                  37510816.30224         0.00024       278.90924        26.00024
C39  36174046.529 5      3739.441 5        45.477 5        34.427 5                                        34.42725  36174060.919 4      2738.445 4        34.020 4        27.428 4
C59  37029084.59826         0.00026       438.96726        38.78626                                                                                                                
C11  24736916.28923        -0.00023     -2192.14923        20.27923                                                                                                                
G10                   -110619.98224      3236.08824        25.77624                                                                
G05  25038243.085 4     84523.581 4     -2177.135 4        29.440 4                                                                
G25  24002376.80025    -94652.39925      3344.13225        30.61525  24002376.201 4    -58446.331 4      2497.601 4        27.097 4
E27                    -89345.806 5      2679.913 5        34.905 5  26347063.208 5    -69339.048 5      2152.753 5        34.291 5
E30                    -22701.83124      1178.88724        25.80024                                                                
I03                                        33.750 5
C04  38410593.00025         0.00025       418.31125        31.24125                                                                                                                
C02  37465721.52123         0.00023       418.16723        23.49723                                                                                                                
C28  25331739.60223         0.00023       529.34423        20.68423                                                                                                                
C09  36855824.344 5    -12516.696 5       483.919 5        34.816 5                                                                                                                
E26                     27302.126 6      -594.176 6        41.280 6  23858808.291 5     19013.784 5      -356.156 5        29.703 5
I09                                        16.56422
C25                         0.00022      3652.87922        16.70022                                                  25078218.011 4    -44894.518 4      2753.002 4        29.402 4
C62  38528107.14626         0.00026       479.96126        37.91726                                                                                                                
C26  23591292.68824        -0.00024      -894.50824        24.15524                                        24.15524  23591277.998 3      1764.339 3      -674.212 3        22.270 3
C07                         0.00022       580.15222        13.60022                                                                                                                
E13                                                                  26223643.15023     60736.87023     -1849.05223        22.80023
> 2023 08 18 08 11 00.0009999  0 48                      
G18  20891414.275 6     44212.951 6      -990.620 6        40.248 6  20891433.162 5     32330.301 5      -740.531 5        30.998 5
G23  20982269.977 6    -74491.215 6      2071.926 6        36.441 6  20982287.665 6    -54346.725 6      1546.091 6        36.883 6
G24  20891807.90225     69078.55025     -1636.36025        30.32525  20891801.906 6     50124.290 6     -1223.850 6        39.170 6
J03                         0.00023        69.59423        19.65023                                                                
J02  37432717.369 4    -13562.961 4       505.355 4        28.500 4  37432654.712 4    -10068.767 4       376.785 4        29.380 4
C43  24510648.53123        -0.00023     -1587.91223        22.39623                                        22.39623  24510638.03823        -0.00023     -1197.72223        20.10023
C14  22803568.81826    -37806.88926      1132.03126        37.04926                                                                                                                
C24  22240565.777 6    -66035.089 6      1853.118 6        40.557 6                                        40.55726  22240580.467 4    -36837.926 4      1394.701 4        27.181 4
C38  35962858.631 6    -12889.130 6       484.051 6        39.583 6                                        39.58326  35962862.528 4     -9647.942 4       364.395 4        26.936 4
C06  35983573.391 5     -7741.349 5       352.003 5        34.535 5                                                                                                                
S37                                        39.00026
C16  36281483.452 5     -1363.046 5       188.425 5        34.448 5                                                                                                                
C08  35754255.244 5    -27800.421 5       866.307 5        31.711 5                                                                                                                
C03  36123872.96325         0.00025       433.13425        31.61725                                                                                                                
C13  35950272.144 5    -34837.137 5      1048.554 5        34.533 5                                                                                                                
R14  20565555.162 7   -111369.342 7      3031.031 7        43.000 7
R18  21474187.72923        -0.00023     -2683.21623        23.00023
R19                         0.00022        10.48522        17.00022
R03  21553411.48423         0.00023       133.00123        20.00023
R15  23486873.776 5   -110486.566 5      4684.416 5        31.000 5
J07  36570803.560 5    -11615.303 5       456.341 5        34.799 5  36570817.650 5     -8648.887 5       339.831 5        35.348 5
J04  38772814.839 5    -40585.595 5      1219.659 5        33.427 5                                                                
G32  24229293.30924    -63730.32624      1919.21224        26.55924  24229315.19424         0.00024      1432.61224        24.02524
G12  23630889.276 7    -90877.388 7      2544.660 7        42.004 7                                                                
C21                        -0.00022      -882.49622        17.10022                                        17.10022                                                                
E33                    -65886.949 5      1865.800 5        32.600 5  25588250.423 5    -48688.459 5      1529.396 5        30.772 5
C01  37001840.05925         0.00025       425.25525        32.59725                                                                                                                
C60  37510720.36925         0.00025       426.73025        34.99025                                                  37510729.36224     -7063.57824       290.86824        28.00024
C39  36174037.835 5      3692.565 5        50.676 5        34.530 5                                        34.53025  36174051.925 4      2702.995 4        37.942 4        27.311 4
C59  37028999.15726         0.00026       446.17126        38.77126                                                                                                                
C11  24737337.19823        -0.00023     -2186.68923        20.37023                                                                                                                
G10                   -113858.16424      3242.92924        25.77224                                                                
G05  25038658.897 4     86698.647 4     -2169.561 4        28.826 4                                                                
G25  24001739.74125    -97997.43025      3348.97225        30.42025  24001739.442 4    -60944.098 4      2499.921 4        27.124 4
E27                    -92027.324 5      2685.812 5        34.974 5  26346552.661 5    -71393.635 5      2157.691 5        34.306 5
E30                    -23882.90124      1185.86324        27.20024                                                                
I03                                        33.742 5
C04  38410509.95725         0.00025       425.79025        31.26325                                                                                                                
C02  37465641.17623         0.00023       422.47623        23.45723                                                                                                                
C28  25331636.17324         0.00024       534.96124        23.50024                                                                                                                
C09  36855730.808 5    -13002.032 5       489.585 5        34.755 5                                                                                                                
E26                     27894.810 6      -588.617 6        41.241 6  23858921.312 5     19467.994 5      -351.097 5        29.677 5
I09                                        16.52522
C25                         0.00022      3659.45822        16.60022                                                  25077516.197 4    -47648.502 4      2755.845 4        29.416 4
C62  38528014.21126         0.00026       488.75826        37.94626                                                                                                                
C26  23591466.56824        -0.00024      -891.23724        24.06724                                        24.06724  23591449.779 3      2438.219 3      -671.572 3        22.306 3
C07                         0.00022       586.38722        13.66522                                                                                                                
E13                                                                  26224114.42323     62585.09323     -1846.70323        21.90023
> 2023 08 18 08 11 01.0009999  0 48                      
G18  20891602.545 6     45201.628 6      -985.752 6        40.262 6  20891621.431 5     33068.636 5      -736.045 5        31.020 5
G23  20981874.251 6    -76564.896 6      2076.860 6        36.457 6  20981893.138 6    -55895.283 6      1551.243 6        36.951 6
G24  20892118.78724     70714.08924     -1632.16924        28.97224  20892113.091 6     51345.555 6     -1218.623 6        39.149 6
J03                         0.00023        79.66523        19.61723                                                                
J02  37432621.136 5    -14071.264 5       511.403 5        31.700 5  37432557.879 4    -10448.317 4       382.550 4        29.391 4
C43  24510953.12023        -0.00023     -1581.79723        22.44623                                        22.44623  24510942.92723        -0.00023     -1191.99123        20.07023
C14  22803351.46826    -38940.75626      1137.16426        37.08126                                                                                                                
C24  22240209.623 6    -67890.202 6      1858.186 6        40.594 6                                        40.59426  22240224.313 4    -38235.937 4      1400.047 4        27.221 4
C38  35962765.396 6    -13375.461 6       489.517 6        39.698 6                                        39.69826  35962768.993 4    -10014.400 4       369.549 4        26.964 4
C06  35983505.338 5     -8095.344 5       357.402 5        34.608 5                                                                                                                
S37                                        38.00026
C16  36281447.177 5     -1553.689 5       193.825 5        34.350 5                                                                                                                
C08  35754088.560 5    -28668.907 5       871.973 5        31.795 5                                                                                                                
C03  36123792.31925         0.00025       429.37425        31.64125                                                                                                                
C13  35950070.084 5    -35887.996 5      1054.354 5        34.581 5                                                                                                                
R14  20564986.456 7   -114402.161 7      3035.699 7        43.000 7
R18  21474693.17924        -0.00024     -2679.49924        25.00024
R19                         0.00022        15.47222        17.00022
R03  21553384.20323         0.00023       139.14123        20.00023
R15  23485996.883 4   -115173.367 4      4689.581 4        29.000 4
J07  36570716.320 5    -12073.950 5       461.607 5        34.834 5  36570730.410 5     -8991.415 5       345.210 5        35.325 5
J04  38772581.600 5    -41807.764 5      1226.258 5        33.325 5                                                                
G32  24228891.28825    -65651.33125      1925.43925        30.18725  24228949.447 4    -40452.819 4      1436.947 4        24.046 4
G12  23630405.411 6    -93424.153 6      2549.793 6        39.170 6                                                                
E33                    -67754.256 5      1870.549 5        32.545 5  25587895.169 5    -50119.291 5      1536.396 5        30.763 5
C01  37001757.91625         0.00025       418.57025        32.59725                                                                                                                
C60  37510638.82525         0.00025       426.81725        35.00525                                                  37510655.31424     -7359.06124       304.96524        27.00024
C39  36174027.942 5      3639.448 5        56.276 5        34.618 5                                        34.61825  36174041.432 4      2663.042 4        42.939 4        27.345 4
C59  37028913.11726         0.00026       453.57726        38.71226                                                                                                                
C11  24737756.90724        -0.00024     -2181.48224        23.90024                                                                                                                
G10                   -117102.58724      3247.79624        25.97924                                                                
G05  25039071.711 4     88867.839 4     -2166.443 4        28.694 4                                                                
G25  24001102.38325   -101348.83725      3354.84125        29.98825  24001101.783 4    -63446.907 4      2505.777 4        27.143 4
E27                    -94715.151 5      2691.679 5        34.950 5  26346041.215 5    -73453.130 5      2165.487 5        34.335 5
E13                        -0.00022     -2470.20022        15.30022  26224584.49823     64428.82723     -1841.11923        23.20023
E30                    -25069.745 4      1190.196 4        28.200 4                                                                
I03                                        33.704 5
C04  38410423.91725         0.00025       448.07425        31.31925                                                                                                                
C02  37465554.83623         0.00023       444.79223        23.38923                                                                                                                
C28  25331531.54623         0.00023       539.66223        23.43523                                                                         0.00022       408.04122        15.40022
C09  36855636.074 5    -13493.473 5       494.518 5        34.772 5                                                                                                                
E26                     28481.589 6      -583.439 6        41.208 6  23859032.835 5     19917.602 5      -343.366 5        29.693 5
I09                                        16.48822
C25                         0.00023      3662.58023        19.20023                                                  25076813.183 4    -50407.223 4      2762.628 4        29.410 4
C62  38527918.87726         0.00026       495.24826        37.97826                                                                                                                
C26  23591637.74924        -0.00024      -883.85324        23.95824                                        23.95824  23591620.061 3      3107.710 3      -666.519 3        22.335 3
C07                         0.00022       595.13922        13.72622                                                                                                                
C21                                                                                                        20.00023                                                                
> 2023 08 18 08 11 02.0009999  0 48                      
G18  20891789.315 6     46185.128 6      -980.020 6        40.282 6  20891808.502 5     33803.147 5      -732.772 5        31.056 5
G23  20981477.925 6    -78644.156 6      2082.926 6        36.448 6  20981497.412 6    -57447.901 6      1554.674 6        37.000 6
G24  20892429.37224     72344.46424     -1627.03024        26.91824  20892423.376 6     52563.006 6     -1215.382 6        39.141 6
J03                         0.00023        84.91823        19.56123                         0.00022        62.40622        16.50022
J02  37432525.202 4    -14585.021 4       517.418 4        27.100 4  37432460.147 4    -10832.031 4       386.143 4        29.396 4
C43  24511256.81023        -0.00023     -1577.12823        22.50323                                        22.50323  24511244.81823        -0.00023     -1189.07023        20.09123
C14  22803133.21926    -40080.37826      1143.29626        37.11126                                                                                                                
C24  22239851.971 6    -69750.610 6      1864.117 6        40.604 6                                        40.60426  22239866.960 4    -39637.861 4      1404.033 4        27.169 4
C38  35962671.261 6    -13867.370 6       495.450 6        39.748 6                                        39.74826  35962674.858 4    -10385.092 4       372.447 4        27.015 4
C06  35983436.385 5     -8454.896 5       363.534 5        34.662 5                                                                                                                
S37                                        38.00026
C16  36281410.003 5     -1749.959 5       199.624 5        34.267 5                                                                                                                
C08  35753920.676 5    -29542.936 5       877.705 5        31.850 5                                                                                                                
C03  36123708.67725         0.00025       443.78725        31.60825                                                                                                                
C13  35949867.125 5    -36944.416 5      1059.953 5        34.586 5                                                                                                                
R14  20564417.450 7   -117440.319 7      3041.766 7        44.000 7
R18  21475197.13023        -0.00023     -2676.71323        23.00023
R19                         0.00022        22.17222        13.00022
R03  21553355.72223         0.00023       143.77723        23.00023
R15  23485117.891 5   -119866.047 5      4695.358 5        30.000 5
J07  36570627.581 5    -12538.402 5       468.405 5        34.852 5  36570641.971 5     -9338.174 5       348.641 5        35.318 5
J04  38772347.762 5    -43035.804 5      1232.390 5        33.303 5                                                                
G32  24228529.438 4    -67577.343 4      1928.174 4        27.061 4  24228582.801 4    -41891.466 4      1440.423 4        24.046 4
G12  23629920.347 7    -95976.541 7      2556.060 7        43.766 7                                                                
E33                    -69627.030 5      1875.420 5        32.507 5  25587538.716 5    -51554.119 5      1540.638 5        30.784 5
C01  37001677.27225         0.00025       417.71825        32.54225                                                                                                                
C60  37510557.28225         0.00025       433.47725        35.01425                                                  37510566.27524         0.00024       308.55824        29.00024
C39  36174016.549 5      3580.687 5        62.275 5        34.707 5                                        34.70725  36174030.340 4      2618.812 4        45.659 4        27.377 4
C59  37028827.37626         0.00026       453.61526        38.66126                                                                                                                
C11  24738174.81824        -0.00024     -2177.06724        23.86524                                                                                                                
G10  23318409.90124   -120352.82624      3254.06624        27.99824                                                                
G05  25039485.125 4     91031.457 4     -2160.190 4        26.710 4                                                                
G25  24000464.424 4   -104706.069 4      3359.717 4        29.305 4  24000462.925 4    -65953.955 4      2508.594 4        27.151 4
E27                    -97408.597 5      2696.959 5        34.987 5  26345528.570 5    -75516.812 5      2169.691 5        34.368 5
E13                        -0.00022     -2464.46122        15.30022  26225053.67323     66268.30923     -1836.52823        21.50023
E30                    -26261.987 4      1195.153 4        29.000 4                                                                
I03                                        33.633 5
C04  38410341.47425         0.00025       443.86725        31.35325                                                                                                                
C02  37465465.49823         0.00023       449.07823        23.36923                                                                                                                
C28  25331426.61823         0.00023       543.73123        23.41323                                                                         0.00022       412.07922        16.90022
C09  36855540.440 5    -13990.527 5       500.584 5        34.743 5                                                                                                                
E26                     29063.140 6      -578.532 6        41.177 6  23859143.459 5     20363.375 5      -340.176 5        29.688 5
I09                                        16.54322
C25                         0.00023      3669.28223        19.20023                                                  25076108.971 4    -53169.991 4      2764.961 4        29.354 4
C62  38527826.54126         0.00026       495.16326        37.93426                                                                                                                
C26                        -0.00023      -880.67323        19.90023                                        19.90023  23591789.744 3      3773.266 3      -663.359 3        22.318 3
C07                         0.00022       598.51022        13.78422                                                                                                                
C21                                                                                                        19.00023                                                                
> 2023 08 18 08 11 03.0009999  0 48                      
G18  20891976.086 6     47163.301 6      -975.820 6        40.293 6  20891994.673 5     34533.465 5      -728.442 5        30.984 5
G23  20981080.100 6    -80729.035 6      2087.259 6        36.460 6  20981100.786 6    -59004.879 6      1558.764 6        36.998 6
G24  20892739.65724     73969.24224     -1623.29024        27.61024  20892732.462 6     53776.255 6     -1211.633 6        39.087 6
J03                         0.00022        88.93422        16.20022                         0.00022        65.48922        17.20022
J02  37432427.17025    -15104.97325       522.49925        31.20025  37432361.216 4    -11220.276 4       390.184 4        29.366 4
C43  24511559.00123        -0.00023     -1571.16123        22.58223                                        22.58223  24511547.90823        -0.00023     -1185.04923        20.13623
C14  22802913.77126    -41225.80626      1147.56426        37.10526                                                                                                                
C24  22239494.019 6    -71616.430 6      1867.851 6        40.653 6                                        40.65326  22239508.708 4    -41044.103 4      1408.372 4        27.135 4
C38  35962576.227 6    -14364.980 6       499.784 6        39.810 6                                        39.81026  35962578.925 4    -10760.233 4       378.314 4        26.984 4
C06  35983366.234 5     -8820.218 5       367.734 5        34.728 5                                                                                                                
S37                                        37.00026
C16  36281371.629 5     -1952.016 5       204.291 5        34.248 5                                                                                                                
C08  35753751.893 5    -30422.734 5       881.905 5        31.822 5                                                                                                                
C03  36123623.23625         0.00025       436.72025        31.66225                                                                                                                
C13  35949662.666 5    -38006.637 5      1064.820 5        34.626 5                                                                                                                
R14  20563847.545 7   -120483.853 7      3045.767 7        44.000 7
R18  21475699.28324    117035.60524     -2668.01724        26.00024
R19                         0.00022        26.33022        14.00022
R03  21553326.34323         0.00023       151.27123        23.00023
R15  23484238.600 5   -124564.948 5      4699.715 5        30.000 5
J07  36570538.543 5    -13008.794 5       472.472 5        34.844 5  36570552.633 5     -9689.500 5       352.996 5        35.222 5
J04  38772113.324 5    -44269.815 5      1235.989 5        33.287 5                                                                
G32  24228161.293 4    -69510.015 4      1934.848 4        27.962 4  24228215.55524         0.00024      1445.00924        23.98824
G12  23629434.383 7    -98534.677 7      2560.526 7        43.773 7                                                                
C21                        -0.00022      -865.14222        15.80022                                                                                                                
E33                    -71505.359 5      1880.644 5        32.401 5  25587181.363 5    -52993.366 5      1545.955 5        30.724 5
C01  37001594.22925         0.00025       443.65925        32.58925                                                                                                                
C60  37510474.53925         0.00025       438.11125        35.05325                                                  37510475.73824         0.00024       306.03324        28.00024
C39  36174003.958 5      3516.152 5        66.674 5        34.786 5                                        34.78625  36174018.048 4      2570.107 4        50.183 4        27.348 4
C59  37028738.63826         0.00026       459.68726        38.63726                                                                                                                
C11  24738592.12924        -0.00024     -2173.82924        23.83624                                                                                                                
G10  23317789.33025   -123609.13025      3259.05225        30.67525                                                                
G05  25039897.640 4     93189.109 4     -2154.678 4        28.826 4                                                                
G25  23999824.068 4   -108069.737 4      3366.522 4        29.336 4  23999822.868 4    -68465.775 4      2513.860 4        27.179 4
E27                   -100108.151 5      2702.067 5        35.032 5  26345015.026 5    -77585.274 5      2175.463 5        34.339 5
E13                        -0.00022     -2458.91422        13.10022  26225521.94923     68103.37423     -1832.19223        22.60023
E30                    -27460.006 4      1200.191 4        26.900 4                                                                
I03                                        33.606 5
C04  38410255.13424         0.00024       449.64024        28.70024                                                                                                                
C02  37465377.65923         0.00023       455.82523        23.29023                                                                                                                
C28  25331320.79223         0.00023       548.20823        20.30023                                                                         0.00022       413.58822        14.90022
C09  36855444.207 5    -14493.285 5       504.851 5        34.750 5                                                                                                                
E26                     29639.038 6      -573.722 6        41.168 6  23859253.183 5     20804.655 5      -334.683 5        29.673 5
I09                                        16.58022
C25                         0.00023      3678.18223        19.13523                                                  25075404.159 4    -55937.348 4      2768.249 4        29.301 4
C62  38527731.50626         0.00026       509.16926        37.89226                                                                                                                
C26                        -0.00023      -874.17623        19.97523                                        19.97523  23591958.527 3      4434.857 3      -659.614 3        22.357 3
C07                         0.00022       604.78122        13.80422                                                                                                                
> 2023 08 18 08 11 04.0009999  0 47                      
G18  20892161.657 6     48135.762 6      -970.153 6        40.323 6  20892179.645 5     35259.662 5      -724.391 5        30.989 5
G23  20980683.475 6    -82820.020 6      2093.458 6        36.499 6  20980702.962 6    -60566.346 6      1563.536 6        37.041 6
G24  20893049.34324        -0.00024     -1617.03024        25.15324  20893040.649 6     54985.205 6     -1206.974 6        39.067 6
J03                         0.00022        97.13122        16.20022                         0.00022        71.57422        16.40022
J02  37432268.28025    -15631.09825       528.47625        30.30025  37432261.085 4    -11613.183 4       395.426 4        29.302 4
C43  24511860.29223        -0.00023     -1564.94523        22.60223                                        22.60223  24511849.79923        -0.00023     -1180.62723        20.22423
C14  22802693.12426    -42377.52026      1154.36426        37.15426                                                                                                                
C24  22239134.568 6    -73488.063 6      1873.852 6        40.710 6                                        40.71026  22239149.257 4    -42454.653 4      1413.410 4        24.500 4
C38  35962479.993 6    -14868.757 6       506.584 6        39.909 6                                        39.90926  35962482.391 4    -11139.828 4       381.955 4        27.024 4
C06  35983294.584 5     -9191.716 5       374.133 5        34.741 5                                                                                                                
S37                                        37.00026
C16  36281331.757 5     -2160.185 5       210.022 5        34.215 5                                                                                                                
C08  35753581.611 5    -31308.612 5       888.036 5        31.860 5                                                                                                                
C03  36123538.09525         0.00025       453.20625        31.62825                                                                                                                
C13  35949457.309 5    -39075.001 5      1070.952 5        34.694 5                                                                                                                
R14  20563277.040 7   -123533.226 7      3051.634 7        45.000 7
R18  21476199.93624    119700.85224     -2662.68024        26.00024
R03  21553292.76624         0.00024       157.38624        24.00024
R15  23483354.512 4   -129270.345 4      4707.579 4        29.000 4
J07  36570446.806 5    -13485.463 5       479.604 5        34.791 5  36570461.796 5    -10045.487 5       358.071 5        35.125 5
J04  38771877.688 5    -45510.245 5      1243.055 5        33.297 5                                                                
G32  24227792.248 5    -71448.725 5      1940.840 5        29.578 5  24227846.811 4    -44781.389 4      1451.075 4        23.986 4
G12  23628947.520 7   -101098.906 7      2566.595 7        43.750 7                                                                
C21                        -0.00022      -858.83722        15.80022                                                                                                                
E33                    -73389.547 5      1886.885 5        32.505 5  25586822.811 5    -54437.010 5      1552.582 5        30.767 5
C01  37001508.78825         0.00025       451.76025        32.60425                                                                                                                
C60  37510385.20125         0.00025       451.48825        35.06025                                                  37510398.39224     -8272.91024       308.13224        29.00024
C39  36173990.767 5      3445.387 5        73.474 5        34.831 5                                        34.83125  36174004.258 4      2516.748 4        56.032 4        27.335 4
C59  37028650.19926         0.00026       467.01926        38.58026                                                                                                                
C11  24739008.54124        -0.00024     -2167.60624        23.84924                                                                                                                
G10  23317165.76224   -126871.67324      3264.23324        29.18024                                                                
G05  25040308.055 4     95340.826 4     -2148.370 4        29.052 4                                                                
G25  23999183.411 4   -111439.512 4      3374.212 4        26.959 4  23999181.612 4    -70982.184 4      2519.067 4        27.161 4
E27                   -102813.752 5      2708.234 5        35.070 5  26344499.982 5    -79658.364 5      2182.386 5        34.372 5
E13                        -0.00022     -2448.36322        13.10022  26225988.42623     69933.79423     -1827.21023        21.50023
E30                    -28663.856 4      1206.296 4        24.500 4  26698108.784 4     -8920.185 4       901.351 4        24.300 4
I03                                        33.595 5
C04  38410168.19424         0.00024       437.05224        28.72024                                                                                                                
C02  37465289.82023         0.00023       443.76423        23.25023                                                                                                                
C28  25331214.36523         0.00023       554.33723        20.27523                                                                         0.00022       418.56622        14.90022
C09  36855346.475 5    -15002.254 5       511.117 5        34.822 5                                                                                                                
E26                     30209.157 6      -567.698 6        41.129 6  23859361.708 5     21241.510 5      -326.659 5        29.649 5
I09                                        16.61622
C25                         0.00023      3685.98223        19.10823                                                  25074697.548 4    -58709.473 4      2774.576 4        29.330 4
C62  38527636.77226         0.00026       511.95326        37.82226                                                                                                                
C26                        -0.00022      -867.83122        16.80022                                        16.80022  23592125.811 3      5091.892 3      -653.513 3        22.284 3
C07                         0.00022       611.49922        13.82322                                                                                                                
> 2023 08 18 08 11 05.0009999  0 47                      
G18  20892346.629 6     49102.908 6      -962.553 6        40.371 6  20892363.718 5     35981.949 5      -718.977 5        31.028 5
G23  20980283.852 6    -84916.638 6      2101.325 6        36.575 6  20980303.938 6    -62131.938 6      1569.005 6        37.050 6
G24  20893357.82923        -0.00023     -1611.28623        22.94823  20893347.636 6     56190.189 6     -1201.581 6        39.032 6
J03                         0.00022       102.51322        16.20022                         0.00022        77.40022        16.40022
J02  37432217.01524         0.00024       538.36324        24.20024  37432159.755 4    -12010.390 4       400.791 4        29.311 4
C43  24512160.38423        -0.00023     -1559.85423        22.58123                                        22.58123  24512150.79123        -0.00023     -1174.58323        20.18223
C14  22802470.97826    -43535.09526      1162.23126        37.13126                                                                                                                
C24  22238774.217 6    -75365.079 6      1881.516 6        40.694 6                                        40.69426  22238788.607 4    -43869.053 4      1417.939 4        24.520 4
C38  35962382.261 6    -15378.179 6       514.183 6        39.978 6                                        39.97826  35962384.359 4    -11523.685 4       387.503 4        27.027 4
C06  35983222.034 5     -9568.948 5       381.998 5        34.748 5                                                                                                                
S37                                        38.00026
C16  36281291.285 5     -2374.172 5       218.887 5        34.184 5                                                                                                                
C08  35753410.729 5    -32200.252 5       896.235 5        31.872 5                                                                                                                
C03  36123452.65425         0.00025       444.62225        31.56125                                                                                                                
C13  35949250.452 5    -40149.094 5      1079.019 5        34.759 5                                                                                                                
R14  20562704.736 7   -126588.022 7      3059.365 7        45.000 7
R18  21476701.489 4    122360.922 4     -2655.596 4        28.000 4
R03  21553262.18724         0.00024       164.83224        24.00024
R15  23482473.122 4   -133981.743 4      4717.337 4        28.000 4
J07  36570355.370 5    -13968.084 5       487.602 5        34.816 5  36570370.060 5    -10405.833 5       363.957 5        35.038 5
J04  38771640.552 5    -46756.628 5      1251.120 5        33.362 5                                                                
G32  24227421.405 4    -73393.122 4      1948.567 4        26.999 4  24227476.867 4    -46233.419 4      1456.254 4        23.924 4
G12  23628459.458 7   -103668.887 7      2574.659 7        43.753 7                                                                
C21                        -0.00022      -854.32522        13.80022                                        13.80022                                                                
E33                    -75279.227 5      1894.411 5        32.469 5  25586463.360 5    -55884.847 5      1559.392 5        30.748 5
C01  37001420.94925         0.00025       454.52825        32.62325                                                                                                                
C60  37510298.56125         0.00025       461.08725        35.03725                                                  37510305.45624         0.00024       302.19724        29.00024
C39  36173976.077 5      3368.871 5        81.406 5        34.874 5                                        34.87425  36173989.568 4      2459.185 4        61.487 4        27.288 4
C59  37028558.46226         0.00026       474.81626        38.55626                                                                                                                
C11  24739422.85424     97172.53124     -2156.55724        26.80024                                                                                                                
G10  23316543.39324   -130140.34124      3274.23924        28.71124                                                                
G05  25040715.473 4     97486.827 4     -2141.173 4        26.624 4                                                                
G25  23998540.65624   -114815.38124      3380.83724        26.89824  23998539.457 4    -73503.068 4      2524.919 4        27.166 4
E27                   -105525.297 5      2716.202 5        35.146 5  26343984.039 5    -81735.984 5      2189.234 5        34.388 5
E13                        -0.00022     -2443.25522        13.11522                        -0.00023     -1764.93623        22.90023
E30                    -29873.248 4      1214.062 4        25.200 4                         0.00023      1035.12523        23.00023
I03                                        33.560 5
C04  38410083.05324         0.00024       453.15124        28.83924                                                                                                                
C02  37465201.98023         0.00023       443.15423        23.26223                                                                                                                
C28  25331107.04023         0.00023       560.46823        20.25623                                                                         0.00022       425.55422        14.30022
C09  36855247.843 5    -15517.000 5       519.716 5        34.830 5                                                                                                                
E26                     30773.786 6      -559.706 6        41.087 6  23859469.033 5     21674.311 5      -321.545 5        29.616 5
I09                                        16.65022
C25                         0.00023      3690.94323        19.14723                                                  25073990.038 4    -61485.810 4      2780.068 4        29.368 4
C62  38527536.94126         0.00026       514.85026        37.78526                                                                                                                
C26                        -0.00022      -858.50222        16.70522                                        16.70522  23592292.49623        -0.00023      -651.21323        22.22423
C07                         0.00022       618.98922        13.87622                                                                                                                
> 2023 08 18 08 11 06.0009999  0 48                      
G18  20892529.803 6     50064.897 6      -959.487 6        40.417 6  20892546.891 5     36700.291 5      -715.844 5        31.030 5
G23  20979883.929 6    -87018.792 6      2104.925 6        36.608 6  20979904.015 6    -63701.776 6      1572.460 6        37.042 6
G24                        -0.00023     -1606.95423        21.04823  20893653.725 6     57391.154 6     -1198.392 6        39.009 6
J03                         0.00023       102.66723        17.70023                         0.00022        79.15122        16.41022
J02  37432124.67924         0.00024       541.35224        24.80024  37432057.526 4    -12411.999 4       404.155 4        29.350 4
C43  24512459.57723        -0.00023     -1557.40623        22.48123                                        22.48123  24512449.98423        -0.00023     -1171.71023        20.22223
C14  22802247.93226    -44698.33526      1165.96426        37.13926                                                                                                                
C24  22238412.967 6    -77247.408 6      1885.117 6        40.694 6                                        40.69426  22238427.057 4    -45287.634 4      1421.530 4        24.644 4
C38  35962283.629 6    -15893.249 6       518.249 6        40.069 6                                        40.06926  35962285.428 4    -11911.839 4       390.509 4        27.100 4
C06  35983148.285 5     -9951.826 5       385.864 5        34.805 5                                                                                                                
S37                                        38.00026
C16  36281249.314 5     -2593.804 5       222.755 5        34.184 5                                                                                                                
C08  35753238.648 5    -33097.471 5       900.368 5        31.838 5                                                                                                                
C03  36123365.11525         0.00025       457.34225        31.62725                                                                                                                
C13  35949043.295 5    -41228.803 5      1082.151 5        34.861 5                                                                                                                
R14  20562131.832 7   -129648.019 7      3062.698 7        45.000 7
R18  21477204.241 4    125015.026 4     -2652.503 4        28.000 4
R03  21553228.61024      -795.17124       168.12524        29.00024
R15  23481587.535 4   -138699.052 4      4720.151 4        28.000 4
J07  36570263.034 5    -14456.461 5       491.800 5        34.860 5  36570276.824 5    -10770.542 5       367.412 5        35.036 5
J04  38771402.517 5    -48008.868 5      1255.187 5        33.373 5                                                                
G32  24227048.763 4    -75343.437 4      1953.665 4        28.107 4  24227106.024 4    -47689.624 4      1458.855 4        23.897 4
G12  23627970.496 7   -106244.475 7      2578.259 7        43.710 7                                                                
E33                    -77174.261 5      1897.859 5        32.500 5  25586102.710 5    -57336.886 5      1563.734 5        30.730 5
C01  37001335.20925         0.00025       459.20825        32.67625                                                                                                                
C60  37510211.02125         0.00025       462.79625        35.00525                                                  37510226.31124     -8903.94324       331.60024        28.00024
C39  36173960.488 5      3286.776 5        85.073 5        34.940 5                                        34.94025  36173973.979 4      2397.234 4        64.265 4        27.273 4
C59  37028467.32526         0.00026       477.67326        38.56826                                                                                                                
C11  24739836.26824     99328.68824     -2152.75224        26.74524                                                                                                                
G10  23315919.82524   -133414.70724      3277.41124        28.66124                                                                
G05  25041122.89123        -0.00023     -2136.67023        23.28323                                                                
G25  23997897.00224   -118197.11124      3385.16224        25.86424  23997895.802 4    -76028.380 4      2527.815 4        27.120 4
E27                   -108242.616 5      2720.338 5        35.203 5  26343467.197 5    -83818.020 5      2193.954 5        34.363 5
E13                        -0.00022     -2437.30722        13.12922  26226915.08423        -0.00023     -1757.86023        23.40023
E30                    -31088.114 4      1217.231 4        25.500 4  26697638.41023         0.00023      1039.75723        23.30023
I03                                        33.557 5
C04  38409996.41324         0.00024       459.65524        28.84224                                                                                                                
C02  37465115.04123         0.00023       446.89323        23.26323                                                                                                                
C28  25330998.51523         0.00023       564.73623        20.29823                                                                         0.00022       428.33622        14.39522
C09  36855148.012 5    -16037.248 5       522.981 5        34.853 5                                                                                                                
E26                     31333.083 6      -556.457 6        41.062 6  23859575.460 5     22102.838 5      -317.523 5        29.565 5
I09                                        16.56222
I07                                        34.00025
C25                         0.00023      3691.48523        19.21923                                                  25073281.628 4    -64266.464 4      2783.321 4        29.379 4
C62  38527436.81126         0.00026       520.27426        37.71026                                                                                                                
C26                        -0.00022      -856.50322        16.66922                                        16.66922  23592457.382 3      6394.325 3      -647.061 3        22.107 3
C07                         0.00022       618.56922        13.92722                                                                                                                
C21                                                                                                        19.00023                                                                
> 2023 08 18 08 11 07.0009999  0 48                      
G18  20892712.076 6     51021.840 6      -953.020 6        40.452 6  20892728.865 5     37414.899 5      -712.705 5        31.055 5
G23  20979483.406 6    -89126.267 6      2111.725 6        36.694 6  20979502.892 6    -65275.507 6      1575.905 6        37.058 6
G24                        -0.00023     -1596.62623        21.04823  20893958.913 6     58588.376 6     -1195.136 6        39.003 6
J03                         0.00023       111.37723        17.70023                         0.00022        84.95722        16.38422
J02  37432022.75024         0.00024       549.13124        23.70024  37431953.798 4    -12817.705 4       407.971 4        29.372 4
C43                        -0.00023     -1548.94223        19.60023                                        19.60023  24512748.57723        -0.00023     -1167.60023        20.24023
C14  22802023.98726    -45867.10126      1172.83126        37.08726                                                                                                                
C24  22238050.818 6    -79134.748 6      1891.317 6        40.669 6                                        40.66926  22238064.608 4    -46709.745 4      1423.676 4        24.661 4
C38  35962183.498 6    -16413.669 6       524.516 6        40.170 6                                        40.17026  35962185.597 4    -12303.989 4       393.944 4        27.150 4
C06  35983072.737 5    -10340.131 5       392.398 5        34.809 5                                                                                                                
S37                                        38.00026
C16  36281206.144 5     -2818.838 5       229.222 5        34.229 5                                                                                                                
C08  35753065.967 5    -34000.064 5       906.635 5        31.901 5                                                                                                                
C03  36123276.67625         0.00025       456.47525        31.65025                                                                                                                
C13  35948835.539 5    -42314.030 5      1089.684 5        34.882 5                                                                                                                
R14  20561558.030 7   -132713.107 7      3069.166 7        45.000 7
R18  21477702.796 4    127663.756 4     -2645.164 4        27.000 4
R03  21553194.134 4      -966.013 4       176.087 4        29.000 4
R15  23480702.248 4   -143422.187 4      4727.162 4        28.000 4
J07  36570167.700 5    -14950.408 5       497.667 5        34.862 5  36570182.989 5    -11139.438 5       371.123 5        35.014 5
J04  38771161.483 5    -49266.785 5      1262.120 5        33.289 5                                                                
G32  24226676.721 4    -77299.077 4      1960.406 4        25.381 4  24226733.681 4    -49150.085 4      1462.429 4        23.892 4
G12  23627480.636 7   -108825.492 7      2585.326 7        43.688 7                                                                
E33                    -79074.415 5      1904.037 5        32.300 5  25585741.160 5    -58792.825 5      1569.989 5        30.768 5
C01  37001248.26925         0.00025       459.08225        32.70225                                                                                                                
C60  37510123.78225         0.00025       452.33225        35.01925                                                  37510130.67724         0.00024       333.61124        28.00024
C39  36173943.100 5      3199.088 5        91.939 5        34.998 5                                        34.99825  36173957.191 4      2331.332 4        67.680 4        27.224 4
C59  37028374.69026         0.00026       490.37626        38.59426                                                                                                                
C11  24740249.08224    101479.32624     -2145.72724        26.78224                                                                                                                
G10  23315294.15824   -136694.71024      3284.27124        28.47424                                                                
G05  25041528.81024        -0.00024     -2130.66524        24.20224                                                                
G25  23997252.14824         0.00024      3392.91424        25.33124  23997251.548 4    -78557.997 4      2531.324 4        27.069 4
I07                                        34.00025
E27                   -110965.472 5      2726.883 5        35.222 5  26342949.156 5    -85904.308 5      2200.626 5        34.359 5
E13                        -0.00022     -2418.72322        13.06722  26227378.26423        -0.00023     -1748.90623        22.40023
E30                    -32308.337 4      1224.437 4        25.000 4                         0.00023      1049.32923        22.20023
I03                                        33.544 5
C04  38409909.17324         0.00024       470.67324        28.93924                                                                                                                
C02  37465024.80323         0.00023       475.26123        23.28423                                                                                                                
C28  25330889.99023         0.00023       570.75723        20.38823                                                                         0.00022       431.78422        14.45022
C09  36855047.581 5    -16562.968 5       529.848 5        34.870 5                                                                                                                
E26                     31887.234 6      -550.159 6        41.033 6  23859680.987 5     22527.486 5      -310.396 5        29.571 5
I09                                        16.47822
C25                         0.00023      3700.95523        19.27323                                                  25072571.720 4    -67051.287 4      2787.742 4        29.385 4
C62  38527336.08026         0.00026       530.69726        37.71926                                                                                                                
C26                        -0.00023      -849.26823        19.30023                                        19.30023  23592621.668 3      7039.479 3      -642.183 3        22.011 3
C07                         0.00022       628.82522        13.97522                                                                                                                
C21                                                                                                        20.00023                                                                
> 2023 08 18 08 11 08.0009999  0 48                      
G18  20892894.050 6     51973.814 6      -949.488 6        40.480 6  20892909.939 5     38125.731 5      -708.629 5        31.021 5
G23  20979081.384 6    -91239.100 6      2115.326 6        36.812 6  20979100.871 6    -66853.325 6      1580.132 6        37.048 6
G24                        -0.00023     -1591.60323        17.58423  20894262.903 6     59781.718 6     -1191.250 6        38.988 6
J03                         0.00023       113.13523        17.50023                                                                
J02  37431919.02224    -17795.67124       551.26424        25.90024  37431849.470 4    -13227.680 4       412.130 4        29.323 4
C43                        -0.00023     -1549.94323        18.70023                                        18.70023  24513045.97123        -0.00023     -1162.89623        20.30823
C14  22801798.54326    -47041.44026      1176.83126        37.05226                                                                                                                
C24  22237687.469 6    -81027.278 6      1895.116 6        40.715 6                                        40.71526  22237700.960 4    -48136.100 4      1429.037 4        24.662 4
C38  35962082.768 6    -16939.536 6       528.583 6        40.221 6                                        40.22126  35962084.567 4    -12700.397 4       399.124 4        27.037 4
C06  35982995.990 5    -10733.832 5       396.264 5        34.793 5                                                                                                                
S37                                        37.00026
C16  36281161.774 5     -3049.338 5       233.087 5        34.192 5                                                                                                                
C08  35752891.488 5    -34908.071 5       910.434 5        31.950 5                                                                                                                
C03  36123187.33825         0.00025       476.29625        31.65725                                                                                                                
C13  35948625.684 5    -43404.559 5      1093.150 5        34.947 5                                                                                                                
R14  20560982.428 7   -135783.257 7      3072.633 7        47.000 7
R18  21478198.952 4    130307.067 4     -2639.939 4        29.000 4
R03  21553157.859 4     -1142.944 4       178.566 4        27.000 4
R15  23479817.860 4   -148151.082 4      4731.452 4        28.000 4
J07  36570073.265 5    -15450.006 5       502.132 5        34.858 5  36570087.955 5    -11512.529 5       375.615 5        34.978 5
J04  38770920.750 5    -50530.430 5      1266.852 5        33.289 5                                                                
G32  24226303.17924         0.00024      1964.67324        24.81424  24226360.440 4    -50614.487 4      1466.755 4        23.829 4
G12  23626989.276 7   -111411.967 7      2589.058 7        43.678 7                                                                
C21                        -0.00022      -832.60322        13.70022                                        13.70022                                                                
E33                    -80979.864 4      1907.573 4        28.900 4  25585378.711 5    -60252.762 5      1574.216 5        30.829 5
C01  37001159.23025         0.00025       462.30725        32.71125                                                                                                                
C60  37510035.34325         0.00025       457.02825        35.01325                                                  37510048.53424     -9554.77624       316.91124        27.00024
C39  36173925.413 5      3105.975 5        96.205 5        35.088 5                                        35.08825  36173939.203 4      2261.001 4        72.104 4        27.272 4
C59  37028281.45426         0.00026       492.65826        38.57926                                                                                                                
C11  24740660.69724    103624.39324     -2142.34324        29.30024                                                                                                                
G10  23314665.793 4   -139979.904 4      3288.609 4        26.731 4                                                                
G05  25041934.13024        -0.00024     -2127.76824        23.96624                                                                
G25  23996607.29423         0.00023      3395.06423        22.88023  23996605.795 4    -81091.877 4      2535.797 4        27.015 4
I07                                        33.60025
E27                   -113693.925 5      2731.076 5        35.285 5  26342429.915 5    -87994.873 5      2204.967 5        34.346 5
E13                        -0.00022     -2409.64122        13.00822  26227840.24423        -0.00023     -1747.15223        22.80023
E30                    -33533.712 4      1227.794 4        27.600 4  26697170.43323         0.00023      1053.09023        20.40023
I03                                        33.591 5
C04  38409815.33824         0.00024       468.07224        28.99724                                                                                                                
C02  37464930.66823         0.00023       466.75623        23.23923                                                                                                                
C28  25330780.56623         0.00023       575.56623        20.37823                                                                         0.00022       436.10522        14.48222
C09  36854945.352 5    -17094.144 5       533.914 5        34.891 5                                                                                                                
E26                     32436.165 6      -546.439 6        40.996 6  23859785.614 5     22948.067 5      -305.540 5        29.557 5
I09                                        16.47922
C25                         0.00023      3703.64123        19.33423                                                  25071861.212 4    -69840.278 4      2791.372 4        29.420 4
C62  38527234.15126         0.00026       543.04926        37.67826                                                                                                                
C26                        -0.00023      -844.48723        19.21523                                        19.21523  23592784.755 3      7681.099 3      -639.348 3        22.005 3
C07                         0.00022       635.25922        14.06122                                                                                                                
> 2023 08 18 08 11 09.0009999  0 48                      
G18  20893073.926 6     52920.947 6      -944.688 6        40.483 6  20893090.115 5     38833.043 5      -705.371 5        31.016 5
G23  20978679.662 6    -93357.075 6      2120.592 6        36.882 6  20978697.650 6    -68434.942 6      1583.752 6        37.088 6
G24  20894575.58623        -0.00023     -1587.52823        22.56223  20894565.993 6     60971.417 6     -1187.743 6        38.971 6
J03                         0.00023       121.06423        17.50023                                                                
J02  37431814.99424    -18350.15624       558.05724        27.90024  37431743.943 4    -13641.560 4       416.256 4        29.311 4
C43                        -0.00022     -1543.99222        17.40022                                        17.40022  24513342.16623        -0.00023     -1160.01923        20.40223
C14  22801572.20026    -48221.14826      1182.09726        37.05926                                                                                                                
C24  22237322.922 6    -82924.605 6      1899.648 6        40.689 6                                        40.68926  22237336.712 4    -49565.952 4      1431.546 4        24.583 4
C38  35961980.839 6    -17470.566 6       533.652 6        40.294 6                                        40.29426  35961982.637 4    -13100.576 4       402.206 4        27.075 4
C06  35982918.944 5    -11132.825 5       401.464 5        34.798 5                                                                                                                
S37                                        37.00026
C16  36281116.506 5     -3285.059 5       238.887 5        34.132 5                                                                                                                
C08  35752715.810 5    -35821.330 5       915.767 5        31.977 5                                                                                                                
C03  36123097.40025         0.00025       461.26325        31.66425                                                                                                                
C13  35948415.830 5    -44500.473 5      1099.082 5        34.959 5                                                                                                                
R14  20560407.126 7   -138858.359 7      3077.766 7        46.000 7
R18  21478690.012 4    132945.443 4     -2634.893 4        29.000 4
R03  21553124.582 4     -1325.601 4       185.454 4        27.000 4
R15  23478930.475 4   -152885.489 4      4737.778 4        28.000 4
J07  36569977.931 5    -15955.068 5       508.265 5        34.820 5  36569991.722 5    -11889.614 5       379.123 5        34.934 5
J04  38770679.417 5    -51799.440 5      1271.785 5        33.259 5                                                                
G32  24225929.33823         0.00023      1971.82823        20.04023                                                                
G12  23626496.717 7   -114003.600 7      2594.258 7        43.625 7                                                                
C21                        -0.00022      -826.27722        13.70022                                        13.70022                                                                
E33                    -82890.298 5      1913.282 5        32.700 5  25585015.063 5    -61716.549 5      1579.799 5        30.902 5
C01  37001070.19225         0.00025       482.37025        32.69525                                                                                                                
C60  37509943.00725         0.00025       478.13425        35.02725                                                  37509952.00124         0.00024       337.95124        27.00024
C39  36173907.125 5      3007.582 5       101.203 5        35.118 5                                        35.11825  36173920.316 4      2186.802 4        77.372 4        27.283 4
C59  37028185.82026         0.00026       498.24926        38.64026                                                                                                                
C11  24741072.312 4    105763.603 4     -2136.963 4        29.360 4                                                                                                                
G10  23314036.828 4   -143271.083 4      3295.569 4        26.451 4                                                                
G05  25042337.95024        -0.00024     -2121.73124        23.69524                                                                
G25  23995960.64223         0.00023      3402.95623        20.14623  23995958.843 4    -83629.989 4      2540.353 4        26.997 4
I07                                        34.10025
E27                   -116427.683 5      2736.602 5        35.300 5  26341909.476 5    -90089.556 5      2211.119 5        34.323 5
E13                        -0.00021     -2399.83421         9.90021  26228300.126 3      2939.288 3     -1740.519 3        21.900 3
E30                    -34764.262 4      1233.151 4        27.700 4                         0.00023      1061.22423        19.50023
I03                                        33.581 5
C04  38409722.10325         0.00025       481.47125        31.80025                                                                                                                
C02  37464836.83323         0.00023       479.00723        23.15223                                                                                                                
C28  25330670.24223         0.00023       581.84223        20.31423                                                                         0.00022       439.61222        14.51222
C09  36854842.523 5    -17630.516 5       539.114 5        34.901 5                                                                                                                
E26                     32980.155 6      -541.352 6        40.951 6  23859889.043 5     23364.969 5      -300.541 5        29.564 5
I09                                        16.48022
C25                         0.00023      3709.33323        19.35223                                                  25071149.504 4    -72633.239 4      2795.008 4        29.469 4
C62  38527128.62426         0.00026       548.21826        37.69426                                                                                                                
C26                        -0.00022      -841.89122        16.70022                                        16.70022  23592946.94323        -0.00023      -637.01823        21.92423
C07                         0.00022       644.33222        14.14222                                                                                                                
> 2023 08 18 08 11 10.0009999  0 48                      
G18  20893252.902 6     53863.284 6      -940.022 6        40.460 6  20893269.391 5     39536.696 5      -701.853 5        30.976 5
G23  20978276.142 6    -95480.247 6      2125.458 6        36.983 6  20978293.530 6    -70020.456 6      1587.676 6        37.087 6
G24  20894877.47724        -0.00024     -1586.01724        23.93624  20894868.484 6     62157.429 6     -1183.971 6        38.986 6
J03                         0.00023       125.77523        17.60023                                                                
J02  37431708.26824    -18909.86224       560.99124        27.10024  37431637.517 4    -14059.535 4       420.052 4        29.345 4
C43                        -0.00022     -1536.68422        17.40022                                        17.40022  24513637.16223        -0.00023     -1155.77423        20.51123
C14  22801344.65826    -49406.25626      1187.42926        36.97626                                                                                                                
C24  22236957.774 6    -84826.940 6      1904.315 6        40.679 6                                        40.67926  22236971.265 4    -50999.577 4      1435.574 4        24.513 4
C38  35961878.310 6    -18006.817 6       538.584 6        40.334 6                                        40.33426  35961879.509 4    -13504.747 4       406.213 4        27.121 4
C06  35982841.297 5    -11537.105 5       406.397 5        34.843 5                                                                                                                
S37                                        37.00026
C16  36281070.637 5     -3526.054 5       243.153 5        34.150 5                                                                                                                
C08  35752539.232 5    -36739.855 5       921.200 5        31.988 5                                                                                                                
C03  36123005.66425         0.00025       473.57225        31.60525                                                                                                                
C13  35948204.776 5    -45601.580 5      1103.215 5        35.036 5                                                                                                                
R14  20559829.726 7   -141938.309 7      3082.167 7        46.000 7
R18  21479181.372 5    135578.675 5     -2630.983 5        31.000 5
R03  21553088.00824         0.00024       190.62424        25.00024
R15  23478041.890 4   -157625.466 4      4743.330 4        29.000 4
J07  36569880.199 5    -16465.426 5       512.599 5        34.819 5  36569894.589 5    -12270.804 5       383.312 5        34.867 5
J04  38770437.784 5    -53074.058 5      1277.252 5        33.316 5                                                                
G32                         0.00023      1971.27923        20.04023                                                                
G12  23626004.757 7   -116600.521 7      2599.458 7        43.553 7                                                                
C21                        -0.00022      -822.77022        13.70022                                        13.70022                                                                
E33                    -84805.707 5      1917.756 5        30.400 5  25584650.515 5    -63184.164 5      1584.571 5        30.926 5
C01  37000980.25425         0.00025       470.68625        32.75025                                                                                                                
C60  37509853.06925         0.00025       475.85525        35.03525                                                  37509868.05924    -10220.16624       338.68824        27.00024
C39  36173887.039 5      2903.888 5       105.934 5        35.162 5                                        35.16225  36173900.230 4      2108.656 4        80.499 4        27.218 4
C59  37028089.58726         0.00026       505.78026        38.70826                                                  37028078.79424         0.00024       376.35424        25.00024
C11  24741482.728 4    107897.871 4     -2132.549 4        29.327 4                                                                                                                
G10  23313407.864 4   -146567.577 4      3299.292 4        27.798 4                                                                
G05  25042740.27224        -0.00024     -2115.26724        23.81724                                                                
G25                         0.00023      3407.32923        19.83323  23995311.292 4    -86172.212 4      2544.846 4        26.906 4
I07                                        33.10025
E27                   -119166.901 5      2741.905 5        35.315 5  26341388.436 5    -92188.344 5      2216.194 5        34.316 5
E13                        -0.00021     -2395.19521         9.90021  26228762.70523        -0.00023     -1734.84823        21.30023
E30                    -35999.730 4      1237.904 4        25.700 4                         0.00023      1066.26423        19.51023
I03                                        33.591 5
C04  38409629.16724         0.00024       481.27224        27.90024                                                                                                                
C02  37464743.59823         0.00023       466.35823        23.10423                                                                                                                
C28  25330558.71923         0.00023       584.08623        20.20323                                                                         0.00022       441.93722        14.47122
C09  36854738.795 5    -18172.159 5       544.313 5        34.915 5                                                                                                                
E26                     33519.151 6      -536.635 6        40.913 6  23859991.871 5     23778.066 5      -296.176 5        29.575 5
I09                                        16.48122
C25                         0.00023      3713.99723        19.32423                                                  25070436.898 4    -75430.220 4      2799.077 4        29.490 4
C62  38527028.49326         0.00026       543.80826        37.58926                                                                                                                
C26                        -0.00022      -836.54622        16.77522                                        16.77522  23593107.931 3      8951.591 3      -630.858 3        21.847 3
C07                         0.00022       648.93922        14.21422                                                                                                                
> 2023 08 18 08 11 11.0009999  0 48                      
G18  20893430.679 6     54800.730 6      -936.622 6        40.451 6  20893448.067 5     40236.728 5      -699.534 5        30.990 5
G23  20977871.722 6    -97608.651 6      2129.656 6        37.104 6  20977888.510 6    -71609.829 6      1590.273 6        37.110 6
G24  20895177.27024     86770.50324     -1581.18024        26.14124  20895169.775 6     63339.754 6     -1181.564 6        38.985 6
J03                         0.00023       132.13723        17.65523                                                                
J02  37431600.04324    -19474.98724       567.64324        28.70024  37431529.891 4    -14481.515 4       423.030 4        29.282 4
C43                        -0.00023     -1533.32823        17.80023                                        17.80023  24513931.25923        -0.00023     -1153.01923        20.60023
C14  22801115.91626    -50596.72426      1191.49526        36.88726                                                                                                                
C24  22236591.728 6    -86734.253 6      1908.515 6        40.695 6                                        40.69526  22236604.919 4    -52436.892 4      1437.901 4        24.402 4
C38  35961774.282 6    -18548.390 6       542.583 6        40.417 6                                        40.41726  35961775.481 4    -13912.832 4       408.871 4        27.124 4
C06  35982762.452 5    -11946.670 5       410.664 5        34.840 5                                                                                                                
S37                                        36.00026
C16  36281022.970 5     -3772.429 5       247.486 5        34.112 5                                                                                                                
C08  35752362.355 5    -37663.618 5       925.241 5        32.008 5                                                                                                                
C03  36122911.22925         0.00025       480.11225        31.59425                                                                                                                
C13  35947992.822 5    -46707.978 5      1107.148 5        35.044 5                                                                                                                
R14  20559250.827 7   -145023.204 7      3085.968 7        45.000 7
R18  21479672.132 4    138206.716 4     -2626.733 4        29.000 4
R03  21553049.63424     -1706.90424       195.45124        24.00024
R15  23477151.806 4   -162371.046 4      4747.090 4        28.000 4
J07  36569781.267 5    -16981.315 5       516.932 5        34.778 5  36569796.557 5    -12656.071 5       386.326 5        34.838 5
J04  38770194.653 5    -54354.162 5      1281.719 5        33.255 5                                                                
G32                         0.00022      1979.83422        17.09322                                                                
G12  23625511.299 7   -119202.758 7      2603.324 7        43.513 7                                                                
C21                        -0.00023      -824.49123        19.20023                                        19.20023                                                                
E33                    -86726.218 5      1921.709 5        34.500 5  25584285.068 5    -64655.627 5      1588.091 5        30.939 5
C01  37000887.91825         0.00025       481.14525        32.74725                                                                                                                
C60  37509758.63425         0.00025       483.02225        35.03325                                                  37509768.52824    -10560.46624       341.76924        28.00024
C39  36173866.353 5      2794.821 5       110.733 5        35.213 5                                        35.21325  36173879.245 4      2026.483 4        82.746 4        27.167 4
C59  37027992.45426         0.00026       512.15026        38.71726                                                                                                                
C11  24741891.345 4    110026.595 4     -2126.937 4        29.385 4                                                                                                                
G10  23312776.80024         0.00024      3304.19924        24.05424                                                                
G05  25043141.69424        -0.00024     -2110.73624        23.79624                                                                
G25                         0.00023      3413.83223        19.83323  23994662.541 4    -88718.581 4      2547.723 4        26.824 4
I07                                        34.10025
E27                   -121911.478 5      2745.927 5        35.309 5  26340866.198 5    -94291.295 5      2219.829 5        34.300 5
E13                        -0.00021     -2390.14321         9.90021  26229222.28723        -0.00023     -1731.90023        22.20023
E30                    -37240.430 4      1242.100 4        28.300 4                         0.00023      1070.61123        19.43923
I03                                        33.591 5
C04  38409534.43325         0.00025       492.73325        30.40025                                                                                                                
C02  37464648.86323         0.00023       479.64523        23.09323                                                                                                                
C28                         0.00023       592.35823        17.60023                                                                         0.00022       444.23922        14.50722
C09  36854633.268 5    -18719.083 5       547.913 5        34.944 5                                                                                                                
E26                     34053.075 6      -532.563 6        40.872 6  23860093.501 5     24187.252 5      -292.508 5        29.596 5
I09                                        16.48622
C25                         0.00023      3717.27023        19.28723                                                  25069723.092 4    -78231.260 4      2801.819 4        29.485 4
C62  38526921.46726         0.00026       552.17926        37.52926                                                                                                                
C26                        -0.00022      -836.10222        16.81622                                        16.81622  23593268.62023        -0.00023      -629.80923        21.82923
C07                         0.00022       654.55822        14.28322                                                                                                                
> 2023 08 18 08 11 12.0009999  0 48                      
G18  20893608.456 6     55733.596 6      -931.489 6        40.407 6  20893625.544 5     40933.336 5      -695.465 5        30.932 5
G23  20977467.002 6    -99741.954 6      2134.789 6        37.210 6  20977482.591 6    -73202.841 6      1593.856 6        37.126 6
G24  20895477.06224     88349.10524     -1577.22224        26.00224  20895470.167 6     64518.596 6     -1178.019 6        38.964 6
J03                         0.00023       138.22123        17.70723                                                                
J02  37431492.41724    -20045.23524       571.03924        27.30024  37431421.366 4    -14907.388 4       426.508 4        29.247 4
C43                        -0.00023     -1527.59423        17.80023                                        17.80023  24514224.45623        -0.00023     -1148.94823        20.65523
C14  22800886.27526    -51792.30726      1196.69426        36.85726                                                                                                                
C24  22236224.182 6    -88646.207 6      1913.181 6        40.685 6                                        40.68526  22236237.673 4    -53877.774 4      1441.902 4        24.286 4
C38  35961669.055 6    -19094.959 6       547.915 6        40.461 6                                        40.46126  35961670.554 4    -14324.726 4       412.921 4        27.177 4
C06  35982683.307 5    -12361.241 5       416.062 5        34.863 5                                                                                                                
S37                                        37.00026
C16  36280974.404 5     -4023.834 5       252.419 5        31.200 5                                                                                                                
C08  35752183.378 5    -38592.430 5       929.974 5        31.997 5                                                                                                                
C03  36122816.19525         0.00025       493.18525        31.66925                                                                                                                
C13  35947779.670 5    -47819.447 5      1112.880 5        35.151 5                                                                                                                
R14  20558670.429 7   -148112.731 7      3090.567 7        45.000 7
R18  21480158.995 5    140829.803 5     -2621.691 5        32.000 5
R03  21553009.16223         0.00023       198.24723        20.00023
R15  23476259.624 4   -167121.860 4      4751.990 4        28.000 4
J07  36569681.436 5    -17502.417 5       522.863 5        34.774 5  36569697.325 5    -13045.142 5       389.908 5        34.836 5
J04  38769950.921 5    -55639.518 5      1286.719 5        33.297 5                                                                
G32  24224804.21723         0.00023      1983.71423        21.47923                                                                
G12  23625016.941 7   -121809.976 7      2608.590 7        43.442 7                                                                
C21                        -0.00023      -817.63223        19.70023                                        19.70023                                                                
E33                    -88651.401 5      1926.327 5        34.420 5  25583918.722 5    -66130.751 5      1592.940 5        30.937 5
C01  37000795.28225         0.00025       485.56225        32.77925                                                                                                                
C60  37509667.49825         0.00025       489.02925        35.04625                                                  37509668.69724         0.00024       342.31724        29.00024
C39  36173844.169 5      2680.699 5       115.400 5        35.242 5                                        35.24225  36173857.360 4      1940.523 4        87.059 4        27.118 4
C59  37027894.72226         0.00026       510.11626        38.79626                                                  37027879.43224         0.00024       410.57924        27.00024
C11  24742298.763 4    112150.300 4     -2122.032 4        29.415 4                                                                                                                
G10  23312143.03924         0.00024      3308.06224        25.52724                                                                
G05  25043541.61723        -0.00023     -2105.96923        21.22723                                                                
G25                         0.00022      3415.91822        13.10022  23994012.591 4    -91268.812 4      2551.333 4        26.730 4
I07                                        34.11025
E27                   -124661.187 5      2751.165 5        35.313 5  26340342.760 5    -96398.131 5      2224.753 5        34.280 5
E13                        -0.00021     -2385.48021         9.90021  26229680.07023        -0.00023     -1726.71523        20.40023
E30                    -38485.898 4      1246.773 4        28.800 4                         0.00022      1073.81522        16.60022
I03                                        33.556 5
C04  38409439.99825         0.00025       493.57325        30.37525                                                                                                                
C02  37464553.22923         0.00023       488.66323        22.96823                                                                                                                
C28                         0.00023       593.40023        17.70023                                                                         0.00022       449.04422        14.54122
C09  36854526.842 5    -19271.053 5       553.179 5        34.951 5                                                                                                                
E26                     34582.346 6      -527.899 6        40.838 6  23860194.231 5     24592.828 5      -288.209 5        29.571 5
I09                                        16.49122
C25                         0.00023      3723.56323        19.31223                                                  25069008.387 4    -81036.178 4      2806.235 4        29.440 4
C62  38526816.24026         0.00026       552.88026        37.56726                                                                                                                
C26                        -0.00022      -832.56322        16.81522                                        16.81522  23593428.110 3     10210.158 3      -624.401 3        21.797 3
C07                         0.00022       661.26622        14.34822                                                                                                                
> 2023 08 18 08 11 13.0009999  0 49                      
G18  20893784.134 6     56661.969 6      -926.288 6        40.388 6  20893802.122 5     41626.633 5      -691.477 5        30.914 5
G23  20977060.483 6   -101880.116 6      2140.589 6        37.275 6  20977075.773 6    -74799.542 6      1598.742 6        37.155 6
G24  20895775.65625     89923.13625     -1571.50725        30.90925  20895769.660 6     65693.970 6     -1173.550 6        38.951 6
J03                         0.00023       146.60723        17.75623                                                                
J02  37431380.89424    -20620.66324       577.45324        28.70024  37431311.642 4    -15337.099 4       432.715 4        29.224 4
C43                        -0.00023     -1518.94023        17.60023                                        17.60023  24514516.45323        -0.00023     -1144.54323        23.20023
C14  22800655.43526    -52992.97926      1203.62726        36.79426                                                                                                                
C24  22235855.737 6    -90562.753 6      1919.048 6        40.645 6                                        40.64526  22235869.528 4    -55322.154 4      1446.664 4        24.231 4
C38  35961562.928 6    -19646.383 6       553.715 6        40.502 6                                        40.50226  35961564.427 4    -14740.331 4       417.853 4        27.208 4
C06  35982603.262 5    -12780.787 5       421.928 5        34.834 5                                                                                                                
S37                                        38.00026
C16  36280924.938 5     -4280.209 5       258.952 5        34.600 5                                                                                                                
C08  35752004.103 5    -39526.173 5       936.374 5        32.007 5                                                                                                                
C03  36122720.86125         0.00025       478.17325        31.66525                                                                                                                
C13  35947565.618 5    -48935.874 5      1118.546 5        35.188 5                                                                                                                
R14  20558089.131 7   -151206.870 7      3096.367 7        44.000 7
R18  21480648.556 5    143448.168 5     -2616.158 5        33.000 5
R19                         0.00022        75.34522        16.00022
R03                         0.00022       206.33122        15.00022
R15  23475368.640 4   -171878.257 4      4760.123 4        28.000 4
J07  36569582.205 5    -18028.627 5       528.796 5        34.805 5  36569597.195 5    -13438.128 5       395.135 5        34.879 5
J04  38769705.092 5    -56930.095 5      1293.385 5        33.277 5                                                                
G32  24224423.78024    -89144.92724      1988.38024        27.45724                                                                
G12  23624522.284 6   -124422.119 6      2614.325 6        40.600 6                                                                
C21                        -0.00023      -811.10023        19.63023                                        19.63023                                                                
E33                    -90581.376 5      1932.299 5        31.500 5  25583551.476 5    -67609.509 5      1599.637 5        30.975 5
C01  37000701.74725         0.00025       483.05925        32.76525                                                                                                                
C60  37509570.66525         0.00025       489.58925        35.07325                                                  37509582.65624    -11248.74124       349.87524        26.00024
C39  36173821.085 5      2561.595 5       121.598 5        35.339 5                                        35.33925  36173834.575 4      1850.783 4        91.692 4        27.177 4
C59  37027796.09026         0.00026       513.53826        38.87126                                                  37027790.09424         0.00024       404.22224        26.00024
C11  24742705.881 4    114268.778 4     -2115.425 4        29.409 4                                                                                                                
G10  23311509.57824   -156489.36624      3315.53124        25.47824                                                                
G05  25043941.84024    114457.67624     -2101.13024        25.95624                                                                
G25                         0.00022      3424.32522        13.10022  23993361.741 4    -93822.952 4      2556.011 4        26.686 4
I07                                        34.11425
E27                   -127416.029 5      2757.449 5        35.252 5  26339818.723 5    -98508.944 5      2231.943 5        34.251 5
E13                        -0.00021     -2377.50021         3.60021  26230136.65423        -0.00023     -1721.98123        21.90023
E30                    -39736.198 4      1252.633 4        27.400 4                         0.00022      1083.59622        16.55522
I03                                        33.558 5
C04  38409342.86525         0.00025       509.93225        30.39625                                                                                                                
C02  37464455.49723         0.00023       507.36723        22.92923                                                                                                                
C28  25330219.65423         0.00023       601.12223        20.20023                                                                         0.00022       457.76022        14.57322
C09  36854419.216 5    -19827.936 5       559.111 5        34.963 5                                                                                                                
E26                     35106.864 6      -522.051 6        40.816 6  23860294.062 5     24994.772 5      -280.929 5        29.597 5
I09                                        16.50122
C25                         0.00023      3728.79723        19.32123                                                  25068292.782 4    -83844.772 4      2810.801 4        29.458 4
C62  38526705.91626         0.00026       560.38726        37.62326                                                                                                                
C26                        -0.00022      -827.88322        16.85422                                        16.85422  23593587.299 3     10833.916 3      -622.994 3        21.797 3
C07                         0.00022       667.22622        14.36022                                                                                                                
> 2023 08 18 08 11 14.0009999  0 48                      
G18  20893959.813 6     57585.750 6      -919.955 6        40.387 6  20893977.800 5     42316.498 5      -686.739 5        30.898 5
G23  20976653.065 6   -104023.134 6      2146.789 6        37.379 6  20976668.055 6    -76399.842 6      1603.401 6        37.180 6
G24  20896073.949 4     91492.464 4     -1565.214 4        25.230 4  20896068.253 6     66865.870 6     -1168.740 6        38.916 6
J03                         0.00023       153.04723        17.67823                    -11779.074 3       110.555 3        19.400 3
J02  37431269.371 4    -21200.768 4       585.930 4        27.700 4  37431201.019 4    -15770.529 4       436.818 4        29.257 4
C43                        -0.00023     -1512.59523        19.30023                                        19.30023  24514808.15123        -0.00023     -1140.49923        23.20523
C14  22800422.79626    -54198.66626      1209.22826        36.69426                                                                                                                
C24  22235486.693 6    -92483.983 6      1925.047 6        40.617 6                                        40.61726  22235500.483 4    -56769.848 4      1450.674 4        24.184 4
C38  35961455.902 6    -20202.805 6       560.183 6        40.561 6                                        40.56126  35961457.701 4    -15159.539 4       421.833 4        27.242 4
C06  35982521.719 5    -13205.376 5       428.194 5        34.917 5                                                                                                                
S37                                        38.00026
C16  36280874.873 5     -4541.510 5       265.484 5        34.575 5                                                                                                                
C08  35751823.628 5    -40464.790 5       942.245 5        31.941 5                                                                                                                
C03  36122627.02625         0.00025       495.98525        31.71625                                                                                                                
C13  35947350.667 5    -50057.289 5      1125.547 5        35.288 5                                                                                                                
R14  20557506.934 7   -154305.640 7      3102.500 7        44.000 7
R18  21481138.118 5    146061.700 5     -2610.158 5        33.000 5
R19                         0.00022        81.56222        13.00022
R03                         0.00022       210.73822        16.00022
R15  23474477.657 4   -176639.636 4      4765.655 4        27.000 4
J07  36569481.475 5    -18559.922 5       534.662 5        34.829 5  36569496.165 5    -13834.861 5       399.908 5        34.905 5
J04  38769458.662 5    -58225.898 5      1299.784 5        33.303 5                                                                
G32  24224045.143 4    -91137.789 4      1997.924 4        29.036 4                                                                
G12  23624027.326 6   -127039.256 6      2621.392 6        40.636 6                                                                
C21                        -0.00023      -803.44823        19.52823                                        19.52823                                                                
E33                    -92516.090 5      1938.812 5        31.570 5  25583183.331 5    -69091.892 5      1606.560 5        30.991 5
C01  37000608.81225         0.00025       488.52125        32.68625                                                                                                                
C60  37509476.53025         0.00025       503.41325        35.05425                                                  37509481.32624    -11596.41724       351.72724        29.00024
C39  36173797.401 5      2437.499 5       127.863 5        35.347 5                                        35.34725  36173810.592 4      1757.157 4        97.402 4        27.143 4
C59  37027697.15926         0.00026       527.82326        38.86726                                                  37027699.25724         0.00024       370.26224        26.00024
C11  24743112.100 4    116382.198 4     -2109.651 4        29.433 4                                                                                                                
G10  23310877.01623         0.00023      3323.74023        23.21723                                                                
G05  25044339.664 4    116556.437 4     -2094.582 4        25.864 4                                                                
G25                         0.00022      3429.39922        13.10022  23992709.993 4    -96381.154 4      2561.258 4        26.610 4
I07                                        34.09325
E27                   -130175.952 5      2763.982 5        35.209 5  26339293.487 5   -100623.584 5      2238.942 5        34.228 5
E13                        -0.00021     -2370.19321         3.60021  26230592.63923        -0.00023     -1708.77023        22.80023
E30                    -40991.363 4      1258.872 4        27.200 4                         0.00022      1092.29422        16.51222
I03                                        33.530 5
C04  38409245.73225         0.00025       517.74925        30.42625                                                                                                                
C28  25330105.13323         0.00023       607.92323        20.16023                                                                         0.00022       462.71422        14.52922
C09  36854311.291 5    -20389.812 5       565.910 5        35.024 5                                                                                                                
E26                     35626.694 6      -515.823 6        40.770 6  23860392.994 5     25393.165 5      -274.460 5        29.557 5
I09                                        16.51022
C25                         0.00023      3737.17923        19.38423                                                  25067575.978 4    -86657.230 4      2815.642 4        29.455 4
C62  38526598.89126         0.00026       570.69626        37.62126                                                                                                                
C26                        -0.00022      -819.80222        16.84622                                        16.84622  23593744.990 3     11453.791 3      -619.104 3        21.742 3
C07                         0.00022       675.30922        14.37222                                                                                                                
> 2023 08 18 08 11 15.0009999  0 48                      
G18  20894134.891 6     58505.080 6      -915.288 6        40.392 6  20894152.879 5     43002.967 5      -684.141 5        30.866 5
G23  20976243.849 6   -106170.984 6      2151.322 6        39.902 6  20976259.138 6    -78003.747 6      1606.528 6        37.179 6
G24  20896373.741 4     93057.267 4     -1560.998 4        29.336 4  20896365.947 6     68034.391 6     -1166.029 6        38.882 6
J03                         0.00023       158.33623        17.73423                    -11891.303 3       115.454 3        19.500 3
J02  37431155.750 5    -21786.230 5       589.292 5        31.100 5  37431089.796 4    -16207.780 4       439.921 4        29.344 4
C43                        -0.00023     -1506.73523        19.80023                                        19.80023  24515098.65023        -0.00023     -1135.62623        23.18923
C14  22800189.25725    -55409.44025      1214.82925        33.50025                                                                                                                
C24  22235116.449 6    -94409.733 6      1929.848 6        40.641 6                                        40.64126  22235130.539 4    -58221.110 4      1453.891 4        24.204 4
C38  35961347.677 6    -20764.129 6       565.517 6        40.587 6                                        40.58726  35961349.776 4    -15582.534 4       425.219 4        27.154 4
C06  35982439.875 5    -13634.835 5       433.526 5        34.981 5                                                                                                                
S37                                        37.00026
C16  36280824.208 5     -4807.756 5       270.284 5        34.481 5                                                                                                                
C08  35751641.953 4    -41408.399 4       947.271 4        29.400 4                                                                                                                
C03  36122527.19525         0.00025       506.67825        31.74025                                                                                                                
C13  35947134.816 5    -51183.615 5      1130.146 5        35.343 5                                                                                                                
R14  20556923.538 7   -157408.973 7      3107.233 7        44.000 7
R18  21481625.580 5    148670.389 5     -2604.558 5        33.000 5
R19                         0.00022        85.52622        16.00022
R03                         0.00022       214.98722        13.00022
R15  23473587.274 4   -181406.306 4      4770.637 4        26.000 4
J07  36569379.845 5    -19096.370 5       540.594 5        34.872 5  36569394.235 5    -14235.407 5       403.452 5        34.849 5
J04  38769211.333 5    -59526.757 5      1304.385 5        33.207 5                                                                
G32  24223665.006 5    -93134.774 5      2000.402 5        32.047 5                                                                
G12  23623531.469 6   -129661.299 6      2626.125 6        40.640 6                                                                
C21                        -0.00023      -803.89123        19.45123                                        19.45123                                                                
E33                    -94455.371 5      1943.113 5        31.631 5  25582814.286 5    -70577.805 5      1610.574 5        31.016 5
C01  37000512.57825         0.00025       500.13225        32.56625                                                                                                                
C60  37509380.29625         0.00025       503.77325        35.08125                                                  37509393.48724         0.00024       361.36424        27.00024
C39  36173772.518 5      2308.395 5       133.197 5        35.384 5                                        35.38425  36173785.709 4      1659.820 4       102.141 4        27.055 4
C59  37027597.02826         0.00026       529.64526        38.90826                                                  37027584.43724         0.00024       435.20824        27.00024
C11  24743516.520 4    118490.559 4     -2103.652 4        29.461 4                                                                                                                
G10  23310243.85424         0.00024      3327.00124        24.48424                                                                
G05  25044736.88923        -0.00023     -2090.76723        22.88023                                                                
G25  23992031.26223         0.00023      3435.18023        22.94823  23992057.344 4    -98943.181 4      2565.053 4        24.102 4
I07                                        34.00825
E27                   -132940.869 5      2769.120 5        35.228 5  26338767.351 5   -102742.092 5      2242.918 5        34.191 5
E13                        -0.00021     -2364.24821         3.60021  26231047.72423        -0.00023     -1708.05623        21.60023
E30                    -42251.090 4      1263.940 4        24.900 4                         0.00022      1096.45822        16.40622
I03                                        33.508 5
C04  38409148.60025         0.00025       512.73925        30.42925                                                                                                                
C09  36854202.467 5    -20956.582 5       570.709 5        35.062 5                                                                                                                
E26                     36141.918 6      -511.215 6        40.736 6  23860491.026 5     25787.987 5      -269.860 5        29.524 5
I09                                        16.51922
C25                         0.00023      3743.22823        19.40423                                                  25066858.575 4    -89473.456 4      2819.247 4        29.432 4
C62  38526491.56526         0.00026       570.27926        37.67426                                                                                                                
C26                        -0.00022      -811.50522        16.84322                                        16.84322  23593902.381 3     12070.264 3      -614.169 3        21.669 3
C07                         0.00022       675.86022        14.41822                                                                                                                
C28                                                                                                                                         0.00022       464.25322        14.61222
> 2023 08 18 08 11 16.0009999  0 48                      
G18  20894308.771 6     59419.961 6      -913.154 6        40.366 6  20894327.058 5     43686.164 5      -681.897 5        30.857 5
G23  20975834.932 6   -108323.677 6      2154.789 6        39.892 6  20975849.621 6    -79611.252 6      1608.883 6        37.181 6
G24  20896672.934 4     94617.583 4     -1559.224 4        28.197 4  20896663.041 6     69199.493 6     -1163.825 6        38.892 6
J03                         0.00023       160.15823        17.85223                                                                
J02  37431010.950 5    -22376.815 5       592.904 5        29.500 5  37430977.074 4    -16648.780 4       442.315 4        29.371 4
C43                        -0.00023     -1502.48723        17.90023                                        17.90023  24515387.65023        -0.00023     -1133.21123        23.17423
C14  22799954.82025    -56625.12725      1217.49525        33.54025                                                                                                                
C24  22234745.606 6    -96340.047 6      1932.114 6        40.668 6                                        40.66826  22234759.996 4    -59675.804 4      1454.830 4        24.223 4
C38  35961238.852 6    -21330.260 6       567.784 6        40.577 6                                        40.57726  35961240.951 4    -16009.299 4       428.163 4        27.126 4
C06  35982356.833 5    -14069.209 5       436.658 5        34.986 5                                                                                                                
S37                                        37.00026
C16  36280772.644 5     -5078.965 5       273.282 5        34.431 5                                                                                                                
C08  35751459.080 4    -42356.806 4       950.208 4        29.465 4                                                                                                                
C03  36122429.76225         0.00025       514.05225        31.70325                                                                                                                
C13  35946917.767 5    -52314.894 5      1133.080 5        35.380 5                                                                                                                
R14  20556339.842 7   -160516.827 7      3109.700 7        43.000 7
R18  21482114.242 5    151274.346 5     -2602.292 5        32.000 5
R19                         0.00022        86.67422        14.00022
R03                         0.00022       221.32822        14.00022
R15  23472697.490 4   -186178.235 4      4774.051 4        26.000 4
J07  36569276.417 5    -19637.858 5       544.060 5        34.828 5  36569291.107 5    -14639.773 5       405.846 5        34.826 5
J04  38768961.307 5    -60832.864 5      1308.422 5        30.600 5                                                                
G32  24223283.370 5    -95136.835 5      2003.635 5        30.595 5                                                                
G12  23623033.814 6   -132288.183 6      2628.791 6        40.590 6                                                                
E33                    -96399.318 5      1945.539 5        31.679 5  25582444.642 5    -72067.290 5      1613.968 5        31.070 5
C01  37000414.54625         0.00025       507.84125        32.48225                                                                                                                
C60  37509281.36525         0.00025       503.88125        35.06625                                                  37509290.35924         0.00024       364.12824        28.00024
C39  36173746.736 5      2174.423 5       135.730 5        35.449 5                                        35.44925  36173759.927 4      1558.967 4       102.094 4        27.057 4
C59  37027494.79926         0.00026       533.20026        38.90226                                                  37027482.50724         0.00024       454.31924        25.00024
C11  24743921.540 4    120593.844 4     -2100.733 4        29.442 4                                                                                                                
G10  23309611.29224         0.00024      3327.88424        23.53624                                                                
G05  25045131.41624    120740.95124     -2087.77224        25.88724                                                                
G25  23991383.41123         0.00023      3438.61823        23.41123  23991403.497 4   -101508.970 4      2567.431 4        24.100 4
I07                                        33.94725
E27                   -135710.775 5      2771.530 5        35.261 5  26338240.316 5   -104864.495 5      2246.804 5        34.206 5
E13                        -0.00021     -2360.67121         3.60021                        -0.00023     -1705.04523        19.90023
E30                    -43515.683 4      1266.680 4        24.400 4                         0.00022      1096.68022        13.80022
I03                                        33.497 5
C04  38409046.67024         0.00024       527.84124        27.70024                                                                                                                
C28  25329871.59523         0.00023       613.71723        21.20023                                                                         0.00022       463.04922        14.64122
C09  36854093.042 5    -21528.251 5       573.774 5        35.033 5                                                                                                                
E26                     36652.526 6      -509.150 6        40.679 6  23860588.458 5     26179.262 5      -267.100 5        29.527 5
I09                                        16.54322
C25                         0.00023      3748.87423        19.52823                                                  25066139.972 4    -92293.364 4      2820.943 4        29.420 4
C62  38526382.74026         0.00026       579.06026        37.60026                                                                                                                
C26                        -0.00022      -809.86222        14.30022                                        14.30022  23594058.57323        -0.00023      -611.58523        21.60523
C07                         0.00022       680.83822        14.46222                                                                                                                
C21                                                                                                        12.00021                                                                
